{
  "league_name": "Regional 2 South East",
  "league_url": "https://www.englandrugby.com/fixtures-and-results/search-results?competition=261&division=56595",
  "teams": [
    {
      "name": "Medway",
      "url": "https://www.englandrugby.com/fixtures-and-results/search-results?team=13595",
      "image_url": "https://images.englandrugby.com/club_images/13595.png",
      "address": "Medway RFC Priestfields  Rochester KENT ME1 3AD UNITED KINGDOM ",
      "latitude": 51.37412,
      "longitude": 0.49639,
      "formatted_address": "ME1 3AD, Rochester, Medway, England, United Kingdom",
      "place_id": 351563999
    },
    {
      "name": "Beckenham",
      "url": "https://www.englandrugby.com/fixtures-and-results/search-results?team=1785",
      "image_url": "https://images.englandrugby.com/club_images/1785.png",
      "address": "Balmoral Avenue Elmers End Beckenham KENT BR3 3RD UNITED KINGDOM ",
      "latitude": 51.3970834,
      "longitude": -0.0399249,
      "formatted_address": "BR3 3RD, London Borough of Bromley, Greater London, England, United Kingdom",
      "place_id": 350504186
    },
    {
      "name": "Sidcup",
      "url": "https://www.englandrugby.com/fixtures-and-results/search-results?team=19314",
      "image_url": "https://images.englandrugby.com/club_images/19314.png",
      "address": "Crescent Farm Sydney Road SIDCUP KENT DA14 6RA UNITED KINGDOM ",
      "latitude": 51.425832,
      "longitude": 0.092888,
      "formatted_address": "DA14 6RA, London Borough of Bexley, Greater London, England, United Kingdom",
      "place_id": 351138781
    },
    {
      "name": "Sutton & Epsom",
      "url": "https://www.englandrugby.com/fixtures-and-results/search-results?team=21414",
      "image_url": "https://images.englandrugby.com/club_images/21414.png",
      "address": "Cuddington Court Rugby Lane Cheam SURREY SM2 7NF UNITED KINGDOM ",
      "latitude": 51.34908,
      "longitude": -0.22204,
      "formatted_address": "SM2 7NF, Epsom and Ewell, Surrey, England, United Kingdom",
      "place_id": 351485734
    },
    {
      "name": "Battersea Ironsides",
      "url": "https://www.englandrugby.com/fixtures-and-results/search-results?team=1641",
      "image_url": "https://images.englandrugby.com/club_images/1641.png",
      "address": "Openview off Burntwood Lane Wandsworth London SW17 0AW UNITED KINGDOM ",
      "latitude": 51.4409947,
      "longitude": -0.1744597,
      "formatted_address": "SW17 0AW, London Borough of Wandsworth, Greater London, England, United Kingdom",
      "place_id": 351555535
    },
    {
      "name": "Reeds Weybridge",
      "url": "https://www.englandrugby.com/fixtures-and-results/search-results?team=17645",
      "image_url": "https://images.englandrugby.com/club_images/17645.png",
      "address": "North Avenue Whiteley Village Walton On Thames SURREY KT12 4EJ UNITED KINGDOM ",
      "latitude": 51.3530947,
      "longitude": -0.4290221,
      "formatted_address": "KT12 4EJ, Elmbridge, Surrey, England, United Kingdom",
      "place_id": 350219256
    },
    {
      "name": "Old Tiffinians",
      "url": "https://www.englandrugby.com/fixtures-and-results/search-results?team=16068",
      "image_url": "https://images.englandrugby.com/club_images/16068.png",
      "address": "Grist Memorial Ground Summer Road, off Hampton Court Way East Molesey SURREY KT8 9LS UNITED KINGDOM ",
      "latitude": 51.39815,
      "longitude": -0.34571,
      "formatted_address": "KT8 9LS, Elmbridge, Surrey, England, United Kingdom",
      "place_id": 350979304
    },
    {
      "name": "Old Colfeians",
      "url": "https://www.englandrugby.com/fixtures-and-results/search-results?team=15538",
      "image_url": "https://images.englandrugby.com/club_images/15538.png",
      "address": "Horn Park, Eltham Road, London, Kent, SE12 8UE, United Kingdom",
      "latitude": 51.4543889,
      "longitude": 0.0189041,
      "formatted_address": "SE12 8UE, Royal Borough of Greenwich, Greater London, England, United Kingdom",
      "place_id": 351892216
    },
    {
      "name": "Old Reigatian",
      "url": "https://www.englandrugby.com/fixtures-and-results/search-results?team=15944",
      "image_url": "https://images.englandrugby.com/club_images/15944.png",
      "address": "Geoffrey Knight Fields, Park Lane, Reigate, Surrey, RH2 8JX, United Kingdom",
      "latitude": 51.23613,
      "longitude": -0.21252,
      "formatted_address": "RH2 8JX, Reigate and Banstead, Surrey, England, United Kingdom",
      "place_id": 351375222
    },
    {
      "name": "Dartfordians",
      "url": "https://www.englandrugby.com/fixtures-and-results/search-results?team=6166",
      "image_url": "https://images.englandrugby.com/club_images/6166.png",
      "address": "War Memorial Club House Bourne Road Bexley KENT DA5 1LW UNITED KINGDOM ",
      "latitude": 51.4429686,
      "longitude": 0.1516309,
      "formatted_address": "DA5 1LW, London Borough of Bexley, Greater London, England, United Kingdom",
      "place_id": 350570907
    },
    {
      "name": "Gravesend",
      "url": "https://www.englandrugby.com/fixtures-and-results/search-results?team=8880",
      "image_url": "https://images.englandrugby.com/club_images/8880.png",
      "address": "Rectory Field, Donald Biggs Drive, Milton Road, Gravesend, Kent, DA12 2TL, United Kingdom",
      "latitude": 51.4371393,
      "longitude": 0.3805001,
      "formatted_address": "DA12 2TL, Gravesend, Gravesham, Kent, England, United Kingdom",
      "place_id": 350569683
    },
    {
      "name": "Thurrock",
      "url": "https://www.englandrugby.com/fixtures-and-results/search-results?team=22768",
      "image_url": "https://images.englandrugby.com/club_images/22768.png",
      "address": "Oakfield Long Lane Grays Essex RM16 2QH United Kingdom",
      "latitude": 51.4970754,
      "longitude": 0.3438624,
      "formatted_address": "RM16 2QH, Thurrock, Essex, England, United Kingdom",
      "place_id": 351834392
    }
  ],
  "team_count": 12
}