{
  "league_name": "North 2 West",
  "league_url": "https://www.englandrugby.com/fixtures-and-results/search-results?competition=1623&division=2737&season=2005-2006#tables",
  "teams": [
    {
      "name": "Stockport",
      "url": "https://www.englandrugby.com/fixtures-and-results/search-results?team=117609",
      "image_url": "https://images.englandrugby.com/club_images/117609.png",
      "address": "Bridge Lane Memorial Ground Headlands Road Bramhall Stockport CHESHIRE SK7 3AN UNITED KINGDOM ",
      "latitude": 53.37211,
      "longitude": -2.15291,
      "formatted_address": "SK7 3AN, Stockport, Greater Manchester, England, United Kingdom",
      "place_id": 351924550
    },
    {
      "name": "Winnington Park",
      "url": "https://www.englandrugby.com/fixtures-and-results/search-results?team=25649",
      "image_url": "https://images.englandrugby.com/club_images/25649.png",
      "address": "Winnington Park Rfc, Burrows Hill, Hartford, Northwich, Cheshire, CW8 3AA, United Kingdom",
      "latitude": 53.25223,
      "longitude": -2.54034,
      "formatted_address": "CW8 3AA, Hartford, Cheshire West and Chester, England, United Kingdom",
      "place_id": 350683530
    },
    {
      "name": "Rochdale",
      "url": "https://www.englandrugby.com/fixtures-and-results/search-results?team=17889",
      "image_url": "https://images.englandrugby.com/club_images/17889.png",
      "address": "The Clubhouse, Moorgate Avenue, Bamford, Rochdale, OL11 5LU, England",
      "latitude": 53.61566,
      "longitude": -2.19189,
      "formatted_address": "OL11 5LU, Rochdale, Greater Manchester, England, United Kingdom",
      "place_id": 351708168
    },
    {
      "name": "Vale of Lune",
      "url": "https://www.englandrugby.com/fixtures-and-results/search-results?team=23900",
      "image_url": "https://images.englandrugby.com/club_images/23900.png",
      "address": "Vale Of Lune Rufc, Powderhouse Lane, Lancaster., Lancashire, LA1 2TT, United Kingdom",
      "latitude": 54.0619369,
      "longitude": -2.8191176,
      "formatted_address": "LA1 2TT, England, United Kingdom",
      "place_id": 350226941
    },
    {
      "name": "Liverpool St Helens",
      "url": "https://www.englandrugby.com/fixtures-and-results/search-results?team=12441",
      "image_url": "https://images.englandrugby.com/club_images/12441.png",
      "address": "Moss Lane Windle St. Helens MERSEYSIDE WA11 7PL UNITED KINGDOM",
      "latitude": 53.47099,
      "longitude": -2.77798,
      "formatted_address": "WA11 7PL, Windle, St Helens, Liverpool City Region, England, United Kingdom",
      "place_id": 352124822
    },
    {
      "name": "Lymm",
      "url": "https://www.englandrugby.com/fixtures-and-results/search-results?team=13010",
      "image_url": "https://images.englandrugby.com/club_images/13010.png",
      "address": "Beechwood, Crouchley Lane, Lymm, Cheshire, WA13 0AT, United Kingdom",
      "latitude": 53.37437,
      "longitude": -2.4758,
      "formatted_address": "WA13 0AT, Lymm, Warrington, England, United Kingdom",
      "place_id": 352125816
    },
    {
      "name": "Tyldesley",
      "url": "https://www.englandrugby.com/fixtures-and-results/search-results?team=23369",
      "image_url": "https://images.englandrugby.com/club_images/23369.png",
      "address": "St. George's Park, Astley Street, Astley Street, Tyldesley., Lancs, M29 8HG, United Kingdom",
      "latitude": 53.5133491,
      "longitude": -2.4671813,
      "formatted_address": "M29 8HG, Wigan, Greater Manchester, England, United Kingdom",
      "place_id": 351549693
    },
    {
      "name": "Aspatria",
      "url": "https://www.englandrugby.com/fixtures-and-results/search-results?team=979",
      "image_url": "https://images.englandrugby.com/club_images/979.png",
      "address": "Bower Park Station Road Aspatria Wigton CUMBRIA CA7 2AJ UNITED KINGDOM",
      "latitude": 54.7611,
      "longitude": -3.33202,
      "formatted_address": "CA7 2AJ, Aspatria, Cumberland, England, United Kingdom",
      "place_id": 351034073
    },
    {
      "name": "Bowdon",
      "url": "https://www.englandrugby.com/fixtures-and-results/search-results?team=2849",
      "image_url": "https://images.englandrugby.com/club_images/2849.png",
      "address": "Clay Lane Timperley Altrincham CHESHIRE WA15 7AF UNITED KINGDOM ",
      "latitude": 53.38779,
      "longitude": -2.31441,
      "formatted_address": "WA15 7AF, Trafford, Greater Manchester, England, United Kingdom",
      "place_id": 352127702
    },
    {
      "name": "Fleetwood",
      "url": "https://www.englandrugby.com/fixtures-and-results/search-results?team=8191",
      "image_url": "https://images.englandrugby.com/club_images/8191.png",
      "address": "Fleetwood Rugby Club Melbourne Avenue Fleetwood LANCASHIRE FY7 8AY UNITED KINGDOM ",
      "latitude": 53.9038537,
      "longitude": -3.0345288,
      "formatted_address": "FY7 8AY, Fleetwood, Wyre, Lancashire, England, United Kingdom",
      "place_id": 350625726
    },
    {
      "name": "Rossendale",
      "url": "https://www.englandrugby.com/fixtures-and-results/search-results?team=18009",
      "image_url": "https://images.englandrugby.com/club_images/18009.png",
      "address": "Marlpits Sports Centre, Newchurch Road, Rawtenstall, Lancashire, BB4 7SW, United Kingdom",
      "latitude": 53.7035387,
      "longitude": -2.2757123,
      "formatted_address": "BB4 7SW, Rossendale, Lancashire, England, United Kingdom",
      "place_id": 350949552
    },
    {
      "name": "Widnes",
      "url": "https://www.englandrugby.com/fixtures-and-results/search-results?team=25369",
      "image_url": "https://images.englandrugby.com/club_images/25369.png",
      "address": "Heath Road, Widnes. LANCASHIRE WA8 7NU UNITED KINGDOM ",
      "latitude": 53.37337,
      "longitude": -2.75437,
      "formatted_address": "WA8 7NU, Widnes, Halton, Liverpool City Region, England, United Kingdom",
      "place_id": 351680370
    }
  ],
  "team_count": 12
}
