{
  "league_name": "Hellenic League Premier Division",
  "league_url": "",
  "teams": [
    {
      "name": "Cinderford Town",
      "url": "https://en.wikipedia.org/wiki/Cinderford_Town_A.F.C.",
      "image_url": null,
      "address": "Cinderford Town A.F.C.",
      "level": 9,
      "latitude": 51.8269,
      "longitude": -2.4933,
      "formatted_address": "Cinderford Town A.F.C."
    },
    {
      "name": "Cirencester Town",
      "url": "https://en.wikipedia.org/wiki/Cirencester_Town_F.C.",
      "image_url": null,
      "address": "Cirencester Town F.C.",
      "level": 9,
      "latitude": 51.71175,
      "longitude": -1.944542,
      "formatted_address": "Cirencester Town F.C."
    },
    {
      "name": "Corsham Town",
      "url": "https://en.wikipedia.org/wiki/Corsham_Town_F.C.",
      "image_url": null,
      "address": "Corsham Town F.C.",
      "level": 9,
      "latitude": 51.43053056,
      "longitude": -2.172225,
      "formatted_address": "Corsham Town F.C."
    },
    {
      "name": "Cribbs",
      "url": "https://en.wikipedia.org/wiki/Cribbs_F.C.",
      "image_url": null,
      "address": "Cribbs Friends Life F.C.",
      "level": 9,
      "latitude": 51.5162,
      "longitude": -2.62762,
      "formatted_address": "Cribbs Friends Life F.C."
    },
    {
      "name": "Droitwich Spa",
      "url": "https://en.wikipedia.org/wiki/Droitwich_Spa_F.C.",
      "image_url": null,
      "address": "Droitwich Spa F.C.",
      "level": 9,
      "latitude": 52.335427777,
      "longitude": -2.280725,
      "formatted_address": "Droitwich Spa F.C."
    },
    {
      "name": "Fairford Town",
      "url": "https://en.wikipedia.org/wiki/Fairford_Town_F.C.",
      "image_url": null,
      "address": "Fairford Town F.C.",
      "level": 9,
      "latitude": 51.70748611,
      "longitude": -1.76765556,
      "formatted_address": "Fairford Town F.C."
    },
    {
      "name": "Hallen",
      "url": "https://en.wikipedia.org/wiki/Hallen_A.F.C.",
      "image_url": null,
      "address": "Hallen A.F.C.",
      "level": 9,
      "latitude": 51.51714444,
      "longitude": -2.65254444,
      "formatted_address": "Hallen A.F.C."
    },
    {
      "name": "Hereford Pegasus",
      "url": "https://en.wikipedia.org/wiki/Hereford_Pegasus_F.C.",
      "image_url": null,
      "address": "Pegasus Juniors F.C.",
      "level": 9,
      "latitude": 52.07391389,
      "longitude": -2.71284722,
      "formatted_address": "Pegasus Juniors F.C."
    },
    {
      "name": "Highworth Town",
      "url": "https://en.wikipedia.org/wiki/Highworth_Town_F.C.",
      "image_url": null,
      "address": "Highworth Town F.C.",
      "level": 9,
      "latitude": 51.62795556,
      "longitude": -1.71368611,
      "formatted_address": "Highworth Town F.C."
    },
    {
      "name": "Longlevens",
      "url": "https://en.wikipedia.org/wiki/Longlevens_A.F.C.",
      "image_url": null,
      "address": "Longlevens A.F.C.",
      "level": 9,
      "latitude": 51.8648,
      "longitude": -2.20957,
      "formatted_address": "Longlevens A.F.C."
    },
    {
      "name": "Lydney Town",
      "url": "https://en.wikipedia.org/wiki/Lydney_Town_F.C.",
      "image_url": null,
      "address": null,
      "level": 9
    },
    {
      "name": "Mangotsfield United",
      "url": "https://en.wikipedia.org/wiki/Mangotsfield_United_F.C.",
      "image_url": null,
      "address": "Mangotsfield United F.C.",
      "level": 9,
      "latitude": 51.48284444,
      "longitude": -2.48156389,
      "formatted_address": "Mangotsfield United F.C."
    },
    {
      "name": "Pershore Town",
      "url": "https://en.wikipedia.org/wiki/Pershore_Town_F.C.",
      "image_url": null,
      "address": "Pershore Town F.C.",
      "level": 9,
      "latitude": 52.11276667,
      "longitude": -2.07338611,
      "formatted_address": "Pershore Town F.C."
    },
    {
      "name": "Roman Glass St George",
      "url": "https://en.wikipedia.org/wiki/Roman_Glass_St_George_F.C.",
      "image_url": null,
      "address": "Roman Glass St George F.C.",
      "level": 9,
      "latitude": 51.46309167,
      "longitude": -2.52983889,
      "formatted_address": "Roman Glass St George F.C."
    },
    {
      "name": "Royal Wootton Bassett Town",
      "url": "https://en.wikipedia.org/wiki/Royal_Wootton_Bassett_Town_F.C.",
      "image_url": null,
      "address": "Wootton Bassett Town F.C.",
      "level": 9,
      "latitude": 51.5454,
      "longitude": -1.89623,
      "formatted_address": "Wootton Bassett Town F.C."
    },
    {
      "name": "Slimbridge",
      "url": "https://en.wikipedia.org/wiki/Slimbridge_A.F.C.",
      "image_url": null,
      "address": "Slimbridge F.C.",
      "level": 9,
      "latitude": 51.72375556,
      "longitude": -2.36934167,
      "formatted_address": "Slimbridge F.C."
    },
    {
      "name": "Thornbury Town",
      "url": "https://en.wikipedia.org/wiki/Thornbury_Town_F.C.",
      "image_url": null,
      "address": "Thornbury Town F.C.",
      "level": 9,
      "latitude": 51.605815,
      "longitude": -2.5307773,
      "formatted_address": "Thornbury Town F.C."
    },
    {
      "name": "Tuffley Rovers",
      "url": "https://en.wikipedia.org/wiki/Tuffley_Rovers_F.C.",
      "image_url": null,
      "address": "Tuffley Rovers F.C.",
      "level": 9,
      "latitude": 51.84,
      "longitude": -2.26223,
      "formatted_address": "Tuffley Rovers F.C."
    },
    {
      "name": "Westfields",
      "url": "https://en.wikipedia.org/wiki/Westfields_F.C.",
      "image_url": null,
      "address": "Westfields F.C.",
      "level": 9,
      "latitude": 52.063913888,
      "longitude": -2.720408333,
      "formatted_address": "Westfields F.C."
    },
    {
      "name": "Worcester Raiders",
      "url": "https://en.wikipedia.org/wiki/Worcester_Raiders_F.C.",
      "image_url": null,
      "address": "Worcester Raiders F.C.",
      "level": 9,
      "latitude": 52.215555555,
      "longitude": -2.1625,
      "formatted_address": "Worcester Raiders F.C."
    }
  ],
  "team_count": 20
}
