{
  "league_name": "Midland League Premier Division",
  "league_url": "",
  "teams": [
    {
      "name": "1874 Northwich",
      "url": "https://en.wikipedia.org/wiki/1874_Northwich_F.C.",
      "image_url": null,
      "address": "1874 Northwich F.C.",
      "level": 9,
      "latitude": 53.274185726,
      "longitude": -2.547431028,
      "formatted_address": "1874 Northwich F.C."
    },
    {
      "name": "A.F.C. Wolverhampton City",
      "url": "https://en.wikipedia.org/wiki/A.F.C._Wolverhampton_City",
      "image_url": null,
      "address": "A.F.C. Wulfrunians",
      "level": 9,
      "latitude": 52.57532889,
      "longitude": -2.18923,
      "formatted_address": "A.F.C. Wulfrunians"
    },
    {
      "name": "Abbey Hulton United",
      "url": "https://en.wikipedia.org/wiki/Abbey_Hulton_United_F.C.",
      "image_url": null,
      "address": "Abbey Hulton United F.C.",
      "level": 9,
      "latitude": 53.040378,
      "longitude": -2.1485648,
      "formatted_address": "Abbey Hulton United F.C."
    },
    {
      "name": "Brocton",
      "url": "https://en.wikipedia.org/wiki/Brocton_F.C.",
      "image_url": null,
      "address": "Brocton F.C.",
      "level": 9,
      "latitude": 52.7904,
      "longitude": -2.09892,
      "formatted_address": "Brocton F.C."
    },
    {
      "name": "Coton Green",
      "url": "https://en.wikipedia.org/wiki/Coton_Green_F.C.",
      "image_url": null,
      "address": "Coton Green F.C.",
      "level": 9,
      "latitude": 52.610029,
      "longitude": -1.6976599,
      "formatted_address": "Coton Green F.C."
    },
    {
      "name": "Dudley Town",
      "url": "https://en.wikipedia.org/wiki/Dudley_Town_F.C.",
      "image_url": null,
      "address": "Dudley Town F.C.",
      "level": 9,
      "latitude": 52.4898,
      "longitude": -2.1352,
      "formatted_address": "Dudley Town F.C."
    },
    {
      "name": "Hanley Town",
      "url": "https://en.wikipedia.org/wiki/Hanley_Town_F.C.",
      "image_url": null,
      "address": "Hanley Town F.C.",
      "level": 9,
      "latitude": 53.02845556,
      "longitude": -2.14857222,
      "formatted_address": "Hanley Town F.C."
    },
    {
      "name": "Highgate United",
      "url": "https://en.wikipedia.org/wiki/Highgate_United_F.C.",
      "image_url": null,
      "address": "Highgate United F.C.",
      "level": 9,
      "latitude": 52.38903333,
      "longitude": -1.84583611,
      "formatted_address": "Highgate United F.C."
    },
    {
      "name": "Lye Town",
      "url": "https://en.wikipedia.org/wiki/Lye_Town_F.C.",
      "image_url": null,
      "address": "Lye Town F.C.",
      "level": 9,
      "latitude": 52.45665,
      "longitude": -2.12006944,
      "formatted_address": "Lye Town F.C."
    },
    {
      "name": "Northwich Victoria",
      "url": "https://en.wikipedia.org/wiki/Northwich_Victoria_F.C.",
      "image_url": null,
      "address": "Marston Road",
      "level": 9,
      "latitude": 52.818542,
      "longitude": -2.116858,
      "formatted_address": "Marston Road"
    },
    {
      "name": "Romulus",
      "url": "https://en.wikipedia.org/wiki/Romulus_F.C.",
      "image_url": null,
      "address": "Romulus F.C.",
      "level": 9,
      "latitude": 52.55670833,
      "longitude": -1.81865833,
      "formatted_address": "Romulus F.C."
    },
    {
      "name": "Stone Old Alleynians",
      "url": "https://en.wikipedia.org/wiki/Stone_Old_Alleynians_F.C.",
      "image_url": null,
      "address": "Stone Old Alleynians F.C.",
      "level": 9,
      "latitude": 52.89128,
      "longitude": -2.19311,
      "formatted_address": "Stone Old Alleynians F.C."
    },
    {
      "name": "Stourport Swifts",
      "url": "https://en.wikipedia.org/wiki/Stourport_Swifts_F.C.",
      "image_url": null,
      "address": "Stourport Swifts F.C.",
      "level": 9,
      "latitude": 52.335427777,
      "longitude": -2.280725,
      "formatted_address": "Stourport Swifts F.C."
    },
    {
      "name": "Studley",
      "url": "https://en.wikipedia.org/wiki/Studley_F.C.",
      "image_url": null,
      "address": "Studley F.C.",
      "level": 9,
      "latitude": 52.2823,
      "longitude": -1.89322,
      "formatted_address": "Studley F.C."
    },
    {
      "name": "Tividale",
      "url": "https://en.wikipedia.org/wiki/Tividale_F.C.",
      "image_url": null,
      "address": "Tividale F.C.",
      "level": 9,
      "latitude": 52.5107,
      "longitude": -2.05018,
      "formatted_address": "Tividale F.C."
    },
    {
      "name": "Uttoxeter Town",
      "url": "https://en.wikipedia.org/wiki/Uttoxeter_Town_F.C.",
      "image_url": null,
      "address": "Uttoxeter Town F.C.",
      "level": 9,
      "latitude": 52.899888888,
      "longitude": -1.874638888,
      "formatted_address": "Uttoxeter Town F.C."
    },
    {
      "name": "Whitchurch Alport",
      "url": "https://en.wikipedia.org/wiki/Whitchurch_Alport_F.C.",
      "image_url": null,
      "address": "Whitchurch Alport F.C.",
      "level": 9,
      "latitude": 52.9724,
      "longitude": -2.6725,
      "formatted_address": "Whitchurch Alport F.C."
    },
    {
      "name": "Winsford United",
      "url": "https://en.wikipedia.org/wiki/Winsford_United_F.C.",
      "image_url": null,
      "address": "Winsford United F.C.",
      "level": 9,
      "latitude": 53.1924,
      "longitude": -2.51232,
      "formatted_address": "Winsford United F.C."
    }
  ],
  "team_count": 18
}
