{
  "league_name": "National League North",
  "league_url": "",
  "teams": [
    {
      "name": "A.F.C. Fylde",
      "url": "https://en.wikipedia.org/wiki/AFC_Fylde",
      "image_url": null,
      "address": "AFC Fylde",
      "level": 6,
      "latitude": 53.75814,
      "longitude": -2.9017,
      "formatted_address": "AFC Fylde"
    },
    {
      "name": "A.F.C. Telford United",
      "url": "https://en.wikipedia.org/wiki/AFC_Telford_United",
      "image_url": null,
      "address": "SEAH Stadium",
      "level": 6,
      "latitude": 52.697272,
      "longitude": -2.501336,
      "formatted_address": "SEAH Stadium"
    },
    {
      "name": "Alfreton Town",
      "url": "https://en.wikipedia.org/wiki/Alfreton_Town_F.C.",
      "image_url": null,
      "address": "North Street",
      "level": 6,
      "latitude": 53.0945,
      "longitude": -1.3813,
      "formatted_address": "North Street"
    },
    {
      "name": "Bedford Town",
      "url": "https://en.wikipedia.org/wiki/Bedford_Town_F.C.",
      "image_url": null,
      "address": "Bedford Town F.C.",
      "level": 6,
      "latitude": 52.12876667,
      "longitude": -0.413875,
      "formatted_address": "Bedford Town F.C."
    },
    {
      "name": "Buxton",
      "url": "https://en.wikipedia.org/wiki/Buxton_F.C.",
      "image_url": null,
      "address": "Buxton F.C.",
      "level": 6,
      "latitude": 53.2566,
      "longitude": -1.90661389,
      "formatted_address": "Buxton F.C."
    },
    {
      "name": "Chester",
      "url": "https://en.wikipedia.org/wiki/Chester_F.C.",
      "image_url": null,
      "address": "Deva Stadium",
      "level": 6,
      "latitude": 53.189181,
      "longitude": -2.923814,
      "formatted_address": "Deva Stadium"
    },
    {
      "name": "Chorley",
      "url": "https://en.wikipedia.org/wiki/Chorley_F.C.",
      "image_url": null,
      "address": "Victory Park, Chorley",
      "level": 6,
      "latitude": 53.6455,
      "longitude": -2.62921,
      "formatted_address": "Victory Park, Chorley"
    },
    {
      "name": "Curzon Ashton",
      "url": "https://en.wikipedia.org/wiki/Curzon_Ashton_F.C.",
      "image_url": null,
      "address": "Curzon Ashton F.C.",
      "level": 6,
      "latitude": 53.49307194,
      "longitude": -2.11560806,
      "formatted_address": "Curzon Ashton F.C."
    },
    {
      "name": "Darlington",
      "url": "https://en.wikipedia.org/wiki/Darlington_F.C.",
      "image_url": null,
      "address": "Blackwell Meadows",
      "level": 6,
      "latitude": 54.638,
      "longitude": -1.69271,
      "formatted_address": "Blackwell Meadows"
    },
    {
      "name": "Hereford",
      "url": "https://en.wikipedia.org/wiki/Hereford_F.C.",
      "image_url": null,
      "address": "Edgar Street",
      "level": 6,
      "latitude": 52.060719,
      "longitude": -2.717711,
      "formatted_address": "Edgar Street"
    },
    {
      "name": "Kidderminster Harriers",
      "url": "https://en.wikipedia.org/wiki/Kidderminster_Harriers_F.C.",
      "image_url": null,
      "address": "Aggborough",
      "level": 6,
      "latitude": 52.380472222,
      "longitude": -2.242652777,
      "formatted_address": "Aggborough"
    },
    {
      "name": "King's Lynn Town",
      "url": "https://en.wikipedia.org/wiki/King%27s_Lynn_Town_F.C.",
      "image_url": null,
      "address": null,
      "level": 6
    },
    {
      "name": "Leamington",
      "url": "https://en.wikipedia.org/wiki/Leamington_F.C.",
      "image_url": null,
      "address": "Leamington F.C.",
      "level": 6,
      "latitude": 52.244444444,
      "longitude": -1.502777777,
      "formatted_address": "Leamington F.C."
    },
    {
      "name": "Macclesfield",
      "url": "https://en.wikipedia.org/wiki/Macclesfield_F.C.",
      "image_url": null,
      "address": "Moss Rose",
      "level": 6,
      "latitude": 53.242777777,
      "longitude": -2.127222222,
      "formatted_address": "Moss Rose"
    },
    {
      "name": "Marine",
      "url": "https://en.wikipedia.org/wiki/Marine_A.F.C.",
      "image_url": null,
      "address": "Marine F.C.",
      "level": 6,
      "latitude": 53.485157,
      "longitude": -3.03363,
      "formatted_address": "Marine F.C."
    },
    {
      "name": "",
      "url": "https://en.wikipedia.org/wiki/Wales",
      "image_url": null,
      "address": null,
      "level": 6
    },
    {
      "name": "Oxford City",
      "url": "https://en.wikipedia.org/wiki/Oxford_City_F.C.",
      "image_url": null,
      "address": "Oxford City F.C.",
      "level": 6,
      "latitude": 51.77391389,
      "longitude": -1.22775278,
      "formatted_address": "Oxford City F.C."
    },
    {
      "name": "Peterborough Sports",
      "url": "https://en.wikipedia.org/wiki/Peterborough_Sports_F.C.",
      "image_url": null,
      "address": "Peterborough Sports F.C.",
      "level": 6,
      "latitude": 52.59396,
      "longitude": -0.25466,
      "formatted_address": "Peterborough Sports F.C."
    },
    {
      "name": "Radcliffe",
      "url": "https://en.wikipedia.org/wiki/Radcliffe_F.C.",
      "image_url": null,
      "address": null,
      "level": 6
    },
    {
      "name": "Scarborough Athletic",
      "url": "https://en.wikipedia.org/wiki/Scarborough_Athletic_F.C.",
      "image_url": null,
      "address": "Flamingo Land Stadium",
      "level": 6,
      "latitude": 54.26961111,
      "longitude": -0.41372222,
      "formatted_address": "Flamingo Land Stadium"
    },
    {
      "name": "South Shields",
      "url": "https://en.wikipedia.org/wiki/South_Shields_F.C.",
      "image_url": null,
      "address": "South Shields F.C.",
      "level": 6,
      "latitude": 54.974524,
      "longitude": -1.470091833,
      "formatted_address": "South Shields F.C."
    },
    {
      "name": "Southport",
      "url": "https://en.wikipedia.org/wiki/Southport_F.C.",
      "image_url": null,
      "address": "Haig Avenue",
      "level": 6,
      "latitude": 53.638089,
      "longitude": -2.978856,
      "formatted_address": "Haig Avenue"
    },
    {
      "name": "Spennymoor Town",
      "url": "https://en.wikipedia.org/wiki/Spennymoor_Town_F.C.",
      "image_url": null,
      "address": "Spennymoor Town F.C.",
      "level": 6,
      "latitude": 54.704525,
      "longitude": -1.59913056,
      "formatted_address": "Spennymoor Town F.C."
    },
    {
      "name": "Worksop Town",
      "url": "https://en.wikipedia.org/wiki/Worksop_Town_F.C.",
      "image_url": null,
      "address": null,
      "level": 6
    }
  ],
  "team_count": 24
}
