{
  "league_name": "Northern Premier League Division One West",
  "league_url": "",
  "teams": [
    {
      "name": "Atherton Collieries",
      "url": "https://en.wikipedia.org/wiki/Atherton_Collieries_A.F.C.",
      "image_url": null,
      "address": "Atherton Collieries A.F.C.",
      "level": 8,
      "latitude": 53.52351111,
      "longitude": -2.48497222,
      "formatted_address": "Atherton Collieries A.F.C."
    },
    {
      "name": "Avro",
      "url": "https://en.wikipedia.org/wiki/Avro_F.C.",
      "image_url": null,
      "address": "Whitebank Stadium",
      "level": 8,
      "latitude": 53.518542,
      "longitude": -2.121747,
      "formatted_address": "Whitebank Stadium"
    },
    {
      "name": "Bootle",
      "url": "https://en.wikipedia.org/wiki/Bootle_F.C.",
      "image_url": null,
      "address": "Bootle F.C.",
      "level": 8,
      "latitude": 53.47133889,
      "longitude": -2.96058611,
      "formatted_address": "Bootle F.C."
    },
    {
      "name": "Bury",
      "url": "https://en.wikipedia.org/wiki/Bury_F.C.",
      "image_url": null,
      "address": "Gigg Lane",
      "level": 8,
      "latitude": 53.580555555,
      "longitude": -2.294722222,
      "formatted_address": "Gigg Lane"
    },
    {
      "name": "Chasetown",
      "url": "https://en.wikipedia.org/wiki/Chasetown_F.C.",
      "image_url": null,
      "address": "Chasetown F.C.",
      "level": 8,
      "latitude": 52.6701,
      "longitude": -1.94079,
      "formatted_address": "Chasetown F.C."
    },
    {
      "name": "Clitheroe",
      "url": "https://en.wikipedia.org/wiki/Clitheroe_F.C.",
      "image_url": null,
      "address": "Clitheroe F.C.",
      "level": 8,
      "latitude": 53.8717,
      "longitude": -2.38544,
      "formatted_address": "Clitheroe F.C."
    },
    {
      "name": "Congleton Town",
      "url": "https://en.wikipedia.org/wiki/Congleton_Town_F.C.",
      "image_url": null,
      "address": "Congleton Town F.C.",
      "level": 8,
      "latitude": 53.16174444,
      "longitude": -2.22083611,
      "formatted_address": "Congleton Town F.C."
    },
    {
      "name": "Darlaston Town (1874)",
      "url": "https://en.wikipedia.org/wiki/Darlaston_Town_%281874%29_F.C.",
      "image_url": null,
      "address": null,
      "level": 8
    },
    {
      "name": "Kidsgrove Athletic",
      "url": "https://en.wikipedia.org/wiki/Kidsgrove_Athletic_F.C.",
      "image_url": null,
      "address": "Kidsgrove Athletic F.C.",
      "level": 8,
      "latitude": 53.081111111,
      "longitude": -2.250555555,
      "formatted_address": "Kidsgrove Athletic F.C."
    },
    {
      "name": "Lower Breck",
      "url": "https://en.wikipedia.org/wiki/Lower_Breck_F.C.",
      "image_url": null,
      "address": "Lower Breck F.C.",
      "level": 8,
      "latitude": 53.427365,
      "longitude": -2.943568,
      "formatted_address": "Lower Breck F.C."
    },
    {
      "name": "Mossley",
      "url": "https://en.wikipedia.org/wiki/Mossley_A.F.C.",
      "image_url": null,
      "address": "Mossley A.F.C.",
      "level": 8,
      "latitude": 53.5164,
      "longitude": -2.04433,
      "formatted_address": "Mossley A.F.C."
    },
    {
      "name": "Nantwich Town",
      "url": "https://en.wikipedia.org/wiki/Nantwich_Town_F.C.",
      "image_url": null,
      "address": "Nantwich Town F.C.",
      "level": 8,
      "latitude": 53.07273056,
      "longitude": -2.52841944,
      "formatted_address": "Nantwich Town F.C."
    },
    {
      "name": "Newcastle Town",
      "url": "https://en.wikipedia.org/wiki/Newcastle_Town_F.C.",
      "image_url": null,
      "address": "Newcastle Town F.C.",
      "level": 8,
      "latitude": 52.99765833,
      "longitude": -2.21491667,
      "formatted_address": "Newcastle Town F.C."
    },
    {
      "name": "Runcorn Linnets",
      "url": "https://en.wikipedia.org/wiki/Runcorn_Linnets_F.C.",
      "image_url": null,
      "address": "Runcorn Linnets F.C.",
      "level": 8,
      "latitude": 53.315756,
      "longitude": -2.670263,
      "formatted_address": "Runcorn Linnets F.C."
    },
    {
      "name": "Shifnal Town",
      "url": "https://en.wikipedia.org/wiki/Shifnal_Town_F.C.",
      "image_url": null,
      "address": "Shifnal Town F.C.",
      "level": 8,
      "latitude": 52.67307778,
      "longitude": -2.36196111,
      "formatted_address": "Shifnal Town F.C."
    },
    {
      "name": "Sporting Khalsa",
      "url": "https://en.wikipedia.org/wiki/Sporting_Khalsa_F.C.",
      "image_url": null,
      "address": "Sporting Khalsa F.C.",
      "level": 8,
      "latitude": 52.5919,
      "longitude": -2.0659,
      "formatted_address": "Sporting Khalsa F.C."
    },
    {
      "name": "Stafford Rangers",
      "url": "https://en.wikipedia.org/wiki/Stafford_Rangers_F.C.",
      "image_url": null,
      "address": "Marston Road",
      "level": 8,
      "latitude": 52.818542,
      "longitude": -2.116858,
      "formatted_address": "Marston Road"
    },
    {
      "name": "Stalybridge Celtic",
      "url": "https://en.wikipedia.org/wiki/Stalybridge_Celtic_F.C.",
      "image_url": null,
      "address": "Bower Fold",
      "level": 8,
      "latitude": 53.475314,
      "longitude": -2.043864,
      "formatted_address": "Bower Fold"
    },
    {
      "name": "Trafford",
      "url": "https://en.wikipedia.org/wiki/Trafford_F.C.",
      "image_url": null,
      "address": "Trafford F.C.",
      "level": 8,
      "latitude": 53.4464,
      "longitude": -2.37219,
      "formatted_address": "Trafford F.C."
    },
    {
      "name": "Vauxhall Motors",
      "url": "https://en.wikipedia.org/wiki/Vauxhall_Motors_F.C.",
      "image_url": null,
      "address": "Vauxhall Motors F.C.",
      "level": 8,
      "latitude": 53.2963,
      "longitude": -2.94016,
      "formatted_address": "Vauxhall Motors F.C."
    },
    {
      "name": "Witton Albion",
      "url": "https://en.wikipedia.org/wiki/Witton_Albion_F.C.",
      "image_url": null,
      "address": "Wincham Park",
      "level": 8,
      "latitude": 53.270472,
      "longitude": -2.488717,
      "formatted_address": "Wincham Park"
    },
    {
      "name": "Wythenshawe Town",
      "url": "https://en.wikipedia.org/wiki/Wythenshawe_Town_F.C.",
      "image_url": null,
      "address": "Wythenshawe Town F.C.",
      "level": 8,
      "latitude": 53.400209,
      "longitude": -2.29993,
      "formatted_address": "Wythenshawe Town F.C."
    }
  ],
  "team_count": 22
}
