{
  "league_name": "Northern Premier League Division One East",
  "league_url": "",
  "teams": [
    {
      "name": "Ashington",
      "url": "https://en.wikipedia.org/wiki/Ashington_A.F.C.",
      "image_url": null,
      "address": "Ashington A.F.C.",
      "level": 8,
      "latitude": 55.1852,
      "longitude": -1.5505,
      "formatted_address": "Ashington A.F.C."
    },
    {
      "name": "Bishop Auckland",
      "url": "https://en.wikipedia.org/wiki/Bishop_Auckland_F.C.",
      "image_url": null,
      "address": "Bishop Auckland F.C.",
      "level": 8,
      "latitude": 54.63801944,
      "longitude": -1.69270833,
      "formatted_address": "Bishop Auckland F.C."
    },
    {
      "name": "Blyth Spartans",
      "url": "https://en.wikipedia.org/wiki/Blyth_Spartans_F.C.",
      "image_url": null,
      "address": null,
      "level": 8
    },
    {
      "name": "Blyth Town",
      "url": "https://en.wikipedia.org/wiki/Blyth_Town_F.C.",
      "image_url": null,
      "address": "Blyth A.F.C.",
      "level": 8,
      "latitude": 55.105842,
      "longitude": -1.519747,
      "formatted_address": "Blyth A.F.C."
    },
    {
      "name": "Bradford (Park Avenue)",
      "url": "https://en.wikipedia.org/wiki/Bradford_Park_Avenue_A.F.C.",
      "image_url": null,
      "address": null,
      "level": 8
    },
    {
      "name": "Bridlington Town",
      "url": "https://en.wikipedia.org/wiki/Bridlington_Town_A.F.C.",
      "image_url": null,
      "address": "Bridlington Town A.F.C.",
      "level": 8,
      "latitude": 54.0892,
      "longitude": -0.1973,
      "formatted_address": "Bridlington Town A.F.C."
    },
    {
      "name": "Brighouse Town",
      "url": "https://en.wikipedia.org/wiki/Brighouse_Town_F.C.",
      "image_url": null,
      "address": "Brighouse Town F.C.",
      "level": 8,
      "latitude": 53.7197,
      "longitude": -1.80019,
      "formatted_address": "Brighouse Town F.C."
    },
    {
      "name": "Consett",
      "url": "https://en.wikipedia.org/wiki/Consett_A.F.C.",
      "image_url": null,
      "address": "Consett A.F.C.",
      "level": 8,
      "latitude": 54.8581,
      "longitude": -1.82856,
      "formatted_address": "Consett A.F.C."
    },
    {
      "name": "Dunston UTS",
      "url": "https://en.wikipedia.org/wiki/Dunston_UTS_F.C.",
      "image_url": null,
      "address": null,
      "level": 8
    },
    {
      "name": "Emley",
      "url": "https://en.wikipedia.org/wiki/Emley_A.F.C.",
      "image_url": null,
      "address": "A.F.C. Emley",
      "level": 8,
      "latitude": 53.61261389,
      "longitude": -1.631925,
      "formatted_address": "A.F.C. Emley"
    },
    {
      "name": "Garforth Town",
      "url": "https://en.wikipedia.org/wiki/Garforth_Town_A.F.C.",
      "image_url": null,
      "address": "Garforth Town A.F.C.",
      "level": 8,
      "latitude": 53.79885306,
      "longitude": -1.36232806,
      "formatted_address": "Garforth Town A.F.C."
    },
    {
      "name": "Grimsby Borough",
      "url": "https://en.wikipedia.org/wiki/Grimsby_Borough_F.C.",
      "image_url": null,
      "address": "Grimsby Borough F.C.",
      "level": 8,
      "latitude": 53.55801111,
      "longitude": -0.48508611,
      "formatted_address": "Grimsby Borough F.C."
    },
    {
      "name": "Hallam",
      "url": "https://en.wikipedia.org/wiki/Hallam_F.C.",
      "image_url": null,
      "address": "Sandygate Road",
      "level": 8,
      "latitude": 53.3764,
      "longitude": -1.53122,
      "formatted_address": "Sandygate Road"
    },
    {
      "name": "Heaton Stannington",
      "url": "https://en.wikipedia.org/wiki/Heaton_Stannington_F.C.",
      "image_url": null,
      "address": "Heaton Stannington F.C.",
      "level": 8,
      "latitude": 54.999027777,
      "longitude": -1.590472222,
      "formatted_address": "Heaton Stannington F.C."
    },
    {
      "name": "Lincoln United",
      "url": "https://en.wikipedia.org/wiki/Lincoln_United_F.C.",
      "image_url": null,
      "address": "Ashby Avenue",
      "level": 8,
      "latitude": 53.210556,
      "longitude": -0.584167,
      "formatted_address": "Ashby Avenue"
    },
    {
      "name": "Matlock Town",
      "url": "https://en.wikipedia.org/wiki/Matlock_Town_F.C.",
      "image_url": null,
      "address": "Matlock Town F.C.",
      "level": 8,
      "latitude": 53.13706111,
      "longitude": -1.55176944,
      "formatted_address": "Matlock Town F.C."
    },
    {
      "name": "Newton Aycliffe",
      "url": "https://en.wikipedia.org/wiki/Newton_Aycliffe_F.C.",
      "image_url": null,
      "address": "Newton Aycliffe F.C.",
      "level": 8,
      "latitude": 54.61719694,
      "longitude": -1.55891806,
      "formatted_address": "Newton Aycliffe F.C."
    },
    {
      "name": "North Ferriby",
      "url": "https://en.wikipedia.org/wiki/North_Ferriby_F.C.",
      "image_url": null,
      "address": "North Ferriby F.C.",
      "level": 8,
      "latitude": 53.717338888,
      "longitude": -0.500169444,
      "formatted_address": "North Ferriby F.C."
    },
    {
      "name": "Ossett United",
      "url": "https://en.wikipedia.org/wiki/Ossett_United_F.C.",
      "image_url": null,
      "address": "Ossett United F.C.",
      "level": 8,
      "latitude": 53.681530555,
      "longitude": -1.577536111,
      "formatted_address": "Ossett United F.C."
    },
    {
      "name": "Pontefract Collieries",
      "url": "https://en.wikipedia.org/wiki/Pontefract_Collieries_F.C.",
      "image_url": null,
      "address": "Pontefract Collieries F.C.",
      "level": 8,
      "latitude": 53.69649167,
      "longitude": -1.31404722,
      "formatted_address": "Pontefract Collieries F.C."
    },
    {
      "name": "Redcar Athletic",
      "url": "https://en.wikipedia.org/wiki/Redcar_Athletic_F.C.",
      "image_url": null,
      "address": "Redcar Athletic F.C.",
      "level": 8,
      "latitude": 54.602805555,
      "longitude": -1.038861111,
      "formatted_address": "Redcar Athletic F.C."
    },
    {
      "name": "Silsden",
      "url": "https://en.wikipedia.org/wiki/Silsden_F.C.",
      "image_url": null,
      "address": null,
      "level": 8
    }
  ],
  "team_count": 22
}
