{
  "league_name": "Northern Premier League Division One Midlands",
  "league_url": "",
  "teams": [
    {
      "name": "A.F.C. Rushden & Diamonds",
      "url": "https://en.wikipedia.org/wiki/AFC_Rushden_%26_Diamonds",
      "image_url": null,
      "address": "AFC Rushden & Diamonds",
      "level": 8,
      "latitude": 52.29316389,
      "longitude": -0.682225,
      "formatted_address": "AFC Rushden & Diamonds"
    },
    {
      "name": "Anstey Nomads",
      "url": "https://en.wikipedia.org/wiki/Anstey_Nomads_F.C.",
      "image_url": null,
      "address": "Anstey Nomads F.C.",
      "level": 8,
      "latitude": 52.675767,
      "longitude": -1.1802873,
      "formatted_address": "Anstey Nomads F.C."
    },
    {
      "name": "Basford United",
      "url": "https://en.wikipedia.org/wiki/Basford_United_F.C.",
      "image_url": null,
      "address": "Basford United F.C.",
      "level": 8,
      "latitude": 52.98770111,
      "longitude": -1.18966694,
      "formatted_address": "Basford United F.C."
    },
    {
      "name": "Bedworth United",
      "url": "https://en.wikipedia.org/wiki/Bedworth_United_F.C.",
      "image_url": null,
      "address": "Bedworth United F.C.",
      "level": 8,
      "latitude": 52.4766,
      "longitude": -1.47134,
      "formatted_address": "Bedworth United F.C."
    },
    {
      "name": "Belper Town",
      "url": "https://en.wikipedia.org/wiki/Belper_Town_F.C.",
      "image_url": null,
      "address": "Belper Town F.C.",
      "level": 8,
      "latitude": 53.0272,
      "longitude": -1.48732,
      "formatted_address": "Belper Town F.C."
    },
    {
      "name": "Boldmere St. Michaels",
      "url": "https://en.wikipedia.org/wiki/Boldmere_St._Michaels_F.C.",
      "image_url": null,
      "address": "Boldmere St. Michaels F.C.",
      "level": 8,
      "latitude": 52.5418,
      "longitude": -1.84241,
      "formatted_address": "Boldmere St. Michaels F.C."
    },
    {
      "name": "Bourne Town",
      "url": "https://en.wikipedia.org/wiki/Bourne_Town_F.C.",
      "image_url": null,
      "address": "Abbey Lawn",
      "level": 8,
      "latitude": 52.7668,
      "longitude": -0.372786,
      "formatted_address": "Abbey Lawn"
    },
    {
      "name": "Carlton Town",
      "url": "https://en.wikipedia.org/wiki/Carlton_Town_F.C.",
      "image_url": null,
      "address": "Carlton Town F.C.",
      "level": 8,
      "latitude": 52.971388888,
      "longitude": -1.062777777,
      "formatted_address": "Carlton Town F.C."
    },
    {
      "name": "Coleshill Town",
      "url": "https://en.wikipedia.org/wiki/Coleshill_Town_F.C.",
      "image_url": null,
      "address": "Coleshill Town F.C.",
      "level": 8,
      "latitude": 52.4826,
      "longitude": -1.69846,
      "formatted_address": "Coleshill Town F.C."
    },
    {
      "name": "Corby Town",
      "url": "https://en.wikipedia.org/wiki/Corby_Town_F.C.",
      "image_url": null,
      "address": null,
      "level": 8
    },
    {
      "name": "Coventry Sphinx",
      "url": "https://en.wikipedia.org/wiki/Coventry_Sphinx_F.C.",
      "image_url": null,
      "address": "Coventry Sphinx F.C.",
      "level": 8,
      "latitude": 52.4014,
      "longitude": -1.47198,
      "formatted_address": "Coventry Sphinx F.C."
    },
    {
      "name": "Lichfield City",
      "url": "https://en.wikipedia.org/wiki/Lichfield_City_F.C.",
      "image_url": null,
      "address": "Lichfield City F.C.",
      "level": 8,
      "latitude": 52.693279,
      "longitude": -1.813705,
      "formatted_address": "Lichfield City F.C."
    },
    {
      "name": "Long Eaton United",
      "url": "https://en.wikipedia.org/wiki/Long_Eaton_United_F.C.",
      "image_url": null,
      "address": "Long Eaton United F.C.",
      "level": 8,
      "latitude": 52.89636944,
      "longitude": -1.25629444,
      "formatted_address": "Long Eaton United F.C."
    },
    {
      "name": "Loughborough Students",
      "url": "https://en.wikipedia.org/wiki/Loughborough_Students_F.C.",
      "image_url": null,
      "address": "Loughborough University F.C.",
      "level": 8,
      "latitude": 52.75202806,
      "longitude": -1.23421,
      "formatted_address": "Loughborough University F.C."
    },
    {
      "name": "Mickleover",
      "url": "https://en.wikipedia.org/wiki/Mickleover_F.C.",
      "image_url": null,
      "address": "Mickleover F.C.",
      "level": 8,
      "latitude": 52.92368056,
      "longitude": -1.53999167,
      "formatted_address": "Mickleover F.C."
    },
    {
      "name": "Racing Club Warwick",
      "url": "https://en.wikipedia.org/wiki/Racing_Club_Warwick_F.C.",
      "image_url": null,
      "address": "Racing Club Warwick F.C.",
      "level": 8,
      "latitude": 52.27545278,
      "longitude": -1.60160556,
      "formatted_address": "Racing Club Warwick F.C."
    },
    {
      "name": "Rugby Borough",
      "url": "https://en.wikipedia.org/wiki/Rugby_Borough_F.C.",
      "image_url": null,
      "address": "Rugby Borough F.C.",
      "level": 8,
      "latitude": 52.353627777,
      "longitude": -1.2112,
      "formatted_address": "Rugby Borough F.C."
    },
    {
      "name": "Rugby Town",
      "url": "https://en.wikipedia.org/wiki/Rugby_Town_F.C.",
      "image_url": null,
      "address": null,
      "level": 8
    },
    {
      "name": "Shepshed Dynamo",
      "url": "https://en.wikipedia.org/wiki/Shepshed_Dynamo_F.C.",
      "image_url": null,
      "address": "Shepshed Dynamo F.C.",
      "level": 8,
      "latitude": 52.7745,
      "longitude": -1.28701,
      "formatted_address": "Shepshed Dynamo F.C."
    },
    {
      "name": "St Neots Town",
      "url": "https://en.wikipedia.org/wiki/St_Neots_Town_F.C.",
      "image_url": null,
      "address": "St Neots Town F.C.",
      "level": 8,
      "latitude": 52.233,
      "longitude": -0.244931,
      "formatted_address": "St Neots Town F.C."
    },
    {
      "name": "Sutton Coldfield Town",
      "url": "https://en.wikipedia.org/wiki/Sutton_Coldfield_Town_F.C.",
      "image_url": null,
      "address": "Sutton Coldfield Town F.C.",
      "level": 8,
      "latitude": 52.5568,
      "longitude": -1.8187,
      "formatted_address": "Sutton Coldfield Town F.C."
    },
    {
      "name": "Wellingborough Town",
      "url": "https://en.wikipedia.org/wiki/Wellingborough_Town_F.C.",
      "image_url": null,
      "address": "Wellingborough Town F.C.",
      "level": 8,
      "latitude": 52.2932,
      "longitude": -0.682225,
      "formatted_address": "Wellingborough Town F.C."
    }
  ],
  "team_count": 22
}
