{
  "league_name": "North West Counties League Premier Division",
  "league_url": "",
  "teams": [
    {
      "name": "A.F.C. Liverpool",
      "url": "https://en.wikipedia.org/wiki/A.F.C._Liverpool",
      "image_url": null,
      "address": "A.F.C. Liverpool",
      "level": 9,
      "latitude": 53.431864,
      "longitude": -2.804808,
      "formatted_address": "A.F.C. Liverpool"
    },
    {
      "name": "Abbey Hey",
      "url": "https://en.wikipedia.org/wiki/Abbey_Hey_F.C.",
      "image_url": null,
      "address": "Abbey Hey F.C.",
      "level": 9,
      "latitude": 53.454775,
      "longitude": -2.16681667,
      "formatted_address": "Abbey Hey F.C."
    },
    {
      "name": "Atherton Laburnum Rovers",
      "url": "https://en.wikipedia.org/wiki/Atherton_Laburnum_Rovers_F.C.",
      "image_url": null,
      "address": "Atherton Laburnum Rovers F.C.",
      "level": 9,
      "latitude": 53.531097,
      "longitude": -2.4840125,
      "formatted_address": "Atherton Laburnum Rovers F.C."
    },
    {
      "name": "Barnoldswick Town",
      "url": "https://en.wikipedia.org/wiki/Barnoldswick_Town_F.C.",
      "image_url": null,
      "address": "Barnoldswick Town F.C.",
      "level": 9,
      "latitude": 53.923944,
      "longitude": -2.188871,
      "formatted_address": "Barnoldswick Town F.C."
    },
    {
      "name": "Burscough",
      "url": "https://en.wikipedia.org/wiki/Burscough_F.C.",
      "image_url": null,
      "address": "Burscough F.C.",
      "level": 9,
      "latitude": 53.60458056,
      "longitude": -2.8453,
      "formatted_address": "Burscough F.C."
    },
    {
      "name": "Chadderton",
      "url": "https://en.wikipedia.org/wiki/Chadderton_F.C.",
      "image_url": null,
      "address": "Chadderton F.C.",
      "level": 9,
      "latitude": 53.54755278,
      "longitude": -2.14395556,
      "formatted_address": "Chadderton F.C."
    },
    {
      "name": "Charnock Richard",
      "url": "https://en.wikipedia.org/wiki/Charnock_Richard_F.C.",
      "image_url": null,
      "address": "Charnock Richard F.C.",
      "level": 9,
      "latitude": 53.6322,
      "longitude": -2.6733,
      "formatted_address": "Charnock Richard F.C."
    },
    {
      "name": "Cheadle Town",
      "url": "https://en.wikipedia.org/wiki/Cheadle_Town_F.C.",
      "image_url": null,
      "address": "Cheadle Town F.C.",
      "level": 9,
      "latitude": 53.39213611,
      "longitude": -2.20338333,
      "formatted_address": "Cheadle Town F.C."
    },
    {
      "name": "City of Liverpool",
      "url": "https://en.wikipedia.org/wiki/City_of_Liverpool_F.C.",
      "image_url": null,
      "address": "City of Liverpool F.C.",
      "level": 9,
      "latitude": 53.47133889,
      "longitude": -2.96058611,
      "formatted_address": "City of Liverpool F.C."
    },
    {
      "name": "Euxton Villa",
      "url": "https://en.wikipedia.org/wiki/Euxton_Villa_F.C.",
      "image_url": null,
      "address": "Euxton Villa F.C.",
      "level": 9,
      "latitude": 53.675761111,
      "longitude": -2.694938888,
      "formatted_address": "Euxton Villa F.C."
    },
    {
      "name": "",
      "url": "https://en.wikipedia.org/wiki/Isle_of_Man",
      "image_url": null,
      "address": null,
      "level": 9
    },
    {
      "name": "F.C. St Helens",
      "url": "https://en.wikipedia.org/wiki/F.C._St_Helens",
      "image_url": null,
      "address": "F.C. St Helens",
      "level": 9,
      "latitude": 53.460308333,
      "longitude": -2.752491666,
      "formatted_address": "F.C. St Helens"
    },
    {
      "name": "Glossop North End",
      "url": "https://en.wikipedia.org/wiki/Glossop_North_End_A.F.C.",
      "image_url": null,
      "address": null,
      "level": 9
    },
    {
      "name": "Irlam",
      "url": "https://en.wikipedia.org/wiki/Irlam_F.C.",
      "image_url": null,
      "address": "Irlam F.C.",
      "level": 9,
      "latitude": 53.45746111,
      "longitude": -2.4138,
      "formatted_address": "Irlam F.C."
    },
    {
      "name": "Litherland REMYCA",
      "url": "https://en.wikipedia.org/wiki/Litherland_REMYCA_F.C.",
      "image_url": null,
      "address": "Litherland REMYCA F.C.",
      "level": 9,
      "latitude": 53.4794,
      "longitude": -2.9851,
      "formatted_address": "Litherland REMYCA F.C."
    },
    {
      "name": "Longridge Town",
      "url": "https://en.wikipedia.org/wiki/Longridge_Town_F.C.",
      "image_url": null,
      "address": "Longridge Town F.C.",
      "level": 9,
      "latitude": 53.837265,
      "longitude": -2.610409,
      "formatted_address": "Longridge Town F.C."
    },
    {
      "name": "Padiham",
      "url": "https://en.wikipedia.org/wiki/Padiham_F.C.",
      "image_url": null,
      "address": "Padiham F.C.",
      "level": 9,
      "latitude": 53.80242222,
      "longitude": -2.32134167,
      "formatted_address": "Padiham F.C."
    },
    {
      "name": "Pilkington",
      "url": "https://en.wikipedia.org/wiki/Pilkington_F.C.",
      "image_url": null,
      "address": "Pilkington F.C.",
      "level": 9,
      "latitude": 53.460555555,
      "longitude": -2.757833333,
      "formatted_address": "Pilkington F.C."
    },
    {
      "name": "Prestwich Heys",
      "url": "https://en.wikipedia.org/wiki/Prestwich_Heys_A.F.C.",
      "image_url": null,
      "address": "Prestwich Heys A.F.C.",
      "level": 9,
      "latitude": 53.54444444,
      "longitude": -2.27305556,
      "formatted_address": "Prestwich Heys A.F.C."
    },
    {
      "name": "Ramsbottom United",
      "url": "https://en.wikipedia.org/wiki/Ramsbottom_United_F.C.",
      "image_url": null,
      "address": "Ramsbottom United F.C.",
      "level": 9,
      "latitude": 53.64474167,
      "longitude": -2.31338889,
      "formatted_address": "Ramsbottom United F.C."
    },
    {
      "name": "South Liverpool",
      "url": "https://en.wikipedia.org/wiki/South_Liverpool_F.C.",
      "image_url": null,
      "address": null,
      "level": 9
    },
    {
      "name": "Stockport Town",
      "url": "https://en.wikipedia.org/wiki/Stockport_Town_F.C.",
      "image_url": null,
      "address": "Stockport Town F.C.",
      "level": 9,
      "latitude": 53.4309,
      "longitude": -2.1042,
      "formatted_address": "Stockport Town F.C."
    },
    {
      "name": "West Didsbury & Chorlton",
      "url": "https://en.wikipedia.org/wiki/West_Didsbury_%26_Chorlton_A.F.C.",
      "image_url": null,
      "address": "West Didsbury & Chorlton A.F.C.",
      "level": 9,
      "latitude": 53.4335,
      "longitude": -2.28259,
      "formatted_address": "West Didsbury & Chorlton A.F.C."
    },
    {
      "name": "Wythenshawe",
      "url": "https://en.wikipedia.org/wiki/Wythenshawe_F.C.",
      "image_url": null,
      "address": "Wythenshawe F.C.",
      "level": 9,
      "latitude": 53.39283,
      "longitude": -2.246677,
      "formatted_address": "Wythenshawe F.C."
    }
  ],
  "team_count": 24
}
