{
  "league_name": "Northern League Division Two",
  "league_url": "",
  "teams": [
    {
      "name": "A.F.C. Newbiggin",
      "url": "https://en.wikipedia.org/wiki/A.F.C._Newbiggin",
      "image_url": null,
      "address": null,
      "level": 10
    },
    {
      "name": "Alnwick Town",
      "url": "https://en.wikipedia.org/wiki/Alnwick_Town_A.F.C.",
      "image_url": null,
      "address": "Alnwick Town F.C.",
      "level": 10,
      "latitude": 55.40313333,
      "longitude": -1.699675,
      "formatted_address": "Alnwick Town F.C."
    },
    {
      "name": "Billingham Synthonia",
      "url": "https://en.wikipedia.org/wiki/Billingham_Synthonia_F.C.",
      "image_url": null,
      "address": "Billingham Synthonia F.C.",
      "level": 10,
      "latitude": 54.59972611,
      "longitude": -1.28181194,
      "formatted_address": "Billingham Synthonia F.C."
    },
    {
      "name": "Billingham Town",
      "url": "https://en.wikipedia.org/wiki/Billingham_Town_F.C.",
      "image_url": null,
      "address": "Billingham Town F.C.",
      "level": 10,
      "latitude": 54.60216111,
      "longitude": -1.28568111,
      "formatted_address": "Billingham Town F.C."
    },
    {
      "name": "Boldon Community Association",
      "url": "https://en.wikipedia.org/wiki/Boldon_Community_Association_F.C.",
      "image_url": null,
      "address": "Boldon Community Association F.C.",
      "level": 10,
      "latitude": 54.951008,
      "longitude": -1.460143,
      "formatted_address": "Boldon Community Association F.C."
    },
    {
      "name": "Chester-le-Street Town",
      "url": "https://en.wikipedia.org/wiki/Chester-le-Street_Town_F.C.",
      "image_url": null,
      "address": "Chester-le-Street Town F.C.",
      "level": 10,
      "latitude": 54.835888888,
      "longitude": -1.586805555,
      "formatted_address": "Chester-le-Street Town F.C."
    },
    {
      "name": "Chester-le-Street United",
      "url": "https://en.wikipedia.org/wiki/Chester-le-Street_United_F.C.",
      "image_url": null,
      "address": null,
      "level": 10
    },
    {
      "name": "Darlington Town",
      "url": "https://en.wikipedia.org/wiki/Darlington_Town_F.C.",
      "image_url": null,
      "address": "Darlington Town F.C.",
      "level": 10,
      "latitude": 54.764461111,
      "longitude": -1.317188888,
      "formatted_address": "Darlington Town F.C."
    },
    {
      "name": "Durham United",
      "url": "https://en.wikipedia.org/wiki/Durham_United_F.C.",
      "image_url": null,
      "address": null,
      "level": 10
    },
    {
      "name": "Esh Winning",
      "url": "https://en.wikipedia.org/wiki/Esh_Winning_F.C.",
      "image_url": null,
      "address": "Esh Winning F.C.",
      "level": 10,
      "latitude": 54.76239167,
      "longitude": -1.720825,
      "formatted_address": "Esh Winning F.C."
    },
    {
      "name": "F.C. Hartlepool",
      "url": "https://en.wikipedia.org/wiki/FC_Hartlepool",
      "image_url": null,
      "address": null,
      "level": 10
    },
    {
      "name": "Grangetown Boys Club",
      "url": "https://en.wikipedia.org/wiki/Grangetown_Boys_Club_F.C.",
      "image_url": null,
      "address": null,
      "level": 10
    },
    {
      "name": "Jarrow",
      "url": "https://en.wikipedia.org/wiki/Jarrow_F.C.",
      "image_url": null,
      "address": "Jarrow F.C.",
      "level": 10,
      "latitude": 54.960992,
      "longitude": -1.4702287,
      "formatted_address": "Jarrow F.C."
    },
    {
      "name": "Newcastle University",
      "url": "https://en.wikipedia.org/wiki/Newcastle_University_F.C.",
      "image_url": null,
      "address": "Newcastle University F.C.",
      "level": 10,
      "latitude": 54.966738888,
      "longitude": -1.83355,
      "formatted_address": "Newcastle University F.C."
    },
    {
      "name": "Prudhoe Youth Club",
      "url": "https://en.wikipedia.org/wiki/Prudhoe_Youth_Club_F.C.",
      "image_url": null,
      "address": "Prudhoe Youth Club F.C.",
      "level": 10,
      "latitude": 54.966738888,
      "longitude": -1.83355,
      "formatted_address": "Prudhoe Youth Club F.C."
    },
    {
      "name": "Redcar Town",
      "url": "https://en.wikipedia.org/wiki/Redcar_Town_F.C.",
      "image_url": null,
      "address": "Redcar Town F.C.",
      "level": 10,
      "latitude": 54.610608333,
      "longitude": -1.090661111,
      "formatted_address": "Redcar Town F.C."
    },
    {
      "name": "Ryton & Crawcrook Albion",
      "url": "https://en.wikipedia.org/wiki/Ryton_%26_Crawcrook_Albion_F.C.",
      "image_url": null,
      "address": "Ryton & Crawcrook Albion F.C.",
      "level": 10,
      "latitude": 54.97075556,
      "longitude": -1.79384167,
      "formatted_address": "Ryton & Crawcrook Albion F.C."
    },
    {
      "name": "Seaham Red Star",
      "url": "https://en.wikipedia.org/wiki/Seaham_Red_Star_F.C.",
      "image_url": null,
      "address": "Seaham Red Star F.C.",
      "level": 10,
      "latitude": 54.84346944,
      "longitude": -1.36388611,
      "formatted_address": "Seaham Red Star F.C."
    },
    {
      "name": "Sunderland Ryhope CA",
      "url": "https://en.wikipedia.org/wiki/Sunderland_Ryhope_Community_Association_F.C.",
      "image_url": null,
      "address": "Sunderland Ryhope Community Association F.C.",
      "level": 10,
      "latitude": 54.8673,
      "longitude": -1.36836,
      "formatted_address": "Sunderland Ryhope Community Association F.C."
    },
    {
      "name": "Sunderland West End",
      "url": "https://en.wikipedia.org/wiki/Sunderland_West_End_F.C.",
      "image_url": null,
      "address": "Sunderland West End F.C.",
      "level": 10,
      "latitude": 54.907972222,
      "longitude": -1.438194444,
      "formatted_address": "Sunderland West End F.C."
    },
    {
      "name": "Tow Law Town",
      "url": "https://en.wikipedia.org/wiki/Tow_Law_Town_F.C.",
      "image_url": null,
      "address": "Tow Law Town A.F.C.",
      "level": 10,
      "latitude": 54.7471,
      "longitude": -1.81862,
      "formatted_address": "Tow Law Town A.F.C."
    },
    {
      "name": "Yarm & Eaglescliffe",
      "url": "https://en.wikipedia.org/wiki/Yarm_%26_Eaglescliffe_F.C.",
      "image_url": null,
      "address": null,
      "level": 10
    }
  ],
  "team_count": 22
}
