{
  "league_name": "Southern League Premier Division South",
  "league_url": "",
  "teams": [
    {
      "name": "Basingstoke Town",
      "url": "https://en.wikipedia.org/wiki/Basingstoke_Town_F.C.",
      "image_url": null,
      "address": null,
      "level": 7
    },
    {
      "name": "Berkhamsted",
      "url": "https://en.wikipedia.org/wiki/Berkhamsted_F.C.",
      "image_url": null,
      "address": "Berkhamsted F.C.",
      "level": 7,
      "latitude": 51.7632,
      "longitude": -0.564744,
      "formatted_address": "Berkhamsted F.C."
    },
    {
      "name": "Bracknell Town",
      "url": "https://en.wikipedia.org/wiki/Bracknell_Town_F.C.",
      "image_url": null,
      "address": "Bracknell Town F.C.",
      "level": 7,
      "latitude": 51.4133,
      "longitude": -0.744253,
      "formatted_address": "Bracknell Town F.C."
    },
    {
      "name": "Chertsey Town",
      "url": "https://en.wikipedia.org/wiki/Chertsey_Town_F.C.",
      "image_url": null,
      "address": "Chertsey Town F.C.",
      "level": 7,
      "latitude": 51.3925,
      "longitude": -0.508055555,
      "formatted_address": "Chertsey Town F.C."
    },
    {
      "name": "Dorchester Town",
      "url": "https://en.wikipedia.org/wiki/Dorchester_Town_F.C.",
      "image_url": null,
      "address": "The Avenue Stadium",
      "level": 7,
      "latitude": 50.700667,
      "longitude": -2.445556,
      "formatted_address": "The Avenue Stadium"
    },
    {
      "name": "Evesham United",
      "url": "https://en.wikipedia.org/wiki/Evesham_United_F.C.",
      "image_url": null,
      "address": "Evesham United F.C.",
      "level": 7,
      "latitude": 52.07361,
      "longitude": -1.95469306,
      "formatted_address": "Evesham United F.C."
    },
    {
      "name": "Farnham Town",
      "url": "https://en.wikipedia.org/wiki/Farnham_Town_F.C.",
      "image_url": null,
      "address": "Farnham Town F.C.",
      "level": 7,
      "latitude": 51.21151389,
      "longitude": -0.80633611,
      "formatted_address": "Farnham Town F.C."
    },
    {
      "name": "Gloucester City",
      "url": "https://en.wikipedia.org/wiki/Gloucester_City_A.F.C.",
      "image_url": null,
      "address": "Meadow Park",
      "level": 7,
      "latitude": 51.859888888,
      "longitude": -2.262916666,
      "formatted_address": "Meadow Park"
    },
    {
      "name": "Gosport Borough",
      "url": "https://en.wikipedia.org/wiki/Gosport_Borough_F.C.",
      "image_url": null,
      "address": "Gosport Borough F.C.",
      "level": 7,
      "latitude": 50.7949,
      "longitude": -1.15656,
      "formatted_address": "Gosport Borough F.C."
    },
    {
      "name": "Hanwell Town",
      "url": "https://en.wikipedia.org/wiki/Hanwell_Town_F.C.",
      "image_url": null,
      "address": "Hanwell Town F.C.",
      "level": 7,
      "latitude": 51.53252222,
      "longitude": -0.32895,
      "formatted_address": "Hanwell Town F.C."
    },
    {
      "name": "Havant & Waterlooville",
      "url": "https://en.wikipedia.org/wiki/Havant_%26_Waterlooville_F.C.",
      "image_url": null,
      "address": null,
      "level": 7
    },
    {
      "name": "Hungerford Town",
      "url": "https://en.wikipedia.org/wiki/Hungerford_Town_F.C.",
      "image_url": null,
      "address": "Hungerford Town F.C.",
      "level": 7,
      "latitude": 51.40893611,
      "longitude": -1.51348333,
      "formatted_address": "Hungerford Town F.C."
    },
    {
      "name": "Plymouth Parkway",
      "url": "https://en.wikipedia.org/wiki/Plymouth_Parkway_F.C.",
      "image_url": null,
      "address": "Plymouth Parkway F.C.",
      "level": 7,
      "latitude": 50.40784722,
      "longitude": -4.14735556,
      "formatted_address": "Plymouth Parkway F.C."
    },
    {
      "name": "Poole Town",
      "url": "https://en.wikipedia.org/wiki/Poole_Town_F.C.",
      "image_url": null,
      "address": "Poole Town F.C.",
      "level": 7,
      "latitude": 50.72826389,
      "longitude": -1.98431944,
      "formatted_address": "Poole Town F.C."
    },
    {
      "name": "Sholing",
      "url": "https://en.wikipedia.org/wiki/Sholing_F.C.",
      "image_url": null,
      "address": "Sholing F.C.",
      "level": 7,
      "latitude": 50.89326389,
      "longitude": -1.33812222,
      "formatted_address": "Sholing F.C."
    },
    {
      "name": "Taunton Town",
      "url": "https://en.wikipedia.org/wiki/Taunton_Town_F.C.",
      "image_url": null,
      "address": "Taunton Town F.C.",
      "level": 7,
      "latitude": 51.0167,
      "longitude": -3.0851,
      "formatted_address": "Taunton Town F.C."
    },
    {
      "name": "Tiverton Town",
      "url": "https://en.wikipedia.org/wiki/Tiverton_Town_F.C.",
      "image_url": null,
      "address": "Tiverton Town F.C.",
      "level": 7,
      "latitude": 50.9092,
      "longitude": -3.49017,
      "formatted_address": "Tiverton Town F.C."
    },
    {
      "name": "Uxbridge",
      "url": "https://en.wikipedia.org/wiki/Uxbridge_F.C.",
      "image_url": null,
      "address": "Uxbridge F.C.",
      "level": 7,
      "latitude": 51.5141,
      "longitude": -0.457703,
      "formatted_address": "Uxbridge F.C."
    },
    {
      "name": "Walton & Hersham",
      "url": "https://en.wikipedia.org/wiki/Walton_%26_Hersham_F.C.",
      "image_url": null,
      "address": "The Sports Ground, Stompond Lane",
      "level": 7,
      "latitude": 51.379036,
      "longitude": -0.414775,
      "formatted_address": "The Sports Ground, Stompond Lane"
    },
    {
      "name": "Weymouth",
      "url": "https://en.wikipedia.org/wiki/Weymouth_F.C.",
      "image_url": null,
      "address": "Bob Lucas Stadium",
      "level": 7,
      "latitude": 50.619906,
      "longitude": -2.485203,
      "formatted_address": "Bob Lucas Stadium"
    },
    {
      "name": "Wimborne Town",
      "url": "https://en.wikipedia.org/wiki/Wimborne_Town_F.C.",
      "image_url": null,
      "address": "Wimborne Town F.C.",
      "level": 7,
      "latitude": 50.8016,
      "longitude": -1.99668,
      "formatted_address": "Wimborne Town F.C."
    },
    {
      "name": "Yate Town",
      "url": "https://en.wikipedia.org/wiki/Yate_Town_F.C.",
      "image_url": null,
      "address": "Yate Town F.C.",
      "level": 7,
      "latitude": 51.5493,
      "longitude": -2.4387,
      "formatted_address": "Yate Town F.C."
    }
  ],
  "team_count": 22
}
