{
  "league_name": "Southern Counties East League Division One",
  "league_url": "",
  "teams": [
    {
      "name": "A.F.C. Greenwich Borough",
      "url": "https://en.wikipedia.org/wiki/A.F.C._Greenwich_Borough",
      "image_url": null,
      "address": null,
      "level": 10
    },
    {
      "name": "Banstead Athletic",
      "url": "https://en.wikipedia.org/wiki/Banstead_Athletic_F.C.",
      "image_url": null,
      "address": "Banstead Athletic F.C.",
      "level": 10,
      "latitude": 51.303487,
      "longitude": -0.23294717,
      "formatted_address": "Banstead Athletic F.C."
    },
    {
      "name": "Bearsted",
      "url": "https://en.wikipedia.org/wiki/Bridon_Ropes_F.C.",
      "image_url": null,
      "address": "Bridon Ropes F.C.",
      "level": 10,
      "latitude": 51.478587,
      "longitude": 0.047646,
      "formatted_address": "Bridon Ropes F.C."
    },
    {
      "name": "Chessington & Hook United",
      "url": "https://en.wikipedia.org/wiki/Chessington_%26_Hook_United_F.C.",
      "image_url": null,
      "address": "Chessington & Hook United F.C.",
      "level": 10,
      "latitude": 51.3503,
      "longitude": -0.309839,
      "formatted_address": "Chessington & Hook United F.C."
    },
    {
      "name": "Croydon",
      "url": "https://en.wikipedia.org/wiki/Croydon_F.C.",
      "image_url": null,
      "address": "Croydon F.C.",
      "level": 10,
      "latitude": 51.39340694,
      "longitude": -0.06060194,
      "formatted_address": "Croydon F.C."
    },
    {
      "name": "F.C. Elmstead",
      "url": "https://en.wikipedia.org/wiki/F.C._Elmstead",
      "image_url": null,
      "address": "F.C. Elmstead",
      "level": 10,
      "latitude": 51.414302,
      "longitude": 0.198715,
      "formatted_address": "F.C. Elmstead"
    },
    {
      "name": "Forest Hill Park",
      "url": "https://en.wikipedia.org/wiki/Forest_Hill_Park_F.C.",
      "image_url": null,
      "address": "Ladywell Arena",
      "level": 10,
      "latitude": 51.45111111,
      "longitude": -0.02166667,
      "formatted_address": "Ladywell Arena"
    },
    {
      "name": "Greenways",
      "url": "https://en.wikipedia.org/wiki/Greenways_F.C.",
      "image_url": null,
      "address": "Greenways F.C.",
      "level": 10,
      "latitude": 51.300905,
      "longitude": 0.45703501,
      "formatted_address": "Greenways F.C."
    },
    {
      "name": "Lewisham Borough",
      "url": "https://en.wikipedia.org/wiki/Lewisham_Borough_F.C.",
      "image_url": null,
      "address": "Ladywell Arena",
      "level": 10,
      "latitude": 51.45111111,
      "longitude": -0.02166667,
      "formatted_address": "Ladywell Arena"
    },
    {
      "name": "Lordswood",
      "url": "https://en.wikipedia.org/wiki/Lordswood_F.C.",
      "image_url": null,
      "address": "Lordswood F.C.",
      "level": 10,
      "latitude": 51.34172222,
      "longitude": 0.54700556,
      "formatted_address": "Lordswood F.C."
    },
    {
      "name": "Lydd Town",
      "url": "https://en.wikipedia.org/wiki/Lydd_Town_F.C.",
      "image_url": null,
      "address": "Lydd Town F.C.",
      "level": 10,
      "latitude": 50.944378,
      "longitude": 0.908689,
      "formatted_address": "Lydd Town F.C."
    },
    {
      "name": "Rochester United",
      "url": "https://en.wikipedia.org/wiki/Rochester_United_F.C.",
      "image_url": null,
      "address": "Rochester United F.C.",
      "level": 10,
      "latitude": 51.399139,
      "longitude": 0.467197,
      "formatted_address": "Rochester United F.C."
    },
    {
      "name": "Sheppey Sports",
      "url": "https://en.wikipedia.org/wiki/Sheppey_Sports_F.C.",
      "image_url": null,
      "address": "APM Contrast F.C.",
      "level": 10,
      "latitude": 51.300905,
      "longitude": 0.45703501,
      "formatted_address": "APM Contrast F.C."
    },
    {
      "name": "Sporting Club Thamesmead",
      "url": "https://en.wikipedia.org/wiki/Sporting_Club_Thamesmead_F.C.",
      "image_url": null,
      "address": "Sporting Club Thamesmead F.C.",
      "level": 10,
      "latitude": 51.419018,
      "longitude": 0.109959,
      "formatted_address": "Sporting Club Thamesmead F.C."
    },
    {
      "name": "Staplehurst Monarchs",
      "url": "https://en.wikipedia.org/wiki/Staplehurst_Monarchs_F.C.",
      "image_url": null,
      "address": "Staplehurst Monarchs F.C.",
      "level": 10,
      "latitude": 51.166408333,
      "longitude": 0.564316666,
      "formatted_address": "Staplehurst Monarchs F.C."
    },
    {
      "name": "Tooting Bec",
      "url": "https://en.wikipedia.org/wiki/Tooting_Bec_F.C.",
      "image_url": null,
      "address": "Imperial Fields",
      "level": 10,
      "latitude": 51.393231,
      "longitude": -0.172381,
      "formatted_address": "Imperial Fields"
    },
    {
      "name": "Welling Town",
      "url": "https://en.wikipedia.org/wiki/Welling_Town_F.C.",
      "image_url": null,
      "address": "Welling Town F.C.",
      "level": 10,
      "latitude": 51.439721,
      "longitude": 0.2179268,
      "formatted_address": "Welling Town F.C."
    }
  ],
  "team_count": 17
}
