{
  "league_name": "Spartan South Midlands League Division One",
  "league_url": "",
  "teams": [
    {
      "name": "Ampthill Town",
      "url": "https://en.wikipedia.org/wiki/Ampthill_Town_F.C.",
      "image_url": null,
      "address": "Ampthill Town F.C.",
      "level": 10,
      "latitude": 52.03271944,
      "longitude": -0.50349167,
      "formatted_address": "Ampthill Town F.C."
    },
    {
      "name": "Belstone",
      "url": "https://en.wikipedia.org/wiki/Belstone_F.C.",
      "image_url": null,
      "address": null,
      "level": 10
    },
    {
      "name": "Buckingham",
      "url": "https://en.wikipedia.org/wiki/Buckingham_F.C.",
      "image_url": null,
      "address": "Buckingham Athletic F.C.",
      "level": 10,
      "latitude": 52.002281,
      "longitude": -0.97897545,
      "formatted_address": "Buckingham Athletic F.C."
    },
    {
      "name": "Cranfield United",
      "url": "https://en.wikipedia.org/wiki/Cranfield_United_F.C.",
      "image_url": null,
      "address": "Cranfield United F.C.",
      "level": 10,
      "latitude": 52.080244,
      "longitude": -0.60400128,
      "formatted_address": "Cranfield United F.C."
    },
    {
      "name": "Desborough Town",
      "url": "https://en.wikipedia.org/wiki/Desborough_Town_F.C.",
      "image_url": null,
      "address": "Desborough Town F.C.",
      "level": 10,
      "latitude": 52.44534444,
      "longitude": -0.82924722,
      "formatted_address": "Desborough Town F.C."
    },
    {
      "name": "Eaton Socon",
      "url": "https://en.wikipedia.org/wiki/Eaton_Socon_F.C.",
      "image_url": null,
      "address": "Eaton Socon F.C.",
      "level": 10,
      "latitude": 52.223897222,
      "longitude": -0.278152777,
      "formatted_address": "Eaton Socon F.C."
    },
    {
      "name": "Everett Rovers",
      "url": "https://en.wikipedia.org/wiki/Everett_Rovers_F.C.",
      "image_url": null,
      "address": null,
      "level": 10
    },
    {
      "name": "Holmer Green",
      "url": "https://en.wikipedia.org/wiki/Holmer_Green_F.C.",
      "image_url": null,
      "address": "Holmer Green F.C.",
      "level": 10,
      "latitude": 51.66802222,
      "longitude": -0.70343056,
      "formatted_address": "Holmer Green F.C."
    },
    {
      "name": "Huntingdon Town",
      "url": "https://en.wikipedia.org/wiki/Huntingdon_Town_F.C.",
      "image_url": null,
      "address": "Huntingdon Town F.C.",
      "level": 10,
      "latitude": 52.35840556,
      "longitude": -0.16613056,
      "formatted_address": "Huntingdon Town F.C."
    },
    {
      "name": "Irchester United",
      "url": "https://en.wikipedia.org/wiki/Irchester_United_F.C.",
      "image_url": null,
      "address": "Irchester United F.C.",
      "level": 10,
      "latitude": 52.281518,
      "longitude": -0.65134361,
      "formatted_address": "Irchester United F.C."
    },
    {
      "name": "Langford",
      "url": "https://en.wikipedia.org/wiki/Langford_F.C.",
      "image_url": null,
      "address": "Langford F.C.",
      "level": 10,
      "latitude": 52.044071,
      "longitude": -0.28478086,
      "formatted_address": "Langford F.C."
    },
    {
      "name": "Leighton Town Reserves",
      "url": "https://en.wikipedia.org/wiki/Leighton_Town_F.C.",
      "image_url": null,
      "address": "Leighton Town F.C.",
      "level": 10,
      "latitude": 51.91289167,
      "longitude": -0.65966944,
      "formatted_address": "Leighton Town F.C."
    },
    {
      "name": "Letchworth Garden City Eagles",
      "url": "https://en.wikipedia.org/wiki/Letchworth_Garden_City_Eagles_F.C.",
      "image_url": null,
      "address": "Letchworth Garden City Eagles F.C.",
      "level": 10,
      "latitude": 51.975402777,
      "longitude": -0.20475,
      "formatted_address": "Letchworth Garden City Eagles F.C."
    },
    {
      "name": "New Bradwell St Peter",
      "url": "https://en.wikipedia.org/wiki/New_Bradwell_St._Peter_F.C.",
      "image_url": null,
      "address": null,
      "level": 10
    },
    {
      "name": "Rothwell Corinthians",
      "url": "https://en.wikipedia.org/wiki/Rothwell_Corinthians_F.C.",
      "image_url": null,
      "address": "Rothwell Corinthians F.C.",
      "level": 10,
      "latitude": 52.42695,
      "longitude": -0.80804722,
      "formatted_address": "Rothwell Corinthians F.C."
    },
    {
      "name": "Royston Town Reserves",
      "url": "https://en.wikipedia.org/wiki/Royston_Town_F.C.",
      "image_url": null,
      "address": "Royston Town F.C.",
      "level": 10,
      "latitude": 52.05266944,
      "longitude": -0.01675556,
      "formatted_address": "Royston Town F.C."
    },
    {
      "name": "Rushden & Higham United",
      "url": "https://en.wikipedia.org/wiki/Rushden_%26_Higham_United_F.C.",
      "image_url": null,
      "address": "Rushden & Higham United F.C.",
      "level": 10,
      "latitude": 52.29123611,
      "longitude": -0.58731389,
      "formatted_address": "Rushden & Higham United F.C."
    },
    {
      "name": "Shefford Town & Campton",
      "url": "https://en.wikipedia.org/wiki/Shefford_Town_%26_Campton_F.C.",
      "image_url": null,
      "address": "Shefford Town & Campton F.C.",
      "level": 10,
      "latitude": 52.031111111,
      "longitude": -0.325027777,
      "formatted_address": "Shefford Town & Campton F.C."
    },
    {
      "name": "Stotfold Reserves",
      "url": "https://en.wikipedia.org/wiki/Stotfold_F.C.",
      "image_url": null,
      "address": "Stotfold F.C.",
      "level": 10,
      "latitude": 52.0218,
      "longitude": -0.222864,
      "formatted_address": "Stotfold F.C."
    },
    {
      "name": "Wellingborough Whitworth",
      "url": "https://en.wikipedia.org/wiki/Wellingborough_Whitworth_F.C.",
      "image_url": null,
      "address": "Wellingborough Whitworth F.C.",
      "level": 10,
      "latitude": 52.2932,
      "longitude": -0.682225,
      "formatted_address": "Wellingborough Whitworth F.C."
    }
  ],
  "team_count": 20
}
