{
  "league_name": "Spartan South Midlands League Premier Division",
  "league_url": "",
  "teams": [
    {
      "name": "A.F.C. Welwyn",
      "url": "https://en.wikipedia.org/wiki/AFC_Welwyn",
      "image_url": null,
      "address": null,
      "level": 9
    },
    {
      "name": "Arlesey Town",
      "url": "https://en.wikipedia.org/wiki/Arlesey_Town_F.C.",
      "image_url": null,
      "address": "Arlesey Town F.C.",
      "level": 9,
      "latitude": 52.0012,
      "longitude": -0.264792,
      "formatted_address": "Arlesey Town F.C."
    },
    {
      "name": "Aylesbury Vale Dynamos",
      "url": "https://en.wikipedia.org/wiki/Aylesbury_Vale_Dynamos_F.C.",
      "image_url": null,
      "address": "Aylesbury F.C.",
      "level": 9,
      "latitude": 51.8307,
      "longitude": -0.843878,
      "formatted_address": "Aylesbury F.C."
    },
    {
      "name": "Baldock Town",
      "url": "https://en.wikipedia.org/wiki/Baldock_Town_F.C.",
      "image_url": null,
      "address": "Baldock Town F.C.",
      "level": 9,
      "latitude": 52.001228055,
      "longitude": -0.264791944,
      "formatted_address": "Baldock Town F.C."
    },
    {
      "name": "Biggleswade United",
      "url": "https://en.wikipedia.org/wiki/Biggleswade_United_F.C.",
      "image_url": null,
      "address": "Biggleswade United F.C.",
      "level": 9,
      "latitude": 52.0948,
      "longitude": -0.267619,
      "formatted_address": "Biggleswade United F.C."
    },
    {
      "name": "Cockfosters",
      "url": "https://en.wikipedia.org/wiki/Cockfosters_F.C.",
      "image_url": null,
      "address": "Cockfosters F.C.",
      "level": 9,
      "latitude": 51.6532,
      "longitude": -0.151881,
      "formatted_address": "Cockfosters F.C."
    },
    {
      "name": "Colney Heath",
      "url": "https://en.wikipedia.org/wiki/Colney_Heath_F.C.",
      "image_url": null,
      "address": "Colney Heath F.C.",
      "level": 9,
      "latitude": 51.7417,
      "longitude": -0.260928,
      "formatted_address": "Colney Heath F.C."
    },
    {
      "name": "Crawley Green",
      "url": "https://en.wikipedia.org/wiki/Crawley_Green_F.C.",
      "image_url": null,
      "address": "Crawley Green F.C.",
      "level": 9,
      "latitude": 51.870996,
      "longitude": -0.40212789,
      "formatted_address": "Crawley Green F.C."
    },
    {
      "name": "Dunstable Town",
      "url": "https://en.wikipedia.org/wiki/Dunstable_Town_F.C.",
      "image_url": null,
      "address": "Dunstable Town F.C.",
      "level": 9,
      "latitude": 51.89277778,
      "longitude": -0.53916667,
      "formatted_address": "Dunstable Town F.C."
    },
    {
      "name": "Haringey Borough",
      "url": "https://en.wikipedia.org/wiki/Haringey_Borough_F.C.",
      "image_url": null,
      "address": "Haringey Borough F.C.",
      "level": 9,
      "latitude": 51.60558889,
      "longitude": -0.09276944,
      "formatted_address": "Haringey Borough F.C."
    },
    {
      "name": "Harlow Town",
      "url": "https://en.wikipedia.org/wiki/Harlow_Town_F.C.",
      "image_url": null,
      "address": "Harlow Town F.C.",
      "level": 9,
      "latitude": 51.771,
      "longitude": 0.0678219,
      "formatted_address": "Harlow Town F.C."
    },
    {
      "name": "Harpenden Town",
      "url": "https://en.wikipedia.org/wiki/Harpenden_Town_F.C.",
      "image_url": null,
      "address": "Harpenden Town F.C.",
      "level": 9,
      "latitude": 51.81273056,
      "longitude": -0.36068889,
      "formatted_address": "Harpenden Town F.C."
    },
    {
      "name": "Kempston Rovers",
      "url": "https://en.wikipedia.org/wiki/Kempston_Rovers_F.C.",
      "image_url": null,
      "address": "A.F.C. Kempston Rovers",
      "level": 9,
      "latitude": 52.12672017,
      "longitude": -0.48995183,
      "formatted_address": "A.F.C. Kempston Rovers"
    },
    {
      "name": "Kings Langley",
      "url": "https://en.wikipedia.org/wiki/Kings_Langley_F.C.",
      "image_url": null,
      "address": "Kings Langley F.C.",
      "level": 9,
      "latitude": 51.72266111,
      "longitude": -0.45093611,
      "formatted_address": "Kings Langley F.C."
    },
    {
      "name": "Potton United",
      "url": "https://en.wikipedia.org/wiki/Potton_United_F.C.",
      "image_url": null,
      "address": "Potton United F.C.",
      "level": 9,
      "latitude": 52.12319167,
      "longitude": -0.21716389,
      "formatted_address": "Potton United F.C."
    },
    {
      "name": "Risborough Rangers",
      "url": "https://en.wikipedia.org/wiki/Risborough_Rangers_F.C.",
      "image_url": null,
      "address": "Risborough Rangers F.C.",
      "level": 9,
      "latitude": 51.71803889,
      "longitude": -0.84642778,
      "formatted_address": "Risborough Rangers F.C."
    },
    {
      "name": "Sawbridgeworth Town",
      "url": "https://en.wikipedia.org/wiki/Sawbridgeworth_Town_F.C.",
      "image_url": null,
      "address": "Sawbridgeworth Town F.C.",
      "level": 9,
      "latitude": 51.81868333,
      "longitude": 0.14706389,
      "formatted_address": "Sawbridgeworth Town F.C."
    },
    {
      "name": "Tring Athletic",
      "url": "https://en.wikipedia.org/wiki/Tring_Athletic_F.C.",
      "image_url": null,
      "address": "Tring Athletic F.C.",
      "level": 9,
      "latitude": 51.7968,
      "longitude": -0.640203,
      "formatted_address": "Tring Athletic F.C."
    },
    {
      "name": "Wilslow United",
      "url": "https://en.wikipedia.org/wiki/Winslow_United_F.C.",
      "image_url": null,
      "address": "Winslow United F.C.",
      "level": 9,
      "latitude": 51.9455,
      "longitude": -0.879972,
      "formatted_address": "Winslow United F.C."
    },
    {
      "name": "Wormley Rovers",
      "url": "https://en.wikipedia.org/wiki/Wormley_Rovers_F.C.",
      "image_url": null,
      "address": "Wormley Rovers F.C.",
      "level": 9,
      "latitude": 51.734432,
      "longitude": -0.029335,
      "formatted_address": "Wormley Rovers F.C."
    }
  ],
  "team_count": 20
}
