{
  "league_name": "United Counties League Premier Division North",
  "league_url": "",
  "teams": [
    {
      "name": "A.F.C. Mansfield",
      "url": "https://en.wikipedia.org/wiki/A.F.C._Mansfield",
      "image_url": null,
      "address": "A.F.C. Mansfield",
      "level": 9,
      "latitude": 53.151548,
      "longitude": -1.1614314,
      "formatted_address": "A.F.C. Mansfield"
    },
    {
      "name": "Belper United",
      "url": "https://en.wikipedia.org/wiki/Belper_United_F.C.",
      "image_url": null,
      "address": "Belper United F.C.",
      "level": 9,
      "latitude": 53.027171944,
      "longitude": -1.487325,
      "formatted_address": "Belper United F.C."
    },
    {
      "name": "Blackstones",
      "url": "https://en.wikipedia.org/wiki/Blackstones_F.C.",
      "image_url": null,
      "address": "Blackstones F.C.",
      "level": 9,
      "latitude": 52.66170833,
      "longitude": -0.468925,
      "formatted_address": "Blackstones F.C."
    },
    {
      "name": "Boston Town",
      "url": "https://en.wikipedia.org/wiki/Boston_Town_F.C.",
      "image_url": null,
      "address": "Boston Town F.C.",
      "level": 9,
      "latitude": 52.99165556,
      "longitude": -0.03809444,
      "formatted_address": "Boston Town F.C."
    },
    {
      "name": "Clay Cross Town",
      "url": "https://en.wikipedia.org/wiki/Clay_Cross_Town_F.C.",
      "image_url": null,
      "address": "Clay Cross Town F.C.",
      "level": 9,
      "latitude": 53.172,
      "longitude": -1.432444444,
      "formatted_address": "Clay Cross Town F.C."
    },
    {
      "name": "Deeping Rangers",
      "url": "https://en.wikipedia.org/wiki/Deeping_Rangers_F.C.",
      "image_url": null,
      "address": "Deeping Rangers F.C.",
      "level": 9,
      "latitude": 52.6886,
      "longitude": -0.305456,
      "formatted_address": "Deeping Rangers F.C."
    },
    {
      "name": "Eastwood",
      "url": "https://en.wikipedia.org/wiki/Eastwood_Community_F.C.",
      "image_url": null,
      "address": null,
      "level": 9
    },
    {
      "name": "Grantham Town",
      "url": "https://en.wikipedia.org/wiki/Grantham_Town_F.C.",
      "image_url": null,
      "address": "Grantham Town F.C.",
      "level": 9,
      "latitude": 52.9059,
      "longitude": -0.664844,
      "formatted_address": "Grantham Town F.C."
    },
    {
      "name": "Gresley Rovers",
      "url": "https://en.wikipedia.org/wiki/Gresley_Rovers_F.C.",
      "image_url": null,
      "address": "Gresley F.C.",
      "level": 9,
      "latitude": 52.7618,
      "longitude": -1.56393,
      "formatted_address": "Gresley F.C."
    },
    {
      "name": "Heanor Town",
      "url": "https://en.wikipedia.org/wiki/Heanor_Town_F.C.",
      "image_url": null,
      "address": "Town Ground, Heanor",
      "level": 9,
      "latitude": 53.0112,
      "longitude": -1.35627,
      "formatted_address": "Town Ground, Heanor"
    },
    {
      "name": "Hucknall Town",
      "url": "https://en.wikipedia.org/wiki/Hucknall_Town_F.C.",
      "image_url": null,
      "address": "Hucknall Town F.C.",
      "level": 9,
      "latitude": 53.028644444,
      "longitude": -1.217411111,
      "formatted_address": "Hucknall Town F.C."
    },
    {
      "name": "Kimberley Miners Welfare",
      "url": "https://en.wikipedia.org/wiki/Kimberley_Miners_Welfare_F.C.",
      "image_url": null,
      "address": "Kimberley Miners Welfare F.C.",
      "level": 9,
      "latitude": 52.996213,
      "longitude": -1.2506041,
      "formatted_address": "Kimberley Miners Welfare F.C."
    },
    {
      "name": "Melton Town",
      "url": "https://en.wikipedia.org/wiki/Melton_Town_F.C.",
      "image_url": null,
      "address": "Melton Town F.C.",
      "level": 9,
      "latitude": 52.755393,
      "longitude": -0.87397903,
      "formatted_address": "Melton Town F.C."
    },
    {
      "name": "Newark & Sherwood United",
      "url": "https://en.wikipedia.org/wiki/Newark_and_Sherwood_United_F.C.",
      "image_url": null,
      "address": "Newark Flowserve F.C.",
      "level": 9,
      "latitude": 53.054527777,
      "longitude": -0.795722222,
      "formatted_address": "Newark Flowserve F.C."
    },
    {
      "name": "Newark Town",
      "url": "https://en.wikipedia.org/wiki/Newark_Town_F.C.",
      "image_url": null,
      "address": "Newark Town F.C.",
      "level": 9,
      "latitude": 53.14555833,
      "longitude": -0.75597778,
      "formatted_address": "Newark Town F.C."
    },
    {
      "name": "Sherwood Colliery",
      "url": "https://en.wikipedia.org/wiki/Sherwood_Colliery_F.C.",
      "image_url": null,
      "address": "Sherwood Colliery F.C.",
      "level": 9,
      "latitude": 53.161333333,
      "longitude": -1.206222222,
      "formatted_address": "Sherwood Colliery F.C."
    },
    {
      "name": "Skegness Town",
      "url": "https://en.wikipedia.org/wiki/Skegness_Town_A.F.C.",
      "image_url": null,
      "address": "Skegness Town A.F.C.",
      "level": 9,
      "latitude": 53.15134,
      "longitude": 0.33245,
      "formatted_address": "Skegness Town A.F.C."
    },
    {
      "name": "Wisbech Town",
      "url": "https://en.wikipedia.org/wiki/Wisbech_Town_F.C.",
      "image_url": null,
      "address": "Wisbech Town F.C.",
      "level": 9,
      "latitude": 52.6776,
      "longitude": 0.180974,
      "formatted_address": "Wisbech Town F.C."
    }
  ],
  "team_count": 18
}
