{
  "league_name": "Wessex League Premier Division",
  "league_url": "",
  "teams": [
    {
      "name": "A.F.C. Stoneham",
      "url": "https://en.wikipedia.org/wiki/A.F.C._Stoneham",
      "image_url": null,
      "address": "A.F.C. Stoneham",
      "level": 9,
      "latitude": 50.959062,
      "longitude": -1.3802433,
      "formatted_address": "A.F.C. Stoneham"
    },
    {
      "name": "Andover New Street",
      "url": "https://en.wikipedia.org/wiki/Andover_New_Street_F.C.",
      "image_url": null,
      "address": "Andover New Street F.C.",
      "level": 9,
      "latitude": 51.231677,
      "longitude": -1.5009038,
      "formatted_address": "Andover New Street F.C."
    },
    {
      "name": "Baffins Milton Rovers",
      "url": "https://en.wikipedia.org/wiki/Baffins_Milton_Rovers_F.C.",
      "image_url": null,
      "address": "Baffins Milton Rovers F.C.",
      "level": 9,
      "latitude": 50.823405,
      "longitude": -1.043504833,
      "formatted_address": "Baffins Milton Rovers F.C."
    },
    {
      "name": "Bemerton Heath Harlequins",
      "url": "https://en.wikipedia.org/wiki/Bemerton_Heath_Harlequins_F.C.",
      "image_url": null,
      "address": "Bemerton Heath Harlequins F.C.",
      "level": 9,
      "latitude": 51.0811,
      "longitude": -1.83583,
      "formatted_address": "Bemerton Heath Harlequins F.C."
    },
    {
      "name": "Bournemouth",
      "url": "https://en.wikipedia.org/wiki/Bournemouth_F.C.",
      "image_url": null,
      "address": "Victoria Park, Bournemouth",
      "level": 9,
      "latitude": 50.747027777,
      "longitude": -1.88675,
      "formatted_address": "Victoria Park, Bournemouth"
    },
    {
      "name": "Brockenhurst",
      "url": "https://en.wikipedia.org/wiki/Brockenhurst_F.C.",
      "image_url": null,
      "address": "Brockenhurst F.C.",
      "level": 9,
      "latitude": 50.8208,
      "longitude": -1.57586,
      "formatted_address": "Brockenhurst F.C."
    },
    {
      "name": "Christchurch",
      "url": "https://en.wikipedia.org/wiki/Christchurch_F.C.",
      "image_url": null,
      "address": "Christchurch F.C.",
      "level": 9,
      "latitude": 50.772835,
      "longitude": -1.8176056,
      "formatted_address": "Christchurch F.C."
    },
    {
      "name": "Cowes Sports",
      "url": "https://en.wikipedia.org/wiki/Cowes_Sports_F.C.",
      "image_url": null,
      "address": null,
      "level": 9
    },
    {
      "name": "Downton",
      "url": "https://en.wikipedia.org/wiki/Downton_F.C.",
      "image_url": null,
      "address": "Downton F.C.",
      "level": 9,
      "latitude": 50.992385,
      "longitude": -1.762961,
      "formatted_address": "Downton F.C."
    },
    {
      "name": "East Cowes Victoria Athletic",
      "url": "https://en.wikipedia.org/wiki/East_Cowes_Victoria_Athletic_A.F.C.",
      "image_url": null,
      "address": null,
      "level": 9
    },
    {
      "name": "Hamble Club",
      "url": "https://en.wikipedia.org/wiki/Hamble_Club_F.C.",
      "image_url": null,
      "address": "Hamble Club F.C.",
      "level": 9,
      "latitude": 50.867721,
      "longitude": -1.330378,
      "formatted_address": "Hamble Club F.C."
    },
    {
      "name": "Hamworthy Recreation",
      "url": "https://en.wikipedia.org/wiki/Hamworthy_Recreation_F.C.",
      "image_url": null,
      "address": "Hamworthy Recreation F.C.",
      "level": 9,
      "latitude": 50.7805,
      "longitude": -1.948333333,
      "formatted_address": "Hamworthy Recreation F.C."
    },
    {
      "name": "Hythe & Dibden",
      "url": "https://en.wikipedia.org/wiki/Hythe_%26_Dibden_F.C.",
      "image_url": null,
      "address": "Hythe & Dibden F.C.",
      "level": 9,
      "latitude": 50.86775,
      "longitude": -1.419944444,
      "formatted_address": "Hythe & Dibden F.C."
    },
    {
      "name": "Laverstock & Ford",
      "url": "https://en.wikipedia.org/wiki/Laverstock_%26_Ford_F.C.",
      "image_url": null,
      "address": "Laverstock & Ford F.C.",
      "level": 9,
      "latitude": 51.079379,
      "longitude": -1.7744489,
      "formatted_address": "Laverstock & Ford F.C."
    },
    {
      "name": "Millbrook (Hampshire)",
      "url": "https://en.wikipedia.org/wiki/Millbrook_F.C.",
      "image_url": null,
      "address": "Millbrook F.C.",
      "level": 9,
      "latitude": 50.930421111,
      "longitude": -1.467646944,
      "formatted_address": "Millbrook F.C."
    },
    {
      "name": "New Milton Town",
      "url": "https://en.wikipedia.org/wiki/New_Milton_Town_F.C.",
      "image_url": null,
      "address": "New Milton Town F.C.",
      "level": 9,
      "latitude": 50.74611944,
      "longitude": -1.67275556,
      "formatted_address": "New Milton Town F.C."
    },
    {
      "name": "Portland United",
      "url": "https://en.wikipedia.org/wiki/Portland_United_F.C.",
      "image_url": null,
      "address": "Portland United F.C.",
      "level": 9,
      "latitude": 50.551025,
      "longitude": -2.43121667,
      "formatted_address": "Portland United F.C."
    },
    {
      "name": "Sherborne Town",
      "url": "https://en.wikipedia.org/wiki/Sherborne_Town_F.C.",
      "image_url": null,
      "address": "Sherborne Town F.C.",
      "level": 9,
      "latitude": 50.94036667,
      "longitude": -2.51000278,
      "formatted_address": "Sherborne Town F.C."
    },
    {
      "name": "Wincanton Town",
      "url": "https://en.wikipedia.org/wiki/Wincanton_Town_F.C.",
      "image_url": null,
      "address": "Wincanton Town F.C.",
      "level": 9,
      "latitude": 51.048217,
      "longitude": -2.402974,
      "formatted_address": "Wincanton Town F.C."
    }
  ],
  "team_count": 19
}
