{
  "league_name": "Cumbria",
  "league_url": "https://www.englandrugby.com/fixtures-and-results/search-results?competition=1623&division=8116&season=2014-2015#tables",
  "teams": [
    {
      "name": "Silloth",
      "url": "https://www.englandrugby.com/fixtures-and-results/search-results?team=19382",
      "image_url": "https://images.englandrugby.com/club_images/19382.png",
      "address": "The Jim W Brough Silloth Rugby Park Eden Street Silloth Cumbria CA7 4AX United Kingdom",
      "latitude": 54.86706,
      "longitude": -3.38731,
      "formatted_address": "CA7 4AX, Silloth-on-Solway, Cumberland, England, United Kingdom",
      "place_id": 350583568
    },
    {
      "name": "Workington",
      "url": "https://www.englandrugby.com/fixtures-and-results/search-results?team=26096",
      "image_url": "https://images.englandrugby.com/club_images/26096.png",
      "address": "Ellis Sports Ground Moss Bay Road Workington Cumbria CA14 3XZ United Kingdom",
      "latitude": 54.63476,
      "longitude": -3.561,
      "formatted_address": "CA14 3XZ, Workington, Cumberland, England, United Kingdom",
      "place_id": 351028366
    },
    {
      "name": "Keswick",
      "url": "https://www.englandrugby.com/fixtures-and-results/search-results?team=11329",
      "image_url": "https://images.englandrugby.com/club_images/11329.png",
      "address": "Davidson Park, Crow Park Road, Keswick, Cumbria, CA12 5EG, United Kingdom",
      "latitude": 54.6006588,
      "longitude": -3.1439604,
      "formatted_address": "CA12 5EG, Keswick, Cumberland, England, United Kingdom",
      "place_id": 350527467
    },
    {
      "name": "Windermere",
      "url": "https://www.englandrugby.com/fixtures-and-results/search-results?team=25596",
      "image_url": "https://images.englandrugby.com/club_images/25596.png",
      "address": "Clubhouse Dawes Meadow Longlands Bowness on Windermere CUMBRIA LA23 3AS UNITED KINGDOM",
      "latitude": 54.3672221,
      "longitude": -2.9176134,
      "formatted_address": "LA23 3AS, Windermere, Bowness on Windermere, Westmorland and Furness, England, United Kingdom",
      "place_id": 351354688
    },
    {
      "name": "Moresby",
      "url": "https://www.englandrugby.com/fixtures-and-results/search-results?team=14109",
      "image_url": "https://images.englandrugby.com/club_images/14109.png",
      "address": "Walkmill Park Moresby Parks Whitehaven Cumbria CA28 8XW United Kingdom",
      "latitude": 54.55956,
      "longitude": -3.54743,
      "formatted_address": "CA28 8XW, Moresby, Cumberland, England, United Kingdom",
      "place_id": 351032113
    },
    {
      "name": "Egremont",
      "url": "https://www.englandrugby.com/fixtures-and-results/search-results?team=7411",
      "image_url": "https://images.englandrugby.com/club_images/7411.png",
      "address": "Bleach Green Egremont CUMBRIA CA22 2NL UNITED KINGDOM",
      "latitude": 54.47751,
      "longitude": -3.52821,
      "formatted_address": "CA22 2NL, Egremont, Cumberland, England, United Kingdom",
      "place_id": 351030946
    },
    {
      "name": "Millom",
      "url": "https://www.englandrugby.com/fixtures-and-results/search-results?team=13890",
      "image_url": "https://images.englandrugby.com/club_images/13890.png",
      "address": "Wilson Park Haverigg Millom CUMBRIA LA18 4ES ENGLAND",
      "latitude": 54.19591,
      "longitude": -3.28845,
      "formatted_address": "LA18 4ES, Millom, Cumberland, England, United Kingdom",
      "place_id": 351462135
    },
    {
      "name": "Penrith II",
      "url": "https://www.englandrugby.com/fixtures-and-results/search-results?team=16687",
      "image_url": "https://images.englandrugby.com/club_images/16687.png",
      "address": "Penrith Rufc, Winters Park, Penrith, Cumbria, CA11 8RQ, United Kingdom",
      "latitude": 54.6586627,
      "longitude": -2.7324676,
      "formatted_address": "CA11 8RQ, Carleton Farm, Penrith, Westmorland and Furness, England, United Kingdom",
      "place_id": 350527237
    },
    {
      "name": "Cockermouth",
      "url": "https://www.englandrugby.com/fixtures-and-results/search-results?team=5361",
      "image_url": "https://images.englandrugby.com/club_images/5361.png",
      "address": "Grasmoor Sports Centre, Strawberry How Strawberry How Lorton Road Cockermouth CUMBRIA CA13 9XQ UNITED KINGDOM",
      "latitude": 54.6568216,
      "longitude": -3.3488062,
      "formatted_address": "CA13 9XQ, Cockermouth, Cumberland, England, United Kingdom",
      "place_id": 351027650
    },
    {
      "name": "Kendal 2nd XV",
      "url": "https://www.englandrugby.com/fixtures-and-results/search-results?team=11241",
      "image_url": "https://images.englandrugby.com/club_images/11241.png",
      "address": "Kendal R.u.f.c. Mint Bridge Shap Road Kendal Cumbria LA9 6NY United Kingdom",
      "latitude": 54.3459612,
      "longitude": -2.7351666,
      "formatted_address": "LA9 6NY, Kendal, Westmorland and Furness, England, United Kingdom",
      "place_id": 350230488
    },
    {
      "name": "Carlisle Crusaders",
      "url": "https://www.englandrugby.com/fixtures-and-results/search-results?team=4208",
      "image_url": "https://images.englandrugby.com/club_images/4208.png",
      "address": "The Rugby Club Warwick Road Carlisle CUMBRIA CA1 1LW UNITED KINGDOM",
      "latitude": 54.8951498,
      "longitude": -2.9180998,
      "formatted_address": "CA1 1LW, Carlisle, Cumberland, England, United Kingdom",
      "place_id": 351025025
    },
    {
      "name": "Creighton",
      "url": "https://www.englandrugby.com/fixtures-and-results/search-results?team=5852",
      "image_url": "https://images.englandrugby.com/club_images/5852.png",
      "address": "Sycamore Lane Parkland Carlisle CUMBRIA CA1 3SR UNITED KINGDOM",
      "latitude": 54.8755644,
      "longitude": -2.8871217,
      "formatted_address": "CA1 3SR, St Cuthbert Without, Durdar, Cumberland, England, United Kingdom",
      "place_id": 350527740
    },
    {
      "name": "Netherhall",
      "url": "https://www.englandrugby.com/fixtures-and-results/search-results?team=14294",
      "image_url": "https://images.englandrugby.com/club_images/14294.png",
      "address": "Netherhall Rugby Football Club Netherhall Park Netherhall Road Maryport Cumbria CA156NT England",
      "latitude": 54.7182377,
      "longitude": -3.4848935,
      "formatted_address": "CA15 6NT, Maryport, Cumberland, England, United Kingdom",
      "place_id": 350527891
    },
    {
      "name": "Wigton Wanderers",
      "url": "https://www.englandrugby.com/fixtures-and-results/search-results?team=25416",
      "image_url": "https://images.englandrugby.com/club_images/25416.png",
      "address": "Wigton Rugby Club Lowmoor Road Wigton Cumbria CA7 9QT United Kingdom",
      "latitude": 54.8208816,
      "longitude": -3.1464255,
      "formatted_address": "CA7 9QT, Woodside, Cumberland, England, United Kingdom",
      "place_id": 351034905
    }
  ],
  "team_count": 14
}
