{
  "league_name": "Counties 3 Surrey",
  "league_url": "https://www.englandrugby.com/fixtures-and-results/search-results?competition=261&division=66550",
  "teams": [
    {
      "name": "Thamesians",
      "url": "https://www.englandrugby.com/fixtures-and-results/search-results?team=21890",
      "image_url": "https://images.englandrugby.com/club_images/21890.png",
      "address": "The Pavilion, The Green, Twickenham Green, Twickenham, Middlesex, TW2 5AG, United Kingdom",
      "postcode": "TW2 5AG",
      "maps_url": "https://www.google.com/maps/search/?api=1&query=The%20Pavilion%0AThe%20Green%0ATwickenham%20Green%0ATwickenham%0AMiddlesex%0ATW2%205AG%0AUnited%20Kingdom",
      "latitude": 51.4438982,
      "longitude": -0.3421539,
      "formatted_address": "Twickenham Green, The Grn, Twickenham TW2 5TU, UK",
      "place_id": "ChIJj4UAs5EMdkgRNCL8ENd2shY"
    },
    {
      "name": "Effingham & Leatherhead",
      "url": "https://www.englandrugby.com/fixtures-and-results/search-results?team=7373",
      "image_url": "https://images.englandrugby.com/club_images/7373.png",
      "address": "Effingham & Leatherhead R.F.C. King George V Hall King George V Playing Fields Browns Lane Effingham SURREY KT24 5ND UNITED KINGDOM ",
      "postcode": "KT24 5ND",
      "maps_url": "https://www.google.com/maps/search/?api=1&query=Effingham%20%26%20Leatherhead%20R.F.C.%20King%20George%20V%20Hall%20King%20George%20V%20Playing%20Fields%20Browns%20Lane%20Effingham%20SURREY%20KT24%205ND%20UNITED%20KINGDOM%20",
      "latitude": 51.2697544,
      "longitude": -0.3959213,
      "formatted_address": "King George V Hall, Browns Ln, Effingham KT24 5ND, UK",
      "place_id": "ChIJBWIM2wzedUgRRq38bVjMNHM"
    },
    {
      "name": "Old Georgians",
      "url": "https://www.englandrugby.com/fixtures-and-results/search-results?team=15708",
      "image_url": "https://images.englandrugby.com/club_images/15708.png",
      "address": "Old Georgians Clubhouse - St Georges College, Weybridge Road, Addlestone, Surrey , KT15 2QS, United Kingdom",
      "postcode": "KT15 2QS",
      "maps_url": "https://www.google.com/maps/search/?api=1&query=Old%20Georgians%20Clubhouse%20-%20St%20Georges%20College%0AWeybridge%20Road%0AAddlestone%0ASurrey%20%0AKT15%202QS%0AUnited%20Kingdom",
      "latitude": 51.3799287,
      "longitude": -0.4776502,
      "formatted_address": "Old Georgian Clubhouse, Weybridge Rd, Addlestone KT15 2QS, UK",
      "place_id": "ChIJezOOU3p2dkgRdZm1fRB9FnI"
    },
    {
      "name": "London Exiles",
      "url": "https://www.englandrugby.com/fixtures-and-results/search-results?team=12513",
      "image_url": "https://images.englandrugby.com/club_images/12513.png",
      "address": "Barn Elms Sports Centre, Queen Elizabeth Walk, Barnes, London, SW13 0DG, United Kingdom",
      "postcode": "SW13 0DG",
      "maps_url": "https://www.google.com/maps/search/?api=1&query=Barn%20Elms%20Sports%20Centre%0AQueen%20Elizabeth%20Walk%0ABarnes%0ALondon%0ASW13%200DG%0AUnited%20Kingdom",
      "latitude": 51.4757429,
      "longitude": -0.2354673,
      "formatted_address": "Queen Elizabeth Walk, London SW13, UK",
      "place_id": "ChIJxfeYGKsPdkgRPzABgb6SnCU"
    },
    {
      "name": "Southwark Lancers",
      "url": "https://www.englandrugby.com/fixtures-and-results/search-results?team=19804",
      "image_url": "https://images.englandrugby.com/club_images/19804.png",
      "address": "Chumleigh Gardens Chumleigh Street Southwark London KENT SE5 0RJ ",
      "postcode": "SE5 0RJ",
      "maps_url": "https://www.google.com/maps/search/?api=1&query=Chumleigh%20Gardens%20Chumleigh%20Street%20Southwark%20London%20KENT%20SE5%200RJ%20",
      "latitude": 51.48396380000001,
      "longitude": -0.08481609999999999,
      "formatted_address": "12 Chumleigh St, London SE5 0RJ, UK",
      "place_id": "ChIJYaXeNmUDdkgRhbpbBQ0D1sY"
    },
    {
      "name": "Old Johnians",
      "url": "https://www.englandrugby.com/fixtures-and-results/search-results?team=15785",
      "image_url": "https://images.englandrugby.com/club_images/15785.png",
      "address": "Wimbledon Rfc, Barham Road, London, Greater London, SW20 0ET, United Kingdom",
      "postcode": "SW20 0ET",
      "maps_url": "https://www.google.com/maps/search/?api=1&query=Wimbledon%20Rfc%0ABarham%20Road%0ALondon%0AGreater%20London%0ASW20%200ET%0AUnited%20Kingdom",
      "latitude": 51.4197835,
      "longitude": -0.2480312,
      "formatted_address": "Barham Rd, London SW20 0ET, UK",
      "place_id": "ChIJNR5pMiUJdkgR_-0dRrSlxE8"
    },
    {
      "name": "Kingston",
      "url": "https://www.englandrugby.com/fixtures-and-results/search-results?team=11663",
      "image_url": "https://images.englandrugby.com/club_images/11663.png",
      "address": "Kingston Rugby Football Club, Rear Of Clubhouse, King Edward Recreation Ground, Hook Road, Chessington, Surrey, KT9 1PL, United Kingdom",
      "postcode": "KT9 1PL",
      "maps_url": "https://www.google.com/maps/search/?api=1&query=Kingston%20Rugby%20Football%20Club%0ARear%20Of%20Clubhouse%2C%20King%20Edward%20Recreation%20Ground%0AHook%20Road%0AChessington%0ASurrey%0AKT9%201PL%0AUnited%20Kingdom",
      "latitude": 51.372379,
      "longitude": -0.3074499,
      "formatted_address": "King Edward Recreation Ground, Hook Rd, Chessington KT9 1PL, UK",
      "place_id": "ChIJ-YBxuUAKdkgRFzF9kPkIQqo"
    },
    {
      "name": "Law Society",
      "url": "https://www.englandrugby.com/fixtures-and-results/search-results?team=11925",
      "image_url": "https://images.englandrugby.com/club_images/11925.png",
      "address": "Raynes Park Sports Ground, Taunton Avenue, West Wimbledon, SW20 0BH, United Kingdom",
      "postcode": "SW20 0BH",
      "maps_url": "https://www.google.com/maps/search/?api=1&query=Raynes%20Park%20Sports%20Ground%0ATaunton%20Avenue%0AWest%20Wimbledon%0ASW20%200BH%0AUnited%20Kingdom",
      "latitude": 51.40788480000001,
      "longitude": -0.2397658,
      "formatted_address": "Taunton Ave, West Wimbledon, London SW20 0BH, UK",
      "place_id": "ChIJKdxWnx8JdkgR7b1iLOrPqVE"
    },
    {
      "name": "Haslemere",
      "url": "https://www.englandrugby.com/fixtures-and-results/search-results?team=9632",
      "image_url": "https://images.englandrugby.com/club_images/9632.png",
      "address": "Woolmer Hill Sports Ground Woolmer Hill Haslemere SURREY GU27 1QA UNITED KINGDOM ",
      "postcode": "GU27 1QA",
      "maps_url": "https://www.google.com/maps/search/?api=1&query=Woolmer%20Hill%20Sports%20Ground%20Woolmer%20Hill%20Haslemere%20SURREY%20GU27%201QA%20UNITED%20KINGDOM%20",
      "latitude": 51.091951,
      "longitude": -0.7495075,
      "formatted_address": "Woolmer Hill Rd, Haslemere GU27, UK",
      "place_id": "ChIJfWilQKo0dEgRoJYXkKVb0Uc"
    },
    {
      "name": "Old Glynonians",
      "url": "https://www.englandrugby.com/fixtures-and-results/search-results?team=15711",
      "image_url": "https://images.englandrugby.com/club_images/15711.png",
      "address": "Old Glynonians Rfc, Priesthill Playing Field, Reigate Road, Epsom, KT17 3DZ, England",
      "postcode": "KT17 3DZ",
      "maps_url": "https://www.google.com/maps/search/?api=1&query=Old%20Glynonians%20Rfc%0APriesthill%20Playing%20Field%0AReigate%20Road%0AEpsom%0AKT17%203DZ%0AEngland",
      "latitude": 51.3386009,
      "longitude": -0.242819,
      "formatted_address": "Epsom KT17 3DS, UK",
      "place_id": "ChIJs5Gu_nridUgRUj7ULwt8pwA"
    },
    {
      "name": "Streatham-Croydon",
      "url": "https://www.englandrugby.com/fixtures-and-results/search-results?team=21255",
      "image_url": "https://images.englandrugby.com/club_images/21255.png",
      "address": ", 159 Brigstock Road Thornton Heath SURREY CR7 7JP UNITED KINGDOM ",
      "postcode": "CR7 7JP",
      "maps_url": "https://www.google.com/maps/search/?api=1&query=%2C%20159%20Brigstock%20Road%20Thornton%20Heath%20SURREY%20CR7%207JP%20UNITED%20KINGDOM%20",
      "latitude": 51.3939933,
      "longitude": -0.1119499,
      "formatted_address": "159 Brigstock Rd, Thornton Heath CR7 7JP, UK",
      "place_id": "ChIJ6ayqr94GdkgRMpKTphFiTNg"
    }
  ],
  "team_count": 11,
  "success_count": 11
}