{
  "league_name": "Counties 2 Middx",
  "league_url": "https://www.englandrugby.com/fixtures-and-results/search-results?competition=261&division=66547",
  "teams": [
    {
      "name": "Hackney",
      "url": "https://www.englandrugby.com/fixtures-and-results/search-results?team=9154",
      "image_url": "https://images.englandrugby.com/club_images/9154.png",
      "address": "Spring Hill Sports Ground, Spring Hill, Upper Clapton, Hackney, E5 9BL, United Kingdom",
      "postcode": "E5 9BL",
      "maps_url": "https://www.google.com/maps/search/?api=1&query=Spring%20Hill%20Sports%20Ground%0ASpring%20Hill%0AUpper%20Clapton%0AHackney%0AE5%209BL%0AUnited%20Kingdom",
      "latitude": 51.5717689,
      "longitude": -0.0616081,
      "formatted_address": "Spring Hill, London E5, UK",
      "place_id": "ChIJP947y0UcdkgRICW7sJgs_58"
    },
    {
      "name": "Barnet Elizabethans",
      "url": "https://www.englandrugby.com/fixtures-and-results/search-results?team=1427",
      "image_url": "https://images.englandrugby.com/club_images/1427.png",
      "address": "Byng Road Playing Fields, Byng Road, Barnet, Hertfordshire, EN5 4NS, United Kingdom",
      "postcode": "EN5 4NS",
      "maps_url": "https://www.google.com/maps/search/?api=1&query=Byng%20Road%20Playing%20Fields%0AByng%20Road%0ABarnet%0AHertfordshire%0AEN5%204NS%0AUnited%20Kingdom",
      "latitude": 51.6605073,
      "longitude": -0.216043,
      "formatted_address": "Byng Road Playing Fields, Barnet EN5 4NS, UK",
      "place_id": "ChIJV2mfrr8XdkgR--SRfbMsXuM"
    },
    {
      "name": "Kilburn Cosmos",
      "url": "https://www.englandrugby.com/fixtures-and-results/search-results?team=11432",
      "image_url": "https://images.englandrugby.com/club_images/11432.png",
      "address": "Gladstone Park, Jct Of Anson & Kendal Road, London, NW2 6BH, United Kingdom",
      "postcode": "NW2 6BH",
      "maps_url": "https://www.google.com/maps/search/?api=1&query=Gladstone%20Park%0AJct%20Of%20Anson%20%26%20Kendal%20Road%0ALondon%0ANW2%206BH%0AUnited%20Kingdom",
      "latitude": 51.55740729999999,
      "longitude": -0.2360407,
      "formatted_address": "Gladstone Park, 52 Mulgrave Rd, Neasden, London NW10 1JG, UK",
      "place_id": "ChIJ99IK4v8QdkgRZNGsdKK0pb8"
    },
    {
      "name": "Harrow",
      "url": "https://www.englandrugby.com/fixtures-and-results/search-results?team=9524",
      "image_url": "https://images.englandrugby.com/club_images/9524.png",
      "address": "Grove Field Wood Lane Stanmore MIDDLESEX HA7 4LF UNITED KINGDOM ",
      "postcode": "HA7 4LF",
      "maps_url": "https://www.google.com/maps/search/?api=1&query=Grove%20Field%20Wood%20Lane%20Stanmore%20MIDDLESEX%20HA7%204LF%20UNITED%20KINGDOM%20",
      "latitude": 51.6273554,
      "longitude": -0.3194095,
      "formatted_address": "Stanmore HA7 4LQ, UK",
      "place_id": "ChIJVVVVKVsUdkgRcK_idgiXGBs"
    },
    {
      "name": "Actonians",
      "url": "https://www.englandrugby.com/fixtures-and-results/search-results?team=314",
      "image_url": "https://images.englandrugby.com/club_images/314.png",
      "address": "Old Actonians Sports Club, Gunnersbury Drive, London, W5 4LL, United Kingdom",
      "postcode": "W5 4LL",
      "maps_url": "https://www.google.com/maps/search/?api=1&query=Old%20Actonians%20Sports%20Club%0AGunnersbury%20Drive%0ALondon%0AW5%204LL%0AUnited%20Kingdom",
      "latitude": 51.5018407,
      "longitude": -0.2892167,
      "formatted_address": "Gunnersbury Dr, London W5 4LL, UK",
      "place_id": "ChIJ-9pui-QNdkgRuUJHmn_JdBA"
    },
    {
      "name": "Finsbury Park",
      "url": "https://www.englandrugby.com/fixtures-and-results/search-results?team=8119",
      "image_url": "https://images.englandrugby.com/club_images/8119.png",
      "address": "Downhills Park, Downhills Park Road, London, Middlesex, N17 6PE, England",
      "postcode": "N17 6PE",
      "maps_url": "https://www.google.com/maps/search/?api=1&query=Downhills%20Park%0ADownhills%20Park%20Road%0ALondon%0AMiddlesex%0AN17%206PE%0AEngland",
      "latitude": 51.5890651,
      "longitude": -0.08895789999999999,
      "formatted_address": "Downhills Park, Downhills Park Rd, London N17 6PE, UK",
      "place_id": "ChIJ622zHQYcdkgROJqhGHE3Muk"
    },
    {
      "name": "Enfield Ignatians",
      "url": "https://www.englandrugby.com/fixtures-and-results/search-results?team=7513",
      "image_url": "https://images.englandrugby.com/club_images/7513.png",
      "address": "King George V Playing Fields, Donkey Lane , Donkey Lane Carterhatch Lane, Enfield, Mdsex, EN1 3PL, United Kingdom",
      "postcode": "EN1 3PL",
      "maps_url": "https://www.google.com/maps/search/?api=1&query=King%20George%20V%20Playing%20Fields%0ADonkey%20Lane%20%0ADonkey%20Lane%20Carterhatch%20Lane%0AEnfield%0AMdsex%0AEN1%203PL%0AUnited%20Kingdom",
      "latitude": 51.7886657,
      "longitude": -0.1900558,
      "formatted_address": "King George V Playing Fields, King George Playing Fields, Beehive Ln, Welwyn Garden City AL7 4BP, UK",
      "place_id": "ChIJnYudv0o7dkgRiwfcCw_ULvc"
    },
    {
      "name": "Old Millhillians",
      "url": "https://www.englandrugby.com/fixtures-and-results/search-results?team=15828",
      "image_url": "https://images.englandrugby.com/club_images/15828.png",
      "address": "Headstone Lane, Harrow, Middlesex, HA2 6NF, United Kingdom",
      "postcode": "HA2 6NF",
      "maps_url": "https://www.google.com/maps/search/?api=1&query=Headstone%20Lane%0AHarrow%0AMiddlesex%0AHA2%206NF%0AUnited%20Kingdom",
      "latitude": 51.599435,
      "longitude": -0.3565856,
      "formatted_address": "Headstone Ln, United Kingdom",
      "place_id": "EhxIZWFkc3RvbmUgTG4sIFVuaXRlZCBLaW5nZG9tIi4qLAoUChIJ4U75TKcUdkgRKH-tHUj6nvMSFAoSCaOaguOlFHZIEQu5GGVRukGA"
    }
  ],
  "team_count": 8,
  "success_count": 8
}