{
  "league_name": "Counties 4 Tribute Ale Gloucestershire South",
  "league_url": "https://www.englandrugby.com/fixtures-and-results/search-results?competition=1699&division=66472",
  "teams": [
    {
      "name": "Frampton Cotterell II",
      "url": "https://www.englandrugby.com/fixtures-and-results/search-results?team=8292",
      "image_url": "https://images.englandrugby.com/club_images/8292.png",
      "address": "Frampton Cotterell RFC Crossbow House Frampton Cotterell Bristol AVON BS36 2DA UNITED KINGDOM ",
      "postcode": "BS36 2DA",
      "maps_url": "https://www.google.com/maps/search/?api=1&query=Frampton%20Cotterell%20RFC%20Crossbow%20House%20Frampton%20Cotterell%20Bristol%20AVON%20BS36%202DA%20UNITED%20KINGDOM%20",
      "latitude": 51.5343315,
      "longitude": -2.490948,
      "formatted_address": "Crossbow House, School Rd, Frampton Cotterell, Bristol BS36 2DA, UK",
      "place_id": "ChIJ86LZO2OacUgRG0_CfEL1mDs"
    },
    {
      "name": "Yate",
      "url": "https://www.englandrugby.com/fixtures-and-results/search-results?team=26410",
      "image_url": "https://images.englandrugby.com/club_images/26410.png",
      "address": "Yate Outdoor Sports Complex, Broad Lane, Yate, BS37 7LB, England",
      "postcode": "BS37 7LB",
      "maps_url": "https://www.google.com/maps/search/?api=1&query=Yate%20Outdoor%20Sports%20Complex%0ABroad%20Lane%0AYate%0ABS37%207LB%0AEngland",
      "latitude": 51.5558357,
      "longitude": -2.4242513,
      "formatted_address": "Outdoor Sports Complex, Broad Ln, Yate, Bristol BS37 7LB, UK",
      "place_id": "ChIJE1rm4KOFcUgRNLGbMYw3sz0"
    },
    {
      "name": "Chipping Sodbury",
      "url": "https://www.englandrugby.com/fixtures-and-results/search-results?team=4885",
      "image_url": "https://images.englandrugby.com/club_images/4885.png",
      "address": "Wickwar Road Chipping Sodbury BRISTOL BS37 6GA UNITED KINGDOM",
      "postcode": "BS37 6GA",
      "maps_url": "https://www.google.com/maps/search/?api=1&query=Wickwar%20Road%20Chipping%20Sodbury%20BRISTOL%20BS37%206GA%20UNITED%20KINGDOM",
      "latitude": 51.5439447,
      "longitude": -2.3972149,
      "formatted_address": "Wickwar Rd, Bristol BS37 6GA, UK",
      "place_id": "EiBXaWNrd2FyIFJkLCBCcmlzdG9sIEJTMzcgNkdBLCBVSyIuKiwKFAoSCRdSKG0OnHFIEaVz5NiTINYHEhQKEgnJb_OnepxxSBGyTtVPuIN9Qg"
    },
    {
      "name": "Old Bristolians II",
      "url": "https://www.englandrugby.com/fixtures-and-results/search-results?team=15462",
      "image_url": "https://images.englandrugby.com/club_images/15462.png",
      "address": "Old Bristolians RFC Memorial Playing Field Longwood Lane, Failand Bristol BRISTOL BS8 3TQ UNITED KINGDOM ",
      "postcode": "BS8 3TQ",
      "maps_url": "https://www.google.com/maps/search/?api=1&query=Old%20Bristolians%20RFC%20Memorial%20Playing%20Field%20Longwood%20Lane%2C%20Failand%20Bristol%20BRISTOL%20BS8%203TQ%20UNITED%20KINGDOM%20",
      "latitude": 51.441921,
      "longitude": -2.6699768,
      "formatted_address": "Longwood Ln, Bristol BS8 3TQ, UK",
      "place_id": "ChIJi8ft-Z-NcUgRVvaaBDf5T4M"
    },
    {
      "name": "St Brendan's Old Boys",
      "url": "https://www.englandrugby.com/fixtures-and-results/search-results?team=20262",
      "image_url": "https://images.englandrugby.com/club_images/20262.png",
      "address": "c/o Coombe Dingle Sports Complex Coombe Lane Stoke Bishop BS9 2BJ UNITED KINGDOM ",
      "postcode": "BS9 2BJ",
      "maps_url": "https://www.google.com/maps/search/?api=1&query=c%2Fo%20Coombe%20Dingle%20Sports%20Complex%20Coombe%20Lane%20Stoke%20Bishop%20BS9%202BJ%20UNITED%20KINGDOM%20",
      "latitude": 51.4897364,
      "longitude": -2.6307066,
      "formatted_address": "Coombe Ln, Bristol BS9 2BJ, UK",
      "place_id": "ChIJ_9zCVHaScUgR9Qw0t3VMBS0"
    },
    {
      "name": "Dings Crusaders III",
      "url": "https://www.englandrugby.com/fixtures-and-results/search-results?team=6472",
      "image_url": "https://images.englandrugby.com/club_images/6472.png",
      "address": "Dings Crusaders Rfc, Shaftsbury Park, Frenchay, Bristol, Bristol, BS16 1LG, United Kingdom",
      "postcode": "BS16 1LG",
      "maps_url": "https://www.google.com/maps/search/?api=1&query=Dings%20Crusaders%20Rfc%0AShaftsbury%20Park%0AFrenchay%0ABristol%0ABristol%0ABS16%201LG%0AUnited%20Kingdom",
      "latitude": 51.4980583,
      "longitude": -2.5295779,
      "formatted_address": "Shaftesbury Park, Frenchay Park Rd, Frenchay, Winterbourne, Bristol BS16 1LG, UK",
      "place_id": "ChIJe5VbnEuRcUgRzhJ42ewIMXY"
    },
    {
      "name": "Clifton III",
      "url": "https://www.englandrugby.com/fixtures-and-results/search-results?team=5263",
      "image_url": "https://images.englandrugby.com/club_images/5263.png",
      "address": "Clifton Rfc, Station Road, Cribbs Causeway,  , Bristol, Avon, BS10 7TT, United Kingdom",
      "postcode": "BS10 7TT",
      "maps_url": "https://www.google.com/maps/search/?api=1&query=Clifton%20Rfc%0AStation%20Road%0ACribbs%20Causeway%0A%20%0ABristol%0AAvon%0ABS10%207TT%0AUnited%20Kingdom",
      "latitude": 51.5177578,
      "longitude": -2.624966,
      "formatted_address": "Station Rd, Henbury, Patchway, Bristol BS10 7TB, UK",
      "place_id": "ChIJw8ZZoDGScUgRzyL7N7lvTjA"
    },
    {
      "name": "Bishopston",
      "url": "https://www.englandrugby.com/fixtures-and-results/search-results?team=2465",
      "image_url": "https://images.englandrugby.com/club_images/2465.png",
      "address": "Bishopston Rfc, Lockleaze Sports Centre, Bonnington Walk, Lockleaze, Bristol, Bristol, BS7 9XF, United Kingdom",
      "postcode": "BS7 9XF",
      "maps_url": "https://www.google.com/maps/search/?api=1&query=Bishopston%20Rfc%0ALockleaze%20Sports%20Centre%0ABonnington%20Walk%0ALockleaze%0ABristol%0ABristol%0ABS7%209XF%0AUnited%20Kingdom",
      "latitude": 51.49885039999999,
      "longitude": -2.5666304,
      "formatted_address": "Bonnington Walk, Bristol BS7 9XY, UK",
      "place_id": "ChIJ1ajHdNuRcUgR-KOsA-v8ZPQ"
    },
    {
      "name": "Cleve II",
      "url": "https://www.englandrugby.com/fixtures-and-results/search-results?team=5219",
      "image_url": "https://images.englandrugby.com/club_images/5219.png",
      "address": "Cleve Rfc, The Hayfields, Cossham Street, Mangotsfield, Bristol, BS16 9EN, United Kingdom",
      "postcode": "BS16 9EN",
      "maps_url": "https://www.google.com/maps/search/?api=1&query=Cleve%20Rfc%0AThe%20Hayfields%0ACossham%20Street%0AMangotsfield%0ABristol%0ABS16%209EN%0AUnited%20Kingdom",
      "latitude": 51.4823325,
      "longitude": -2.479935,
      "formatted_address": "The Hayfields, Cossham St, Emersons Green, Bristol BS16 9EN, UK",
      "place_id": "ChIJoZeqWkmFcUgRGGKSiOCPdhk"
    },
    {
      "name": "Aretians",
      "url": "https://www.englandrugby.com/fixtures-and-results/search-results?team=730",
      "image_url": "https://images.englandrugby.com/club_images/730.png",
      "address": "Aretians R.f.c., Station Road, Little Stoke, Bristol, Bristol, BS34 6HW, United Kingdom",
      "postcode": "BS34 6HW",
      "maps_url": "https://www.google.com/maps/search/?api=1&query=Aretians%20R.f.c.%0AStation%20Road%0ALittle%20Stoke%0ABristol%0ABristol%0ABS34%206HW%0AUnited%20Kingdom",
      "latitude": 51.530141,
      "longitude": -2.5648071,
      "formatted_address": "Aretians, R.F.C Club Ho, Station Rd, Little Stoke, Bristol BS34 6HW, UK",
      "place_id": "ChIJy-JijAeRcUgRbvtoZOVO0SI"
    },
    {
      "name": "Bristol Barbarians",
      "url": "https://www.englandrugby.com/fixtures-and-results/search-results?team=3246",
      "image_url": "https://images.englandrugby.com/club_images/3246.png",
      "address": "Bristol Barbarians (formerly British Gas Bristol), Norton Lane, Whitchurch, Bristol, Bristol, BS14 0BT, United Kingdom",
      "postcode": "BS14 0BT",
      "maps_url": "https://www.google.com/maps/search/?api=1&query=Bristol%20Barbarians%20%28formerly%20British%20Gas%20Bristol%29%0ANorton%20Lane%0AWhitchurch%0ABristol%0ABristol%0ABS14%200BT%0AUnited%20Kingdom",
      "latitude": 51.4015081,
      "longitude": -2.555328,
      "formatted_address": "Norton Ln, Whitchurch, Bristol BS14 0BT, UK",
      "place_id": "ChIJC_J8P8yOcUgRHpsx4WbgW2c"
    },
    {
      "name": "Bristol Aeroplane Co.",
      "url": "https://www.englandrugby.com/fixtures-and-results/search-results?team=3244",
      "image_url": "https://images.englandrugby.com/club_images/3244.png",
      "address": "Bawa Sports Field, 589, Southmead Road, Filton, Avon, BS34 7RG, United Kingdom",
      "postcode": "BS34 7RG",
      "maps_url": "https://www.google.com/maps/search/?api=1&query=Bawa%20Sports%20Field%0A589%2C%20Southmead%20Road%0AFilton%0AAvon%0ABS34%207RG%0AUnited%20Kingdom",
      "latitude": 51.5059735,
      "longitude": -2.5877517,
      "formatted_address": "Avon, 589 Southmead Rd, Filton, Bristol BS34 7RG, UK",
      "place_id": "ChIJPz3TZ9yRcUgR08TElRwvMdE"
    }
  ],
  "team_count": 12,
  "success_count": 12
}