{
  "league_name": "Counties 3 Tribute Ale Devon North & East",
  "league_url": "https://www.englandrugby.com/fixtures-and-results/search-results?competition=1699&division=66466",
  "teams": [
    {
      "name": "Exmouth II",
      "url": "https://www.englandrugby.com/fixtures-and-results/search-results?team=7828",
      "image_url": "https://images.englandrugby.com/club_images/7828.png",
      "address": "Exmouth R.F.C. Imperial Recreation Ground The Royal Avenue Exmouth DEVON EX8 1DG UNITED KINGDOM ",
      "postcode": "EX8 1DG",
      "maps_url": "https://www.google.com/maps/search/?api=1&query=Exmouth%20R.F.C.%20Imperial%20Recreation%20Ground%20The%20Royal%20Avenue%20Exmouth%20DEVON%20EX8%201DG%20UNITED%20KINGDOM%20",
      "latitude": 50.6203194,
      "longitude": -3.4178059,
      "formatted_address": "Exmouth EX8 1DG, UK",
      "place_id": "ChIJQ_Jnv5kKbUgR_7E6DbE5Npg"
    },
    {
      "name": "Okehampton II",
      "url": "https://www.englandrugby.com/fixtures-and-results/search-results?team=15345",
      "image_url": "https://images.englandrugby.com/club_images/15345.png",
      "address": "Showfield, Oaklands, Okehampton, Devon, EX20 1LN, United Kingdom",
      "postcode": "EX20 1LN",
      "maps_url": "https://www.google.com/maps/search/?api=1&query=Showfield%0AOaklands%0AOkehampton%0ADevon%0AEX20%201LN%0AUnited%20Kingdom",
      "latitude": 50.7408167,
      "longitude": -4.0076292,
      "formatted_address": "Oaklands Park, Hatherleigh Rd, Okehampton EX20 1LN, UK",
      "place_id": "ChIJbfA-TI9abEgRMiFb8CPWP2A"
    },
    {
      "name": "Tiverton II",
      "url": "https://www.englandrugby.com/fixtures-and-results/search-results?team=22825",
      "image_url": "https://images.englandrugby.com/club_images/22825.png",
      "address": "Tiverton Rfc, Coronation Field, Bolham Road, Tiverton, Devon, EX16 6SG, United Kingdom",
      "postcode": "EX16 6SG",
      "maps_url": "https://www.google.com/maps/search/?api=1&query=Tiverton%20Rfc%0ACoronation%20Field%0ABolham%20Road%0ATiverton%0ADevon%0AEX16%206SG%0AUnited%20Kingdom",
      "latitude": 50.910915,
      "longitude": -3.4913765,
      "formatted_address": "Tiverton Rugby Club, Bolham Rd, Tiverton EX16 6SG, UK",
      "place_id": "ChIJ0eOILeS-bUgRefcm2mDc-hU"
    },
    {
      "name": "Sidmouth II",
      "url": "https://www.englandrugby.com/fixtures-and-results/search-results?team=19338",
      "image_url": "https://images.englandrugby.com/club_images/19338.png",
      "address": "Sidmouth Rfc, Heydons Lane, Sidmouth, Devon, EX10 8NJ, United Kingdom",
      "postcode": "EX10 8NJ",
      "maps_url": "https://www.google.com/maps/search/?api=1&query=Sidmouth%20Rfc%0AHeydons%20Lane%0ASidmouth%0ADevon%0AEX10%208NJ%0AUnited%20Kingdom",
      "latitude": 50.6803776,
      "longitude": -3.2408416,
      "formatted_address": "Heydons Ln, Sidmouth EX10 8NJ, UK",
      "place_id": "EiFIZXlkb25zIExuLCBTaWRtb3V0aCBFWDEwIDhOSiwgVUsiLiosChQKEgnZVMln_JxtSBFtH-9UvOPsKRIUChIJhzS-Y_ycbUgRwqJoIR-OmC8"
    },
    {
      "name": "Exeter Engineers",
      "url": "https://www.englandrugby.com/fixtures-and-results/search-results?team=7776",
      "image_url": "https://images.englandrugby.com/club_images/7776.png",
      "address": "Western Road, Exeter, Devon, EX4 1EG",
      "postcode": "EX4 1EG",
      "maps_url": "https://www.google.com/maps/search/?api=1&query=Western%20Road%0AExeter%0ADevon%0AEX4%201EG",
      "latitude": 50.7207583,
      "longitude": -3.5432268,
      "formatted_address": "Western Rd, Exeter EX4 1EG, UK",
      "place_id": "Eh5XZXN0ZXJuIFJkLCBFeGV0ZXIgRVg0IDFFRywgVUsiLiosChQKEgmD8iPKM6RtSBF5bWx9UueuOBIUChIJRwf4eDSkbUgRkTI4-aJB3Fs"
    },
    {
      "name": "New Cross",
      "url": "https://www.englandrugby.com/fixtures-and-results/search-results?team=14349",
      "image_url": "https://images.englandrugby.com/club_images/14349.png",
      "address": "Five Lanes Field, Strap Lane, Kingsteignton, Newton Abbot, Devon, TQ12 3PS, England",
      "postcode": "TQ12 3PS",
      "maps_url": "https://www.google.com/maps/search/?api=1&query=Five%20Lanes%20Field%0AStrap%20Lane%0AKingsteignton%0ANewton%20Abbot%0ADevon%0ATQ12%203PS%0AEngland",
      "latitude": 50.5586335,
      "longitude": -3.598438,
      "formatted_address": "Sandygate Five Lanes, Kingsteignton, Newton Abbot TQ12 3NJ, UK",
      "place_id": "ChIJIbvN_BQGbUgRNW12q99851c"
    },
    {
      "name": "North Tawton",
      "url": "https://www.englandrugby.com/fixtures-and-results/search-results?team=14794",
      "image_url": "https://images.englandrugby.com/club_images/14794.png",
      "address": "Ntrfc, Taw Meadow, Fore St, North Tawton, Devon, EX20 2ED, United Kingdom",
      "postcode": "EX20 2ED",
      "maps_url": "https://www.google.com/maps/search/?api=1&query=Ntrfc%0ATaw%20Meadow%0AFore%20St%0ANorth%20Tawton%0ADevon%0AEX20%202ED%0AUnited%20Kingdom",
      "latitude": 50.8001351,
      "longitude": -3.9086391,
      "formatted_address": "Taw Meadow, North Tawton EX20 2AB, UK",
      "place_id": "ChIJVVVVQQtObEgROqajYDxgWRI"
    },
    {
      "name": "Exeter Athletic",
      "url": "https://www.englandrugby.com/fixtures-and-results/search-results?team=7761",
      "image_url": "https://images.englandrugby.com/club_images/7761.png",
      "address": "Bravelands, Oil Mill Lane, Clyst St Mary, Exeter, Devon, EX5 1AF, United Kingdom",
      "postcode": "EX5 1AF",
      "maps_url": "https://www.google.com/maps/search/?api=1&query=Bravelands%0AOil%20Mill%20Lane%0AClyst%20St%20Mary%0AExeter%0ADevon%0AEX5%201AF%0AUnited%20Kingdom",
      "latitude": 50.7068746,
      "longitude": -3.4419473,
      "formatted_address": "Oil Mill Ln, Clyst St Mary, Exeter EX5 1AF, UK",
      "place_id": "Ei5PaWwgTWlsbCBMbiwgQ2x5c3QgU3QgTWFyeSwgRXhldGVyIEVYNSAxQUYsIFVLIi4qLAoUChIJ0cJI4I-hbUgR2WxT4Hz4fBYSFAoSCfeYkL6GoW1IEa1n5NPbjQh7"
    },
    {
      "name": "Cullompton II",
      "url": "https://www.englandrugby.com/fixtures-and-results/search-results?team=6006",
      "image_url": "https://images.englandrugby.com/club_images/6006.png",
      "address": "Cullompton RFC Stafford Park Knowle Lane Cullompton DEVON EX15 1PZ UNITED KINGDOM ",
      "postcode": "EX15 1PZ",
      "maps_url": "https://www.google.com/maps/search/?api=1&query=Cullompton%20RFC%20Stafford%20Park%20Knowle%20Lane%20Cullompton%20DEVON%20EX15%201PZ%20UNITED%20KINGDOM%20",
      "latitude": 50.8543156,
      "longitude": -3.4077663,
      "formatted_address": "Stafford Park, Knowle Ln, Cullompton EX15 1PZ, UK",
      "place_id": "ChIJR9oN1SOWbUgRfSlsE79xVcY"
    },
    {
      "name": "Newton Abbot II",
      "url": "https://www.englandrugby.com/fixtures-and-results/search-results?team=14608",
      "image_url": "https://images.englandrugby.com/club_images/14608.png",
      "address": "Newton Abbot R.f.c., Rackerhayes, Rydon Industrial Estate, Newton Road, Kingsteignton, Newton Abbot, Devon, TQ12 3SJ, United Kingdom",
      "postcode": "TQ12 3SJ",
      "maps_url": "https://www.google.com/maps/search/?api=1&query=Newton%20Abbot%20R.f.c.%0ARackerhayes%0ARydon%20Industrial%20Estate%0ANewton%20Road%2C%20Kingsteignton%0ANewton%20Abbot%0ADevon%0ATQ12%203SJ%0AUnited%20Kingdom",
      "latitude": 50.5423882,
      "longitude": -3.6009181,
      "formatted_address": "Rydon Industrial Estate, Newton Rd, Kingsteignton, Newton Abbot TQ12 3SJ, UK",
      "place_id": "ChIJIdxzeQsGbUgRbjYvzMacmhI"
    }
  ],
  "team_count": 10,
  "success_count": 10
}