{
  "league_name": "Counties 1 Middx",
  "league_url": "https://www.englandrugby.com/fixtures-and-results/search-results?competition=261&division=66546",
  "teams": [
    {
      "name": "Finchley",
      "url": "https://www.englandrugby.com/fixtures-and-results/search-results?team=8090",
      "image_url": "https://images.englandrugby.com/club_images/8090.png",
      "address": "Summers Lane, London, N12 0PD, United Kingdom",
      "postcode": "N12 0PD",
      "maps_url": "https://www.google.com/maps/search/?api=1&query=Summers%20Lane%0ALondon%0AN12%200PD%0AUnited%20Kingdom",
      "latitude": 51.6075704,
      "longitude": -0.1708839,
      "formatted_address": "Summers Ln, London N12 0PD, UK",
      "place_id": "Eh5TdW1tZXJzIExuLCBMb25kb24gTjEyIDBQRCwgVUsiLiosChQKEgnHyjJ-8hl2SBF5lcr2W9dCzhIUChIJ9Yf5E_EZdkgR2KvEoXRbUss"
    },
    {
      "name": "Old Haberdashers",
      "url": "https://www.englandrugby.com/fixtures-and-results/search-results?team=15743",
      "image_url": "https://images.englandrugby.com/club_images/15743.png",
      "address": "Old Haberdashers Sports Ground, Croxdale Road, Theobald Street, Borehamwood, WD6 4PY, United Kingdom",
      "postcode": "WD6 4PY",
      "maps_url": "https://www.google.com/maps/search/?api=1&query=Old%20Haberdashers%20Sports%20Ground%0ACroxdale%20Road%0ATheobald%20Street%0ABorehamwood%0AWD6%204PY%0AUnited%20Kingdom",
      "latitude": 51.6605485,
      "longitude": -0.2827199,
      "formatted_address": "Croxdale Rd, Borehamwood WD6 4PY, UK",
      "place_id": "ChIJBy1aZnUWdkgRccXcNfxXtV8"
    },
    {
      "name": "Hampstead",
      "url": "https://www.englandrugby.com/fixtures-and-results/search-results?team=9291",
      "image_url": "https://images.englandrugby.com/club_images/9291.png",
      "address": "Hampstead Rfc , 23  Parliament Hill Running Track , Parliament Hill, Golders Green, London, Middlesex, NW3 2JP, United Kingdom",
      "postcode": "NW3 2JP",
      "maps_url": "https://www.google.com/maps/search/?api=1&query=Hampstead%20Rfc%20%0A23%20%20Parliament%20Hill%20Running%20Track%20%0AParliament%20Hill%0AGolders%20Green%0ALondon%0AMiddlesex%0ANW3%202JP%0AUnited%20Kingdom",
      "latitude": 51.557101,
      "longitude": -0.155636,
      "formatted_address": "Parliament Hill, London NW3 2JP, UK",
      "place_id": "ChIJ1TSRflgadkgR_mcLmBylesI"
    },
    {
      "name": "Chiswick",
      "url": "https://www.englandrugby.com/fixtures-and-results/search-results?team=4929",
      "image_url": "https://images.englandrugby.com/club_images/4929.png",
      "address": "The Clubhouse Riverside Lands,  Dukes Meadows Riverside Lands London MIDDLESEX W4 2SH UNITED KINGDOM ",
      "postcode": "W4 2SH",
      "maps_url": "https://www.google.com/maps/search/?api=1&query=The%20Clubhouse%20Riverside%20Lands%2C%20%20Dukes%20Meadows%20Riverside%20Lands%20London%20MIDDLESEX%20W4%202SH%20UNITED%20KINGDOM%20",
      "latitude": 51.472398,
      "longitude": -0.2634714,
      "formatted_address": "Dan Mason Dr, Chiswick, London W4 2SH, UK",
      "place_id": "ChIJ57ACrWEOdkgRajz4Kz-BExA"
    },
    {
      "name": "Old Streetonians",
      "url": "https://www.englandrugby.com/fixtures-and-results/search-results?team=16054",
      "image_url": "https://images.englandrugby.com/club_images/16054.png",
      "address": "Hackney Marshes Centre, Homerton Road, London, E9 5PF, United Kingdom",
      "postcode": "E9 5PF",
      "maps_url": "https://www.google.com/maps/search/?api=1&query=Hackney%20Marshes%20Centre%0AHomerton%20Road%0ALondon%0AE9%205PF%0AUnited%20Kingdom",
      "latitude": 51.5532444,
      "longitude": -0.025582,
      "formatted_address": "Hackney Marshes Centre, 201 Homerton Rd, London E9 5PF, UK",
      "place_id": "ChIJBecZ0gkddkgRJ6cjWEkZ2aY"
    },
    {
      "name": "Ruislip",
      "url": "https://www.englandrugby.com/fixtures-and-results/search-results?team=18366",
      "image_url": "https://images.englandrugby.com/club_images/18366.png",
      "address": "West End Road, Ruislip, Middlesex , HA4 6DR, United Kingdom",
      "postcode": "HA4 6DR",
      "maps_url": "https://www.google.com/maps/search/?api=1&query=West%20End%20Road%0ARuislip%0AMiddlesex%20%0AHA4%206DR%0AUnited%20Kingdom",
      "latitude": 51.5696091,
      "longitude": -0.4230923,
      "formatted_address": "W End Rd, Ruislip HA4 6DR, UK",
      "place_id": "Eh1XIEVuZCBSZCwgUnVpc2xpcCBIQTQgNkRSLCBVSyIuKiwKFAoSCb2nOY7ibHZIEZlj3x6RXFfuEhQKEgntSLe192x2SBEfhk4pSDTBhg"
    },
    {
      "name": "Wasps FC",
      "url": "https://www.englandrugby.com/fixtures-and-results/search-results?team=24412",
      "image_url": "https://images.englandrugby.com/club_images/24412.png",
      "address": "Twyford Avenue Sports Ground Twyford Avenue Acton MIDDLESEX W3 9QA UNITED KINGDOM ",
      "postcode": "W3 9QA",
      "maps_url": "https://www.google.com/maps/search/?api=1&query=Twyford%20Avenue%20Sports%20Ground%20Twyford%20Avenue%20Acton%20MIDDLESEX%20W3%209QA%20UNITED%20KINGDOM%20",
      "latitude": 51.509581,
      "longitude": -0.280225,
      "formatted_address": "Twyford Ave, London W3 9QA, UK",
      "place_id": "ChIJpfxj1mMOdkgRpYBLAW8cJrM"
    },
    {
      "name": "U.C.S.",
      "url": "https://www.englandrugby.com/fixtures-and-results/search-results?team=23417",
      "image_url": "https://images.englandrugby.com/club_images/23417.png",
      "address": "Ucs Playing Fields, Hocroft Road, West Hampstead, London, NW2 2BN, United Kingdom",
      "postcode": "NW2 2BN",
      "maps_url": "https://www.google.com/maps/search/?api=1&query=Ucs%20Playing%20Fields%0AHocroft%20Road%0AWest%20Hampstead%0ALondon%0ANW2%202BN%0AUnited%20Kingdom",
      "latitude": 51.5566925,
      "longitude": -0.2026707,
      "formatted_address": "Farm Ave, London NW2 2BH, UK",
      "place_id": "ChIJST6Tg2IQdkgRrQqf7PpWVLI"
    },
    {
      "name": "Saracens Amateurs",
      "url": "https://www.englandrugby.com/fixtures-and-results/search-results?team=18731",
      "image_url": "https://images.englandrugby.com/club_images/18731.png",
      "address": "Bramley Road Sports Ground, Green Road, Southgate, London, N14 4AB, United Kingdom",
      "postcode": "N14 4AB",
      "maps_url": "https://www.google.com/maps/search/?api=1&query=Bramley%20Road%20Sports%20Ground%0AGreen%20Road%0ASouthgate%0ALondon%0AN14%204AB%0AUnited%20Kingdom",
      "latitude": 51.6470984,
      "longitude": -0.1350999,
      "formatted_address": "Bramley Rd, London N14, UK",
      "place_id": "EhpCcmFtbGV5IFJkLCBMb25kb24gTjE0LCBVSyIuKiwKFAoSCTPyYW73GHZIEe1M_FYEORFzEhQKEgkr-Gs9VBh2SBFmm7piN5I4PQ"
    }
  ],
  "team_count": 9,
  "success_count": 9
}