{
  "league_name": "Counties 5 Kent",
  "league_url": "https://www.englandrugby.com/fixtures-and-results/search-results?competition=261&division=66545",
  "teams": [
    {
      "name": "Blackheath III",
      "url": "https://www.englandrugby.com/fixtures-and-results/search-results?team=2495",
      "image_url": "https://images.englandrugby.com/club_images/2495.png",
      "address": "Kidbrooke Lane, London, SE9 6TE, England",
      "postcode": "SE9 6TE",
      "maps_url": "https://www.google.com/maps/search/?api=1&query=Kidbrooke%20Lane%0ALondon%0ASE9%206TE%0AEngland",
      "latitude": 51.4582346,
      "longitude": 0.0468094,
      "formatted_address": "Kidbrooke Ln, London SE9 6TE, UK",
      "place_id": "EiBLaWRicm9va2UgTG4sIExvbmRvbiBTRTkgNlRFLCBVSyIuKiwKFAoSCf-b7-4JqdhHEQwiB5qYNHmrEhQKEgndh0ngCanYRxFvpDR0M4SAOA"
    },
    {
      "name": "Old Elthamians II",
      "url": "https://www.englandrugby.com/fixtures-and-results/search-results?team=15659",
      "image_url": "https://images.englandrugby.com/club_images/15659.png",
      "address": "Queen Mary Sports Ground (east Ground), Perry Street, Chislehurst, BR7 6HB, England",
      "postcode": "BR7 6HB",
      "maps_url": "https://www.google.com/maps/search/?api=1&query=Queen%20Mary%20Sports%20Ground%20%28east%20Ground%29%0APerry%20Street%0AChislehurst%0ABR7%206HB%0AEngland",
      "latitude": 51.4164854,
      "longitude": 0.0894752,
      "formatted_address": "Perry St, Chislehurst, UK",
      "place_id": "ChIJe6JLlfar2EcRbDmtVNsu5l8"
    },
    {
      "name": "Edenbridge",
      "url": "https://www.englandrugby.com/fixtures-and-results/search-results?team=7323",
      "image_url": "https://images.englandrugby.com/club_images/7323.png",
      "address": "The Clubhouse, Lingfield Road Recreation Ground, Edenbridge, Kent , TN8 5DY, United Kingdom",
      "postcode": "TN8 5DY",
      "maps_url": "https://www.google.com/maps/search/?api=1&query=The%20Clubhouse%0ALingfield%20Road%20Recreation%20Ground%0AEdenbridge%0AKent%20%0ATN8%205DY%0AUnited%20Kingdom",
      "latitude": 51.1340807,
      "longitude": -0.0186867,
      "formatted_address": "Lingfield Road Recreation Ground, Lingfield Rd, East Grinstead RH19 2EL, UK",
      "place_id": "ChIJY9Rs7D_3dUgRdPopi3Ca0-s"
    },
    {
      "name": "Sidcup III",
      "url": "https://www.englandrugby.com/fixtures-and-results/search-results?team=19316",
      "image_url": "https://images.englandrugby.com/club_images/19316.png",
      "address": "Crescent Farm Sydney Road SIDCUP KENT DA14 6RA UNITED KINGDOM ",
      "postcode": "DA14 6RA",
      "maps_url": "https://www.google.com/maps/search/?api=1&query=Crescent%20Farm%20Sydney%20Road%20SIDCUP%20KENT%20DA14%206RA%20UNITED%20KINGDOM%20",
      "latitude": 51.426294,
      "longitude": 0.0912927,
      "formatted_address": "Sydney Rd, Sidcup DA14 6RA, UK",
      "place_id": "Eh5TeWRuZXkgUmQsIFNpZGN1cCBEQTE0IDZSQSwgVUsiLiosChQKEgkNA_ow_6vYRxEnaJiNF1FAWhIUChIJyyT6zPir2EcRMl0HiySemIY"
    },
    {
      "name": "Askean",
      "url": "https://www.englandrugby.com/fixtures-and-results/search-results?team=974",
      "image_url": "https://images.englandrugby.com/club_images/974.png",
      "address": "Charlton Road, London, SE7 7EY, United Kingdom",
      "postcode": "SE7 7EY",
      "maps_url": "https://www.google.com/maps/search/?api=1&query=Charlton%20Road%0ALondon%0ASE7%207EY%0AUnited%20Kingdom",
      "latitude": 51.4794658,
      "longitude": 0.0261067,
      "formatted_address": "Charlton Rd, London SE7 7EY, UK",
      "place_id": "Eh9DaGFybHRvbiBSZCwgTG9uZG9uIFNFNyA3RVksIFVLIi4qLAoUChIJ64P7a0mo2EcRUKXRAkVBwq8SFAoSCVnA7kFJqNhHEXxjl5UF2lNR"
    },
    {
      "name": "Old Alleynians III",
      "url": "https://www.englandrugby.com/fixtures-and-results/search-results?team=15421",
      "image_url": "https://images.englandrugby.com/club_images/15421.png",
      "address": "Alleynian Rugby, The Old Alleynian Sports Club, Dulwich Common, London, Greater London, SE21 7HA, United Kingdom",
      "postcode": "SE21 7HA",
      "maps_url": "https://www.google.com/maps/search/?api=1&query=Alleynian%20Rugby%0AThe%20Old%20Alleynian%20Sports%20Club%0ADulwich%20Common%0ALondon%0AGreater%20London%0ASE21%207HA%0AUnited%20Kingdom",
      "latitude": 51.4408836,
      "longitude": -0.0749287,
      "formatted_address": "Dulwich Common, London SE21 7HA, UK",
      "place_id": "ChIJYc3Rq-gDdkgR9mvSuVF5Qf8"
    },
    {
      "name": "Beccehamians II",
      "url": "https://www.englandrugby.com/fixtures-and-results/search-results?team=1764",
      "image_url": "https://images.englandrugby.com/club_images/1764.png",
      "address": "Sparrows Den Corkscrew Hill West Wickham KENT BR4 9BB UNITED KINGDOM ",
      "postcode": "BR4 9BB",
      "maps_url": "https://www.google.com/maps/search/?api=1&query=Sparrows%20Den%20Corkscrew%20Hill%20West%20Wickham%20KENT%20BR4%209BB%20UNITED%20KINGDOM%20",
      "latitude": 51.36967689999999,
      "longitude": -0.007380800000000001,
      "formatted_address": "Corkscrew Hill, West Wickham BR4 9BB, UK",
      "place_id": "ChIJRZJgQiIAdkgRryCGITROQXg"
    },
    {
      "name": "Lordswood",
      "url": "https://www.englandrugby.com/fixtures-and-results/search-results?team=12799",
      "image_url": "https://images.englandrugby.com/club_images/12799.png",
      "address": "Lordswood R.F.C. Lordswood sports &social club Lordswood chatham KENT ME5 8YE UNITED KINGDOM ",
      "postcode": "ME5 8YE",
      "maps_url": "https://www.google.com/maps/search/?api=1&query=Lordswood%20R.F.C.%20Lordswood%20sports%20%26social%20club%20Lordswood%20chatham%20KENT%20ME5%208YE%20UNITED%20KINGDOM%20",
      "latitude": 51.3405435,
      "longitude": 0.5455818,
      "formatted_address": "Lordswood Leisure Centre, N Dane Way, Chatham ME5 8YE, UK",
      "place_id": "ChIJfSer-LMy30cRbXoOPu_bDss"
    },
    {
      "name": "Park House II",
      "url": "https://www.englandrugby.com/fixtures-and-results/search-results?team=16584",
      "image_url": "https://images.englandrugby.com/club_images/16584.png",
      "address": "Barnet Wood Road, Hayes, Kent, BR2 7AA, United Kingdom",
      "postcode": "BR2 7AA",
      "maps_url": "https://www.google.com/maps/search/?api=1&query=Barnet%20Wood%20Road%0AHayes%0AKent%0ABR2%207AA%0AUnited%20Kingdom",
      "latitude": 51.3714999,
      "longitude": 0.0313819,
      "formatted_address": "Barnet Wood Rd, Bromley BR2, UK",
      "place_id": "ChIJP-TAEOmq2EcRCKwMKqlnjag"
    },
    {
      "name": "Greenwich",
      "url": "https://www.englandrugby.com/fixtures-and-results/search-results?team=8954",
      "image_url": "https://images.englandrugby.com/club_images/8954.png",
      "address": "The Pavilion Old Mill Road Old Mill Road London SE18 1QJ UNITED KINGDOM ",
      "postcode": "SE18 1QJ",
      "maps_url": "https://www.google.com/maps/search/?api=1&query=The%20Pavilion%20Old%20Mill%20Road%20Old%20Mill%20Road%20London%20SE18%201QJ%20UNITED%20KINGDOM%20",
      "latitude": 51.4816679,
      "longitude": 0.0840476,
      "formatted_address": "1 Old Mill Rd, London SE18 1QG, UK",
      "place_id": "ChIJYZKLRNCo2EcRbPOBthb_Dzo"
    },
    {
      "name": "Bromley III",
      "url": "https://www.englandrugby.com/fixtures-and-results/search-results?team=3412",
      "image_url": "https://images.englandrugby.com/club_images/3412.png",
      "address": "Bromley Rfc, Warman Sports Club, Barnet Wood Road, Hayes, Kent, BR2 7AA, United Kingdom",
      "postcode": "BR2 7AA",
      "maps_url": "https://www.google.com/maps/search/?api=1&query=Bromley%20Rfc%0AWarman%20Sports%20Club%0ABarnet%20Wood%20Road%0AHayes%0AKent%0ABR2%207AA%0AUnited%20Kingdom",
      "latitude": 51.3714999,
      "longitude": 0.0313819,
      "formatted_address": "Barnet Wood Rd, Bromley BR2, UK",
      "place_id": "ChIJP-TAEOmq2EcRCKwMKqlnjag"
    },
    {
      "name": "Medway III",
      "url": "https://www.englandrugby.com/fixtures-and-results/search-results?team=13597",
      "image_url": "https://images.englandrugby.com/club_images/13597.png",
      "address": "Medway RFC Priestfields  Rochester KENT ME1 3AD UNITED KINGDOM ",
      "postcode": "ME1 3AD",
      "maps_url": "https://www.google.com/maps/search/?api=1&query=Medway%20RFC%20Priestfields%20%20Rochester%20KENT%20ME1%203AD%20UNITED%20KINGDOM%20",
      "latitude": 51.37425589999999,
      "longitude": 0.4963684,
      "formatted_address": "Priestfields, Rochester ME1 3AD, UK",
      "place_id": "ChIJ-Xq0CO3M2EcRUHMMrwEmROU"
    }
  ],
  "team_count": 12,
  "success_count": 12
}