{
  "league_name": "Counties 2 Tribute Ale Cornwall",
  "league_url": "https://www.englandrugby.com/fixtures-and-results/search-results?competition=1699&division=66460",
  "teams": [
    {
      "name": "Camborne II",
      "url": "https://www.englandrugby.com/fixtures-and-results/search-results?team=4004",
      "image_url": "https://images.englandrugby.com/club_images/4004.png",
      "address": "Crane Park Clubhouse, Cranberry Road, Camborne, Cornwall, TR14 7PW, United Kingdom",
      "postcode": "TR14 7PW",
      "maps_url": "https://www.google.com/maps/search/?api=1&query=Crane%20Park%20Clubhouse%0ACranberry%20Road%0ACamborne%0ACornwall%0ATR14%207PW%0AUnited%20Kingdom",
      "latitude": 50.2130518,
      "longitude": -5.3105804,
      "formatted_address": "Cranberry Rd, Camborne TR14, UK",
      "place_id": "ChIJtf2z3PHfakgRAx7nib8yDTU"
    },
    {
      "name": "Helston",
      "url": "https://www.englandrugby.com/fixtures-and-results/search-results?team=9925",
      "image_url": "https://images.englandrugby.com/club_images/9925.png",
      "address": "King George V Playing Fields, Clodgey Lane, Helston, Cornwall, TR13 8PJ, United Kingdom",
      "postcode": "TR13 8PJ",
      "maps_url": "https://www.google.com/maps/search/?api=1&query=King%20George%20V%20Playing%20Fields%0AClodgey%20Lane%0AHelston%0ACornwall%0ATR13%208PJ%0AUnited%20Kingdom",
      "latitude": 50.1031048,
      "longitude": -5.2667903,
      "formatted_address": "Clodgey Ln, Helston TR13 8PJ, UK",
      "place_id": "EiBDbG9kZ2V5IExuLCBIZWxzdG9uIFRSMTMgOFBKLCBVSyIuKiwKFAoSCXWCOraEJ2tIEdtIqQ9OG8LbEhQKEgnr-ZC_gidrSBF509NyLrTAKQ"
    },
    {
      "name": "Bude",
      "url": "https://www.englandrugby.com/fixtures-and-results/search-results?team=3604",
      "image_url": "https://images.englandrugby.com/club_images/3604.png",
      "address": "Bencoolen Meadow, Bude, EX23 8QG, United Kingdom",
      "postcode": "EX23 8QG",
      "maps_url": "https://www.google.com/maps/search/?api=1&query=Bencoolen%20Meadow%0ABude%0AEX23%208QG%0AUnited%20Kingdom",
      "latitude": 50.8340728,
      "longitude": -4.5351733,
      "formatted_address": "Meadow Dr, Bude EX23, UK",
      "place_id": "ChIJRW6eH5l2bEgRgpyQDUSx_UA"
    },
    {
      "name": "Liskeard-Looe",
      "url": "https://www.englandrugby.com/fixtures-and-results/search-results?team=12347",
      "image_url": "https://images.englandrugby.com/club_images/12347.png",
      "address": "Lux Park Coldstyle Road Liskeard CORNWALL PL14 3HZ UNITED KINGDOM ",
      "postcode": "PL14 3HZ",
      "maps_url": "https://www.google.com/maps/search/?api=1&query=Lux%20Park%20Coldstyle%20Road%20Liskeard%20CORNWALL%20PL14%203HZ%20UNITED%20KINGDOM%20",
      "latitude": 50.4611082,
      "longitude": -4.4627667,
      "formatted_address": "Lux Park, Coldstyle Rd, Liskeard PL14 3HZ, UK",
      "place_id": "ChIJ232IsnGDbEgRGOiMlT3S_0Q"
    },
    {
      "name": "Falmouth",
      "url": "https://www.englandrugby.com/fixtures-and-results/search-results?team=7910",
      "image_url": "https://images.englandrugby.com/club_images/7910.png",
      "address": "Falmouth Rfc, The Recreation Ground, Dracaena Avenue, Falmouth, Cornwall, TR11 2FB, United Kingdom",
      "postcode": "TR11 2FB",
      "maps_url": "https://www.google.com/maps/search/?api=1&query=Falmouth%20Rfc%0AThe%20Recreation%20Ground%0ADracaena%20Avenue%0AFalmouth%0ACornwall%0ATR11%202FB%0AUnited%20Kingdom",
      "latitude": 50.1510889,
      "longitude": -5.0782328,
      "formatted_address": "Dracaena Ave, Falmouth TR11 2FB, UK",
      "place_id": "EiNEcmFjYWVuYSBBdmUsIEZhbG1vdXRoIFRSMTEgMkZCLCBVSyIuKiwKFAoSCesZYIepPGtIETfREYXdKfGaEhQKEgmDrlX4VjtrSBHeKRrQPkzP5g"
    },
    {
      "name": "Newquay Hornets",
      "url": "https://www.englandrugby.com/fixtures-and-results/search-results?team=14584",
      "image_url": "https://images.englandrugby.com/club_images/14584.png",
      "address": "Newquay Sports Centre Yeoman Way Yeoman Way Newquay CORNWALL TR7 2SL UNITED KINGDOM ",
      "postcode": "TR7 2SL",
      "maps_url": "https://www.google.com/maps/search/?api=1&query=Newquay%20Sports%20Centre%20Yeoman%20Way%20Yeoman%20Way%20Newquay%20CORNWALL%20TR7%202SL%20UNITED%20KINGDOM%20",
      "latitude": 50.4137347,
      "longitude": -5.0623459,
      "formatted_address": "Yeoman Way, Tretherras Rd, Tretherras, Newquay TR7 2SL, UK",
      "place_id": "ChIJc8vftSIOa0gRAwWNm59t49k"
    },
    {
      "name": "Perranporth",
      "url": "https://www.englandrugby.com/fixtures-and-results/search-results?team=16772",
      "image_url": "https://images.englandrugby.com/club_images/16772.png",
      "address": "Perranporth   Rfc, The Droop, Budnic Hill, Ponsmere Valley, Perranporth, Cornwall, TR6 0DB, United Kingdom",
      "postcode": "TR6 0DB",
      "maps_url": "https://www.google.com/maps/search/?api=1&query=Perranporth%20%20%20Rfc%0AThe%20Droop%0ABudnic%20Hill%0APonsmere%20Valley%0APerranporth%0ACornwall%0ATR6%200DB%0AUnited%20Kingdom",
      "latitude": 50.3445988,
      "longitude": -5.145229,
      "formatted_address": "Ponsmere Valley, Budnic Hill, Perranporth TR6 0DB, UK",
      "place_id": "ChIJ-0K4oGkaa0gRFflauQdl8Wg"
    },
    {
      "name": "St Austell II",
      "url": "https://www.englandrugby.com/fixtures-and-results/search-results?team=20159",
      "image_url": "https://images.englandrugby.com/club_images/20159.png",
      "address": "St. Austell R.f.c., Tregorrick Park, Tregorrick Lane, St.austell, Cornw, PL26 7FH, United Kingdom",
      "postcode": "PL26 7FH",
      "maps_url": "https://www.google.com/maps/search/?api=1&query=St.%20Austell%20R.f.c.%0ATregorrick%20Park%0ATregorrick%20Lane%0ASt.austell%0ACornw%0APL26%207FH%0AUnited%20Kingdom",
      "latitude": 50.3279304,
      "longitude": -4.7771864,
      "formatted_address": "Tregorrick Rd, Saint Austell PL26 7FH, UK",
      "place_id": "ChIJO_iqrDZpa0gRbjN1mxTpk6c"
    },
    {
      "name": "Launceston II",
      "url": "https://www.englandrugby.com/fixtures-and-results/search-results?team=11905",
      "image_url": "https://images.englandrugby.com/club_images/11905.png",
      "address": "Polson Bridge, Launceston, Cornwall, PL15 9QT, United Kingdom",
      "postcode": "PL15 9QT",
      "maps_url": "https://www.google.com/maps/search/?api=1&query=Polson%20Bridge%0ALaunceston%0ACornwall%0APL15%209QT%0AUnited%20Kingdom",
      "latitude": 50.638856, 
      "longitude": -4.328954,
      "formatted_address": "Polson Bridge, Launceston PL15 9QU, UK",
      "place_id": "ChIJaVFKp6pjbEgRq1LWdbx2rOs"
    },
    {
      "name": "Wadebridge Camels II",
      "url": "https://www.englandrugby.com/fixtures-and-results/search-results?team=24067",
      "image_url": "https://images.englandrugby.com/club_images/24067.png",
      "address": "Molesworth Field, Egloshayle, Wadebridge, Cornw, PL27 6AQ, United Kingdom",
      "postcode": "PL27 6AQ",
      "maps_url": "https://www.google.com/maps/search/?api=1&query=Molesworth%20Field%0AEgloshayle%0AWadebridge%0ACornw%0APL27%206AQ%0AUnited%20Kingdom",
      "latitude": 50.5162992,
      "longitude": -4.8381018,
      "formatted_address": "Molesworth St, Wadebridge PL27, UK",
      "place_id": "EiJNb2xlc3dvcnRoIFN0LCBXYWRlYnJpZGdlIFBMMjcsIFVLIi4qLAoUChIJpf6iKZZ2a0gR6uleJ6VWmrISFAoSCckOJ7_wt2pIEXFFS9mFPEJu"
    },
    {
      "name": "St Just",
      "url": "https://www.englandrugby.com/fixtures-and-results/search-results?team=20533",
      "image_url": "https://images.englandrugby.com/club_images/20533.png",
      "address": "St. Just Rfc, The Clubhouse, Tregeseal, St Just In Penwith, Cornw, TR19 7PF, United Kingdom",
      "postcode": "TR19 7PF",
      "maps_url": "https://www.google.com/maps/search/?api=1&query=St.%20Just%20Rfc%0AThe%20Clubhouse%0ATregeseal%0ASt%20Just%20In%20Penwith%0ACornw%0ATR19%207PF%0AUnited%20Kingdom",
      "latitude": 50.13369830000001,
      "longitude": -5.6584974,
      "formatted_address": "St Just, Penzance TR19 7PZ, UK",
      "place_id": "ChIJe8gNA7bAakgROetmQ_zO2_A"
    },
    {
      "name": "Bodmin",
      "url": "https://www.englandrugby.com/fixtures-and-results/search-results?team=2662",
      "image_url": "https://images.englandrugby.com/club_images/2662.png",
      "address": "Bodmin R.F.C. Clifden Park Carmminow Cross BODMIN CORNWALL PL30 4AW UNITED KINGDOM ",
      "postcode": "PL30 4AW",
      "maps_url": "https://www.google.com/maps/search/?api=1&query=Bodmin%20R.F.C.%20Clifden%20Park%20Carmminow%20Cross%20BODMIN%20CORNWALL%20PL30%204AW%20UNITED%20KINGDOM%20",
      "latitude": 50.4585102,
      "longitude": -4.6906805,
      "formatted_address": "Clifden Park, Turfdown Rd, Bodmin PL30 4AW, UK",
      "place_id": "ChIJ96T1apeOcUgRZI57cVzRBa0"
    }
  ],
  "team_count": 12,
  "success_count": 12
}