{
  "league_name": "Counties 3 Tribute Ale Dorset & Wilts Central",
  "league_url": "https://www.englandrugby.com/fixtures-and-results/search-results?competition=1699&division=66465",
  "teams": [
    {
      "name": "Frome II",
      "url": "https://www.englandrugby.com/fixtures-and-results/search-results?team=8357",
      "image_url": "https://images.englandrugby.com/club_images/8357.png",
      "address": "The Clubhouse, Gypsy Lane, Frome, Somerset, BA11 2NA, United Kingdom",
      "postcode": "BA11 2NA",
      "maps_url": "https://www.google.com/maps/search/?api=1&query=The%20Clubhouse%0AGypsy%20Lane%0AFrome%0ASomerset%0ABA11%202NA%0AUnited%20Kingdom",
      "latitude": 51.2437522,
      "longitude": -2.3038319,
      "formatted_address": "Gypsy Ln, Frome BA11 2NA, UK",
      "place_id": "EhxHeXBzeSBMbiwgRnJvbWUgQkExMSAyTkEsIFVLIi4qLAoUChIJN6DeXl4rckgRzwKKKVOvo2ISFAoSCd8dHVdeK3JIEX0CIz3sZrnI"
    },
    {
      "name": "North Dorset II",
      "url": "https://www.englandrugby.com/fixtures-and-results/search-results?team=14695",
      "image_url": "https://images.englandrugby.com/club_images/14695.png",
      "address": "North Dorset R.F.C. Slaughtergate Longbury Hill Lane Gillingham DORSET SP8 5SY UNITED KINGDOM ",
      "postcode": "SP8 5SY",
      "maps_url": "https://www.google.com/maps/search/?api=1&query=North%20Dorset%20R.F.C.%20Slaughtergate%20Longbury%20Hill%20Lane%20Gillingham%20DORSET%20SP8%205SY%20UNITED%20KINGDOM%20",
      "latitude": 51.0458067,
      "longitude": -2.3042626,
      "formatted_address": "Longbury Hill Ln, Gillingham SP8 5SY, UK",
      "place_id": "ChIJg9QU6PE0ckgRmv-FsAsGN8k"
    },
    {
      "name": "Avonvale",
      "url": "https://www.englandrugby.com/fixtures-and-results/search-results?team=1107",
      "image_url": "https://images.englandrugby.com/club_images/1107.png",
      "address": "The Clubhouse, Bathford Playing FIelds Bathford Bath SOMERSET BA1 7SW UNITED KINGDOM ",
      "postcode": "BA1 7SW",
      "maps_url": "https://www.google.com/maps/search/?api=1&query=The%20Clubhouse%2C%20Bathford%20Playing%20FIelds%20Bathford%20Bath%20SOMERSET%20BA1%207SW%20UNITED%20KINGDOM%20",
      "latitude": 51.4011521,
      "longitude": -2.3030354,
      "formatted_address": "Bathford Hill, Bathford, Bath BA1 7SW, UK",
      "place_id": "ChIJ6UjavPuBcUgRwQdnEsqMiGs"
    },
    {
      "name": "Salisbury II",
      "url": "https://www.englandrugby.com/fixtures-and-results/search-results?team=18608",
      "image_url": "https://images.englandrugby.com/club_images/18608.png",
      "address": "C/o Salisbury Rfc, Castle Rd, Salisbury, Wiltshire, SP1 3SA, United Kingdom",
      "postcode": "SP1 3SA",
      "maps_url": "https://www.google.com/maps/search/?api=1&query=C%2Fo%20Salisbury%20Rfc%0ACastle%20Rd%0ASalisbury%0AWiltshire%0ASP1%203SA%0AUnited%20Kingdom",
      "latitude": 51.0865525,
      "longitude": -1.7993125,
      "formatted_address": "Stewards Bungalow, Castle Rd, Salisbury SP1 3SA, UK",
      "place_id": "ChIJOd6P_Fbpc0gR_itSlFjDFCc"
    },
    {
      "name": "Warminster",
      "url": "https://www.englandrugby.com/fixtures-and-results/search-results?team=24316",
      "image_url": "https://images.englandrugby.com/club_images/24316.png",
      "address": "Folly Lane Sports Ground, Folly Lane, Warminster, Wiltshire, BA12 7RG, United Kingdom",
      "postcode": "BA12 7RG",
      "maps_url": "https://www.google.com/maps/search/?api=1&query=Folly%20Lane%20Sports%20Ground%0AFolly%20Lane%0AWarminster%0AWiltshire%0ABA12%207RG%0AUnited%20Kingdom",
      "latitude": 51.1975313,
      "longitude": -2.2085859,
      "formatted_address": "Folly Ln, Warminster BA12, UK",
      "place_id": "ChIJVT0t8UrSc0gRSbzv3VoMQHY"
    },
    {
      "name": "Combe Down II",
      "url": "https://www.englandrugby.com/fixtures-and-results/search-results?team=5487",
      "image_url": "https://images.englandrugby.com/club_images/5487.png",
      "address": "Holly's Corner, Bramble Way, North Road, Combe Down, Somerset, BA2 5DE, United Kingdom",
      "postcode": "BA2 5DE",
      "maps_url": "https://www.google.com/maps/search/?api=1&query=Holly%27s%20Corner%0ABramble%20Way%0ANorth%20Road%0ACombe%20Down%0ASomerset%0ABA2%205DE%0AUnited%20Kingdom",
      "latitude": 51.3605762,
      "longitude": -2.3523201,
      "formatted_address": "Bramble Way, Combe Down, Bath BA2, UK",
      "place_id": "EiVCcmFtYmxlIFdheSwgQ29tYmUgRG93biwgQmF0aCBCQTIsIFVLIi4qLAoUChIJ8x3LkfyAcUgR_LxE4O5QYfUSFAoSCelW7ZxTgHFIEZ43fLyc4nq4"
    },
    {
      "name": "Bath Saracens",
      "url": "https://www.englandrugby.com/fixtures-and-results/search-results?team=1614",
      "image_url": "https://images.englandrugby.com/club_images/1614.png",
      "address": "Sulis Sports Ground Claverton Down Bath BA2 7AU UNITED KINGDOM ",
      "postcode": "BA2 7AU",
      "maps_url": "https://www.google.com/maps/search/?api=1&query=Sulis%20Sports%20Ground%20Claverton%20Down%20Bath%20BA2%207AU%20UNITED%20KINGDOM%20",
      "latitude": 51.3643095,
      "longitude": -2.3260962,
      "formatted_address": "University of, Claverton Down Rd, Claverton Down, Bath BA2 7AU, UK",
      "place_id": "ChIJT2Ktp0GBcUgRv44od6cOwUY"
    },
    {
      "name": "Melksham III",
      "url": "https://www.englandrugby.com/fixtures-and-results/search-results?team=13647",
      "image_url": "https://images.englandrugby.com/club_images/13647.png",
      "address": "Melksham Rugby Club, Oakfields, Eastern Way, Melksham, Wiltshire, SN12 7GU, United Kingdom",
      "postcode": "SN12 7GU",
      "maps_url": "https://www.google.com/maps/search/?api=1&query=Melksham%20Rugby%20Club%0AOakfields%0AEastern%20Way%0AMelksham%0AWiltshire%0ASN12%207GU%0AUnited%20Kingdom",
      "latitude": 51.3655676,
      "longitude": -2.1146914,
      "formatted_address": "Melksham Rugby Club, Oakfields, Eastern Way, Melksham SN12 7GU, UK",
      "place_id": "ChIJH9e5xf18cUgRC2WzSt9-Mrc"
    },
    {
      "name": "Trowbridge III",
      "url": "https://www.englandrugby.com/fixtures-and-results/search-results?team=23242",
      "image_url": "https://images.englandrugby.com/club_images/23242.png",
      "address": "Paxcroft Hilperton Trowbridge WILTSHIRE BA14 6JB UNITED KINGDOM ",
      "postcode": "BA14 6JB",
      "maps_url": "https://www.google.com/maps/search/?api=1&query=Paxcroft%20Hilperton%20Trowbridge%20WILTSHIRE%20BA14%206JB%20UNITED%20KINGDOM%20",
      "latitude": 51.3323834,
      "longitude": -2.1695667,
      "formatted_address": "Paxcroft Farm, Paxcroft, Hilperton, Trowbridge BA14 6JB, UK",
      "place_id": "ChIJ7_oBWfN9cUgR5OxIIYtSuAo"
    }
  ],
  "team_count": 9,
  "success_count": 9
}