{
  "league_name": "Counties 1 Yorkshire",
  "league_url": "https://www.englandrugby.com/fixtures-and-results/search-results?competition=1623&division=66495",
  "teams": [
    {
      "name": "Dinnington",
      "url": "https://www.englandrugby.com/fixtures-and-results/search-results?team=6492",
      "image_url": "https://images.englandrugby.com/club_images/6492.png",
      "address": "Dinnington Rufc, Lodge Lane , Dinnington, Sheffield, South Yorkshire, S25 2PB, United Kingdom",
      "postcode": "S25 2PB",
      "maps_url": "https://www.google.com/maps/search/?api=1&query=Dinnington%20Rufc%0ALodge%20Lane%20%0ADinnington%0ASheffield%0ASouth%20Yorkshire%0AS25%202PB%0AUnited%20Kingdom",
      "latitude": 53.3714702,
      "longitude": -1.1919739,
      "formatted_address": "Lodge Ln, Dinnington, Sheffield S25 2PB, UK",
      "place_id": "ChIJjy3m52ugeUgRYs4BolT9onU"
    },
    {
      "name": "Wath Upon Dearne",
      "url": "https://www.englandrugby.com/fixtures-and-results/search-results?team=24461",
      "image_url": "https://images.englandrugby.com/club_images/24461.png",
      "address": "Moor Road, Wath-upon-dearne, Rotherham, South Yorkshire, S63 7RT, United Kingdom",
      "postcode": "S63 7RT",
      "maps_url": "https://www.google.com/maps/search/?api=1&query=Moor%20Road%0AWath-upon-dearne%0ARotherham%0ASouth%20Yorkshire%0AS63%207RT%0AUnited%20Kingdom",
      "latitude": 53.5034735,
      "longitude": -1.3433402,
      "formatted_address": "Moor Rd, Wath upon Dearne, Rotherham S63 7RT, UK",
      "place_id": "EjBNb29yIFJkLCBXYXRoIHVwb24gRGVhcm5lLCBSb3RoZXJoYW0gUzYzIDdSVCwgVUsiLiosChQKEglHNxL6cHF5SBFUvpGIva2WjxIUChIJEVgtSHBxeUgR4QJfmYu6Qp4"
    },
    {
      "name": "Yarnbury",
      "url": "https://www.englandrugby.com/fixtures-and-results/search-results?team=26392",
      "image_url": "https://images.englandrugby.com/club_images/26392.png",
      "address": "The Clubhouse Brownberrie Lane Horsforth Leeds WEST YORKSHIRE LS18 5HB UNITED KINGDOM ",
      "postcode": "LS18 5HB",
      "maps_url": "https://www.google.com/maps/search/?api=1&query=The%20Clubhouse%20Brownberrie%20Lane%20Horsforth%20Leeds%20WEST%20YORKSHIRE%20LS18%205HB%20UNITED%20KINGDOM%20",
      "latitude": 53.8495066,
      "longitude": -1.6501451,
      "formatted_address": "Brownberrie Ln, Horsforth, Leeds LS18 5HB, UK",
      "place_id": "Ei1Ccm93bmJlcnJpZSBMbiwgSG9yc2ZvcnRoLCBMZWVkcyBMUzE4IDVIQiwgVUsiLiosChQKEgnvMsEPj1h5SBEH8qt-SoMHOBIUChIJucYSJIRYeUgRS4mkRcI7qe8"
    },
    {
      "name": "Keighley",
      "url": "https://www.englandrugby.com/fixtures-and-results/search-results?team=11209",
      "image_url": "https://images.englandrugby.com/club_images/11209.png",
      "address": "Skipton Road, Utley, Keighley, BD20 6DT, United Kingdom",
      "postcode": "BD20 6DT",
      "maps_url": "https://www.google.com/maps/search/?api=1&query=Skipton%20Road%0AUtley%0AKeighley%0ABD20%206DT%0AUnited%20Kingdom",
      "latitude": 53.8844179,
      "longitude": -1.9274998,
      "formatted_address": "Skipton Rd, Keighley BD20 6DT, UK",
      "place_id": "EiFTa2lwdG9uIFJkLCBLZWlnaGxleSBCRDIwIDZEVCwgVUsiLiosChQKEgmL4G9y4PF7SBFEWE479TatEBIUChIJxfUVC83ve0gRZYBdpTrRPHw"
    },
    {
      "name": "Harrogate Pythons",
      "url": "https://www.englandrugby.com/fixtures-and-results/search-results?team=9502",
      "image_url": "https://images.englandrugby.com/club_images/9502.png",
      "address": "Harrogate Pythons Rfc, Station View, Starbeck, Harrogate, North Yorkshire, HG2 7JA, United Kingdom",
      "postcode": "HG2 7JA",
      "maps_url": "https://www.google.com/maps/search/?api=1&query=Harrogate%20Pythons%20Rfc%0AStation%20View%0AStarbeck%0AHarrogate%0ANorth%20Yorkshire%0AHG2%207JA%0AUnited%20Kingdom",
      "latitude": 54.0000957,
      "longitude": -1.5037905,
      "formatted_address": "The Jim Saynor Ground, Station View, Harrogate HG2 7JA, UK",
      "place_id": "ChIJz1Z5355TeUgREugz1aQF7kM"
    },
    {
      "name": "West Leeds",
      "url": "https://www.englandrugby.com/fixtures-and-results/search-results?team=24808",
      "image_url": "https://images.englandrugby.com/club_images/24808.png",
      "address": "Bluehill Lane, Leeds, Wyorks, LS12 4NZ, United Kingdom",
      "postcode": "LS12 4NZ",
      "maps_url": "https://www.google.com/maps/search/?api=1&query=Bluehill%20Lane%0ALeeds%0AWyorks%0ALS12%204NZ%0AUnited%20Kingdom",
      "latitude": 53.7879433,
      "longitude": -1.6033873,
      "formatted_address": "Blue Hill Ln, Leeds LS12 4NZ, UK",
      "place_id": "EiBCbHVlIEhpbGwgTG4sIExlZWRzIExTMTIgNE5aLCBVSyIuKiwKFAoSCfEQZdkfX3lIEQbeuQXHJ1A_EhQKEgkV01UCHl95SBGJRRvna1c4_A"
    },
    {
      "name": "Goole",
      "url": "https://www.englandrugby.com/fixtures-and-results/search-results?team=8707",
      "image_url": "https://images.englandrugby.com/club_images/8707.png",
      "address": "Westfield Lane, Hook, Goole, Yorks, DN14 5PW, United Kingdom",
      "postcode": "DN14 5PW",
      "maps_url": "https://www.google.com/maps/search/?api=1&query=Westfield%20Lane%0AHook%0AGoole%0AYorks%0ADN14%205PW%0AUnited%20Kingdom",
      "latitude": 53.7210186,
      "longitude": -0.8631269,
      "formatted_address": "Westfield Ln, Goole DN14 5PW, UK",
      "place_id": "EiBXZXN0ZmllbGQgTG4sIEdvb2xlIEROMTQgNVBXLCBVSyIuKiwKFAoSCZU5--WcH3lIEc22yGq5-p81EhQKEgmH3KDlmx95SBEl3vvZyCKabw"
    },
    {
      "name": "Wensleydale",
      "url": "https://www.englandrugby.com/fixtures-and-results/search-results?team=24711",
      "image_url": "https://images.englandrugby.com/club_images/24711.png",
      "address": "Wensleydale RUFC, Cawkill Park Wensley Road Leyburn NORTH YORKSHIRE DL8 5ED UNITED KINGDOM ",
      "postcode": "DL8 5ED",
      "maps_url": "https://www.google.com/maps/search/?api=1&query=Wensleydale%20RUFC%2C%20Cawkill%20Park%20Wensley%20Road%20Leyburn%20NORTH%20YORKSHIRE%20DL8%205ED%20UNITED%20KINGDOM%20",
      "latitude": 54.3091002,
      "longitude": -1.8318149,
      "formatted_address": "Wensley Rd, Leyburn DL8 5ED, UK",
      "place_id": "Eh9XZW5zbGV5IFJkLCBMZXlidXJuIERMOCA1RUQsIFVLIi4qLAoUChIJh7ojj7cbfEgRRqX-xA989d0SFAoSCbfxeh-0G3xIEe_RaQSMTiK9"
    },
    {
      "name": "Hullensians",
      "url": "https://www.englandrugby.com/fixtures-and-results/search-results?team=10675",
      "image_url": "https://images.englandrugby.com/club_images/10675.png",
      "address": "Hullensians RUFC Springhead Lane Springfield Way, Anlaby Common Hull YORKSHIRE HU4 7RU UNITED KINGDOM ",
      "postcode": "HU4 7RU",
      "maps_url": "https://www.google.com/maps/search/?api=1&query=Hullensians%20RUFC%20Springhead%20Lane%20Springfield%20Way%2C%20Anlaby%20Common%20Hull%20YORKSHIRE%20HU4%207RU%20UNITED%20KINGDOM%20",
      "latitude": 53.7472651,
      "longitude": -0.4182123,
      "formatted_address": "Springhead La, Hull HU4 7RU, UK",
      "place_id": "ChIJvw71qAXAeEgRQFqXA90sU6M"
    },
    {
      "name": "Old Rishworthian",
      "url": "https://www.englandrugby.com/fixtures-and-results/search-results?team=16003",
      "image_url": "https://images.englandrugby.com/club_images/16003.png",
      "address": "Old Rishworthian Rufc, Copley, Halifax, West Yorkshire, HX3 0UG, England",
      "postcode": "HX3 0UG",
      "maps_url": "https://www.google.com/maps/search/?api=1&query=Old%20Rishworthian%20Rufc%0ACopley%0AHalifax%0AWest%20Yorkshire%0AHX3%200UG%0AEngland",
      "latitude": 53.6985505,
      "longitude": -1.8724489,
      "formatted_address": "Copley Ln, Copley, Halifax HX3 0UG, UK",
      "place_id": "ChIJL6KErP5keUgR0LUIqRFn41k"
    },
    {
      "name": "Beverley",
      "url": "https://www.englandrugby.com/fixtures-and-results/search-results?team=2073",
      "image_url": "https://images.englandrugby.com/club_images/2073.png",
      "address": "Norwood Beverley HU17 9HT UNITED KINGDOM",
      "postcode": "HU17 9HT",
      "maps_url": "https://www.google.com/maps/search/?api=1&query=Norwood%20Beverley%20HU17%209HT%20UNITED%20KINGDOM",
      "latitude": 53.849598,
      "longitude": -0.424614,
      "formatted_address": "Beverley Norwood, Beverley HU17, UK",
      "place_id": "ChIJjfowyGjHeEgR6j8GqA2dhAc"
    },
    {
      "name": "Leodiensian",
      "url": "https://www.englandrugby.com/fixtures-and-results/search-results?team=12170",
      "image_url": "https://images.englandrugby.com/club_images/12170.png",
      "address": "Crag Lane off King Lane, Alwoodley off King Lane, Alwoodley Leeds LS17 5PR UNITED KINGDOM ",
      "postcode": "LS17 5PR",
      "maps_url": "https://www.google.com/maps/search/?api=1&query=Crag%20Lane%20off%20King%20Lane%2C%20Alwoodley%20off%20King%20Lane%2C%20Alwoodley%20Leeds%20LS17%205PR%20UNITED%20KINGDOM%20",
      "latitude": 53.8572941,
      "longitude": -1.566998,
      "formatted_address": "Crag Ln, Leeds LS17 5PR, UK",
      "place_id": "EhtDcmFnIExuLCBMZWVkcyBMUzE3IDVQUiwgVUsiLiosChQKEgnnD4KDgll5SBGdliAivqsNYxIUChIJ08H1V51ZeUgR43mtflIC6FU"
    }
  ],
  "team_count": 12,
  "success_count": 12
}