{
  "league_name": "Counties 2 Hampshire",
  "league_url": "https://www.englandrugby.com/fixtures-and-results/search-results?competition=261&division=66535",
  "teams": [
    {
      "name": "Trojans",
      "url": "https://www.englandrugby.com/fixtures-and-results/search-results?team=23216",
      "image_url": "https://images.englandrugby.com/club_images/23216.png",
      "address": "Trojans Club, Stoneham Park  , Stoneham Lane, Eastleigh, Southampton, Hampshire, SO50 9HT, United Kingdom",
      "postcode": "SO50 9HT",
      "maps_url": "https://www.google.com/maps/search/?api=1&query=Trojans%20Club%0AStoneham%20Park%20%20%0AStoneham%20Lane%0AEastleigh%0ASouthampton%0AHampshire%0ASO50%209HT%0AUnited%20Kingdom",
      "latitude": 50.9510042,
      "longitude": -1.3823013,
      "formatted_address": "Stoneham Ln, Eastleigh, Hants SO50 9HT, UK",
      "place_id": "ChIJA9QCvJBzdEgRaCkQKhoiXok"
    },
    {
      "name": "Havant III",
      "url": "https://www.englandrugby.com/fixtures-and-results/search-results?team=9702",
      "image_url": "https://images.englandrugby.com/club_images/9702.png",
      "address": "Hooks Lane Ground, Fraser Road, Bedhampton, Havant, Hampshire, PO9 3EJ, United Kingdom",
      "postcode": "PO9 3EJ",
      "maps_url": "https://www.google.com/maps/search/?api=1&query=Hooks%20Lane%20Ground%0AFraser%20Road%0ABedhampton%0AHavant%0AHampshire%0APO9%203EJ%0AUnited%20Kingdom",
      "latitude": 50.8564366,
      "longitude": -0.9969572,
      "formatted_address": "Fraser Rd, Bedhampton, Havant PO9, UK",
      "place_id": "EiVGcmFzZXIgUmQsIEJlZGhhbXB0b24sIEhhdmFudCBQTzksIFVLIi4qLAoUChIJNUquTsdEdEgRL2PF30pzLQsSFAoSCZX_MoOVRHRIEVm7nuqBEq6j"
    },
    {
      "name": "Farnham II",
      "url": "https://www.englandrugby.com/fixtures-and-results/search-results?team=7987",
      "image_url": "https://images.englandrugby.com/club_images/7987.png",
      "address": "Farnham Rufc, Wilkinson Way, Monkton Lane, Farnham, Surrey , GU9 9ND, United Kingdom",
      "postcode": "GU9 9ND",
      "maps_url": "https://www.google.com/maps/search/?api=1&query=Farnham%20Rufc%0AWilkinson%20Way%0AMonkton%20Lane%0AFarnham%0ASurrey%20%0AGU9%209ND%0AUnited%20Kingdom",
      "latitude": 51.2269266,
      "longitude": -0.7751568,
      "formatted_address": "Monkton Ln, Farnham GU9 9ND, UK",
      "place_id": "ChIJOX2MYOYsdEgRAGCvqmR6Kw4"
    },
    {
      "name": "Fordingbridge",
      "url": "https://www.englandrugby.com/fixtures-and-results/search-results?team=8240",
      "image_url": "https://images.englandrugby.com/club_images/8240.png",
      "address": "Recreation Ground Fordingbridge HAMPSHIRE SP6 1AN UNITED KINGDOM ",
      "postcode": "SP6 1AN",
      "maps_url": "https://www.google.com/maps/search/?api=1&query=Recreation%20Ground%20Fordingbridge%20HAMPSHIRE%20SP6%201AN%20UNITED%20KINGDOM%20",
      "latitude": 50.925407,
      "longitude": -1.786992,
      "formatted_address": "Recreation Ground, Fordingbridge SP6 1AN, UK",
      "place_id": "ChIJf1OehgWUc0gRw2rwGYJbZ3I"
    },
    {
      "name": "New Milton",
      "url": "https://www.englandrugby.com/fixtures-and-results/search-results?team=14355",
      "image_url": "https://images.englandrugby.com/club_images/14355.png",
      "address": "New Milton Rugby Club Normans Way Ashley New Milton HAMPSHIRE BH25 5FN UNITED KINGDOM ",
      "postcode": "BH25 5FN",
      "maps_url": "https://www.google.com/maps/search/?api=1&query=New%20Milton%20Rugby%20Club%20Normans%20Way%20Ashley%20New%20Milton%20HAMPSHIRE%20BH25%205FN%20UNITED%20KINGDOM%20",
      "latitude": 50.7564183,
      "longitude": -1.6407385,
      "formatted_address": "Normans Wy, Ashley, New Milton BH25 5FN, UK",
      "place_id": "ChIJO0TNmpuEc0gRYVZiIIFF_pg"
    },
    {
      "name": "United Services, Portsmouth",
      "url": "https://www.englandrugby.com/fixtures-and-results/search-results?team=23499",
      "image_url": "https://images.englandrugby.com/club_images/23499.png",
      "address": "United Services Sports Club, Burnaby Road, Portsmouth, Hamps, PO1 2EJ, United Kingdom",
      "postcode": "PO1 2EJ",
      "maps_url": "https://www.google.com/maps/search/?api=1&query=United%20Services%20Sports%20Club%0ABurnaby%20Road%0APortsmouth%0AHamps%0APO1%202EJ%0AUnited%20Kingdom",
      "latitude": 50.7955268,
      "longitude": -1.0986393,
      "formatted_address": "Burnaby Rd, Portsmouth PO1 2HB, UK",
      "place_id": "ChIJPQB_wF9ddEgREVwdtoDfajA"
    },
    {
      "name": "Romsey",
      "url": "https://www.englandrugby.com/fixtures-and-results/search-results?team=17976",
      "image_url": "https://images.englandrugby.com/club_images/17976.png",
      "address": "Ganger Farm Sports Pavilion, Ganger Farm Way, Romsey, Hampshire, SO51 0EE, United Kingdom",
      "postcode": "SO51 0EE",
      "maps_url": "https://www.google.com/maps/search/?api=1&query=Ganger%20Farm%20Sports%20Pavilion%0AGanger%20Farm%20Way%0ARomsey%0AHampshire%0ASO51%200EE%0AUnited%20Kingdom",
      "latitude": 51.00691459999999,
      "longitude": -1.466585,
      "formatted_address": "Ganger Farm Way, Romsey SO51 0EE, UK",
      "place_id": "ChIJ-QYxJF0LdEgRBmyDy19D0es"
    },
    {
      "name": "Southampton",
      "url": "https://www.englandrugby.com/fixtures-and-results/search-results?team=19705",
      "image_url": "https://images.englandrugby.com/club_images/19705.png",
      "address": "Southampton RFC Test Park Redbridge Lane Southampton HAMPSHIRE SO16 9BP UNITED KINGDOM ",
      "postcode": "SO16 9BP",
      "maps_url": "https://www.google.com/maps/search/?api=1&query=Southampton%20RFC%20Test%20Park%20Redbridge%20Lane%20Southampton%20HAMPSHIRE%20SO16%209BP%20UNITED%20KINGDOM%20",
      "latitude": 50.9383679,
      "longitude": -1.4650647,
      "formatted_address": "Redbridge Ln, Southampton SO16, UK",
      "place_id": "ChIJX4luQ8F1dEgR_jwckm3Kb1s"
    },
    {
      "name": "Fareham Heathens",
      "url": "https://www.englandrugby.com/fixtures-and-results/search-results?team=7929",
      "image_url": "https://images.englandrugby.com/club_images/7929.png",
      "address": "Cams Alders Recreation Ground Palmerston Business Park Palmerston Drive Fareham HAMPSHIRE PO14 1BJ UNITED KINGDOM ",
      "postcode": "PO14 1BJ",
      "maps_url": "https://www.google.com/maps/search/?api=1&query=Cams%20Alders%20Recreation%20Ground%20Palmerston%20Business%20Park%20Palmerston%20Drive%20Fareham%20HAMPSHIRE%20PO14%201BJ%20UNITED%20KINGDOM%20",
      "latitude": 50.8456039,
      "longitude": -1.1914745,
      "formatted_address": "Cams Alders Recreation Ground, Palmerston Dr, Fareham PO14 1JA, UK",
      "place_id": "ChIJASdFGqRodEgR-ZxJsd7xNRo"
    },
    {
      "name": "Andover II",
      "url": "https://www.englandrugby.com/fixtures-and-results/search-results?team=660",
      "image_url": "https://images.englandrugby.com/club_images/660.png",
      "address": "The Goodship Ground, Foxcotte Park, Andover, Hampshire, SP11 0TA, United Kingdom",
      "postcode": "SP11 0TA",
      "maps_url": "https://www.google.com/maps/search/?api=1&query=The%20Goodship%20Ground%0AFoxcotte%20Park%0AAndover%0AHampshire%0ASP11%200TA%0AUnited%20Kingdom",
      "latitude": 51.2313719,
      "longitude": -1.5033214,
      "formatted_address": "Foxcotte Ln, Andover SP11 0TA, UK",
      "place_id": "EiFGb3hjb3R0ZSBMbiwgQW5kb3ZlciBTUDExIDBUQSwgVUsiLiosChQKEgkXvtj3m_hzSBHhDwJ8hXackhIUChIJY0e2eWcHdEgRbwlm3tlscsY"
    },
    {
      "name": "Petersfield II",
      "url": "https://www.englandrugby.com/fixtures-and-results/search-results?team=16851",
      "image_url": "https://images.englandrugby.com/club_images/16851.png",
      "address": "The Clubhouse Penns Place Petersfield HAMPSHIRE GU31 4EP UNITED KINGDOM ",
      "postcode": "GU31 4EP",
      "maps_url": "https://www.google.com/maps/search/?api=1&query=The%20Clubhouse%20Penns%20Place%20Petersfield%20HAMPSHIRE%20GU31%204EP%20UNITED%20KINGDOM%20",
      "latitude": 51.0048227,
      "longitude": -0.9087764,
      "formatted_address": "Penns Pl, Petersfield GU31 4EP, UK",
      "place_id": "EiJQZW5ucyBQbCwgUGV0ZXJzZmllbGQgR1UzMSA0RVAsIFVLIi4qLAoUChIJN-faPB9IdEgRppd2vqpCEzASFAoSCVvzfIQfSHRIETUpFLGTr7pz"
    }
  ],
  "team_count": 11,
  "success_count": 11
}