{
  "league_name": "Counties 3 adm Lancashire & Cheshire",
  "league_url": "https://www.englandrugby.com/fixtures-and-results/search-results?competition=1623&division=67638",
  "teams": [
    {
      "name": "Fleetwood",
      "url": "https://www.englandrugby.com/fixtures-and-results/search-results?team=8191",
      "image_url": "https://images.englandrugby.com/club_images/8191.png",
      "address": "Fleetwood Rugby Club Melbourne Avenue Fleetwood LANCASHIRE FY7 8AY UNITED KINGDOM ",
      "postcode": "FY7 8AY",
      "maps_url": "https://www.google.com/maps/search/?api=1&query=Fleetwood%20Rugby%20Club%20Melbourne%20Avenue%20Fleetwood%20LANCASHIRE%20FY7%208AY%20UNITED%20KINGDOM%20",
      "latitude": 53.9048996,
      "longitude": -3.0360689,
      "formatted_address": "Melbourne Ave, Fleetwood FY7 8AY, UK",
      "place_id": "ChIJL6G8zZFce0gRmzYFsp4WqFs"
    },
    {
      "name": "Bury",
      "url": "https://www.englandrugby.com/fixtures-and-results/search-results?team=3809",
      "image_url": "https://images.englandrugby.com/club_images/3809.png",
      "address": "Radcliffe Road Bury LANCASHIRE BL9 9JX UNITED KINGDOM ",
      "postcode": "BL9 9JX",
      "maps_url": "https://www.google.com/maps/search/?api=1&query=Radcliffe%20Road%20Bury%20LANCASHIRE%20BL9%209JX%20UNITED%20KINGDOM%20",
      "latitude": 53.5805729,
      "longitude": -2.3038135,
      "formatted_address": "Radcliffe Rd, Bury BL9, UK",
      "place_id": "EhpSYWRjbGlmZmUgUmQsIEJ1cnkgQkw5LCBVSyIuKiwKFAoSCd1-wu4epXtIEeo_bZbZMgfIEhQKEgmvixLsH6V7SBEj5QL_Pc4JbA"
    },
    {
      "name": "Orrell",
      "url": "https://www.englandrugby.com/fixtures-and-results/search-results?team=16278",
      "image_url": "https://images.englandrugby.com/club_images/16278.png",
      "address": "46 Dingle Road, Upholland, Skelmersdale, Lancashire, WN8 0EW, England",
      "postcode": "WN8 0EW",
      "maps_url": "https://www.google.com/maps/search/?api=1&query=46%20Dingle%20Road%0AUpholland%0ASkelmersdale%0ALancashire%0AWN8%200EW%0AEngland",
      "latitude": 53.5453591,
      "longitude": -2.726350800000001,
      "formatted_address": "46 Dingle Rd, Up Holland, Skelmersdale WN8 0EW, UK",
      "place_id": "ChIJBWHN2W0Qe0gRbuRTep5ErxE"
    },
    {
      "name": "Ashton-Under-Lyne",
      "url": "https://www.englandrugby.com/fixtures-and-results/search-results?team=958",
      "image_url": "https://images.englandrugby.com/club_images/958.png",
      "address": "Gambrel Bank, St. Albans Avenue, Ashton-under-lyne, Lancashire, OL6 8TU, United Kingdom",
      "postcode": "OL6 8TU",
      "maps_url": "https://www.google.com/maps/search/?api=1&query=Gambrel%20Bank%0ASt.%20Albans%20Avenue%0AAshton-under-lyne%0ALancashire%0AOL6%208TU%0AUnited%20Kingdom",
      "latitude": 53.9690089,
      "longitude": -2.6276908,
      "formatted_address": "Lancashire, UK",
      "place_id": "ChIJ2_UmUkxNekgRZRtGDNF9SbU"
    },
    {
      "name": "Oldham",
      "url": "https://www.englandrugby.com/fixtures-and-results/search-results?team=16153",
      "image_url": "https://images.englandrugby.com/club_images/16153.png",
      "address": "Manor Park, Byrth Road, Bardsley, Oldham, Lancashire, OL8 2TJ, United Kingdom",
      "postcode": "OL8 2TJ",
      "maps_url": "https://www.google.com/maps/search/?api=1&query=Manor%20Park%0AByrth%20Road%0ABardsley%0AOldham%0ALancashire%0AOL8%202TJ%0AUnited%20Kingdom",
      "latitude": 53.5128871,
      "longitude": -2.1081035,
      "formatted_address": "Byrth Rd, Bardsley, Oldham OL8 2TJ, UK",
      "place_id": "EiZCeXJ0aCBSZCwgQmFyZHNsZXksIE9sZGhhbSBPTDggMlRKLCBVSyIuKiwKFAoSCQ-IXOOnt3tIEWdu9fcbNkoTEhQKEgn5Vwl6qLd7SBFxVKr0n_kMJg"
    },
    {
      "name": "Burnley",
      "url": "https://www.englandrugby.com/fixtures-and-results/search-results?team=3736",
      "image_url": "https://images.englandrugby.com/club_images/3736.png",
      "address": "Holden Road, Reedley, Burnley. LANCASHIRE BB10 2LE UNITED KINGDOM ",
      "postcode": "BB10 2LE",
      "maps_url": "https://www.google.com/maps/search/?api=1&query=Holden%20Road%2C%20Reedley%2C%20Burnley.%20LANCASHIRE%20BB10%202LE%20UNITED%20KINGDOM%20",
      "latitude": 53.8151964,
      "longitude": -2.2338952,
      "formatted_address": "Holden Rd, Burnley BB10 2LE, UK",
      "place_id": "ChIJD0mgPyaRe0gRJBIW5DEmpPw"
    },
    {
      "name": "Clitheroe",
      "url": "https://www.englandrugby.com/fixtures-and-results/search-results?team=5288",
      "image_url": "https://images.englandrugby.com/club_images/5288.png",
      "address": "Littlemoor Park, Littlemoor Road, Clitheroe, Lancashire, BB7 1ER, United Kingdom",
      "postcode": "BB7 1ER",
      "maps_url": "https://www.google.com/maps/search/?api=1&query=Littlemoor%20Park%0ALittlemoor%20Road%0AClitheroe%0ALancashire%0ABB7%201ER%0AUnited%20Kingdom",
      "latitude": 53.86486799999999,
      "longitude": -2.389967,
      "formatted_address": "Littlemoor Rd, Littlemoor, Clitheroe BB7 1HG, UK",
      "place_id": "ChIJLdQpAWibe0gRxbpsvF49BQo"
    },
    {
      "name": "Ormskirk",
      "url": "https://www.englandrugby.com/fixtures-and-results/search-results?team=16247",
      "image_url": "https://images.englandrugby.com/club_images/16247.png",
      "address": "Green Lane Ormskirk LANCASHIRE L39 1ND UNITED KINGDOM ",
      "postcode": "L39 1ND",
      "maps_url": "https://www.google.com/maps/search/?api=1&query=Green%20Lane%20Ormskirk%20LANCASHIRE%20L39%201ND%20UNITED%20KINGDOM%20",
      "latitude": 53.5721639,
      "longitude": -2.8873839,
      "formatted_address": "Green Ln, Ormskirk L39 1ND, UK",
      "place_id": "Eh5HcmVlbiBMbiwgT3Jtc2tpcmsgTDM5IDFORCwgVUsiLiosChQKEgl57FPLNBZ7SBFJDMkcWsZ23hIUChIJGV-yuTQWe0gR_wLvrXEFup4"
    },
    {
      "name": "Hoylake",
      "url": "https://www.englandrugby.com/fixtures-and-results/search-results?team=10541",
      "image_url": "https://images.englandrugby.com/club_images/10541.png",
      "address": "Carham Road Hoylake Wirral MERSEYSIDE CH47 4FF UNITED KINGDOM ",
      "postcode": "CH47 4FF",
      "maps_url": "https://www.google.com/maps/search/?api=1&query=Carham%20Road%20Hoylake%20Wirral%20MERSEYSIDE%20CH47%204FF%20UNITED%20KINGDOM%20",
      "latitude": 53.3916805,
      "longitude": -3.172095,
      "formatted_address": "Carham Rd, Hoylake, Wirral CH47 4FF, UK",
      "place_id": "EidDYXJoYW0gUmQsIEhveWxha2UsIFdpcnJhbCBDSDQ3IDRGRiwgVUsiLiosChQKEglfq4t5pyl7SBF3cTTnH50WKxIUChIJEdSGfqcpe0gRgShTjrXOByg"
    },
    {
      "name": "Dukinfield",
      "url": "https://www.englandrugby.com/fixtures-and-results/search-results?team=6889",
      "image_url": "https://images.englandrugby.com/club_images/6889.png",
      "address": "Blocksages Playing Fields Birch Lane Dukinfield SK16 5AP UNITED KINGDOM",
      "postcode": "SK16 5AP",
      "maps_url": "https://www.google.com/maps/search/?api=1&query=Blocksages%20Playing%20Fields%20Birch%20Lane%20Dukinfield%20SK16%205AP%20UNITED%20KINGDOM",
      "latitude": 53.4712451,
      "longitude": -2.0799978,
      "formatted_address": "Birch Ln, Dukinfield SK16 5AP, UK",
      "place_id": "ChIJralGyhK2e0gR9cO3yvCwzfA"
    },
    {
      "name": "Congleton",
      "url": "https://www.englandrugby.com/fixtures-and-results/search-results?team=5565",
      "image_url": "https://images.englandrugby.com/club_images/5565.png",
      "address": "78 The Woodman Park Street Congleton CHESHIRE CW12 1EG UNITED KINGDOM ",
      "postcode": "CW12 1EG",
      "maps_url": "https://www.google.com/maps/search/?api=1&query=78%20The%20Woodman%20Park%20Street%20Congleton%20CHESHIRE%20CW12%201EG%20UNITED%20KINGDOM%20",
      "latitude": 53.1638117,
      "longitude": -2.2074406,
      "formatted_address": "Park St, Congleton CW12 1EG, UK",
      "place_id": "Eh9QYXJrIFN0LCBDb25nbGV0b24gQ1cxMiAxRUcsIFVLIi4qLAoUChIJCfUwuRlFekgRRhkhPLPOqSESFAoSCRMJa5MZRXpIEWLhWWux2XqK"
    },
    {
      "name": "Colne & Nelson",
      "url": "https://www.englandrugby.com/fixtures-and-results/search-results?team=5460",
      "image_url": "https://images.englandrugby.com/club_images/5460.png",
      "address": "The Club House, Holt House, Harrison Drive, Colne                              , Lancashire, BB8 9SF, United Kingdom",
      "postcode": "BB8 9SF",
      "maps_url": "https://www.google.com/maps/search/?api=1&query=The%20Club%20House%0AHolt%20House%0AHarrison%20Drive%0AColne%20%20%20%20%20%20%20%20%20%20%20%20%20%20%20%20%20%20%20%20%20%20%20%20%20%20%20%20%20%20%0ALancashire%0ABB8%209SF%0AUnited%20Kingdom",
      "latitude": 53.86384779999999,
      "longitude": -2.1806364,
      "formatted_address": "Holt House, Harrison Dr, Colne BB8 9SF, UK",
      "place_id": "ChIJ09rhhiOSe0gRIMZv0gqG38Y"
    },
    {
      "name": "Vagabonds (I.O.M.)",
      "url": "https://www.englandrugby.com/fixtures-and-results/search-results?team=23887",
      "image_url": "https://images.englandrugby.com/club_images/23887.png",
      "address": "IOM Vagabonds Clubhouse Ballafletcher Sports Grounds Ballafletcher Braddan ISLE OF MAN IM4 4RJ UNITED KINGDOM ",
      "postcode": "IM4 4RJ",
      "maps_url": "https://www.google.com/maps/search/?api=1&query=IOM%20Vagabonds%20Clubhouse%20Ballafletcher%20Sports%20Grounds%20Ballafletcher%20Braddan%20ISLE%20OF%20MAN%20IM4%204RJ%20UNITED%20KINGDOM%20",
      "latitude": 54.170432,
      "longitude": -4.5059357,
      "formatted_address": "5FCV+5JG, Douglas, Isle of Man IM4, Isle of Man",
      "place_id": "ChIJY__ryy-FY0gRL7R3fZZlPac"
    },
    {
      "name": "Ramsey (IoM)",
      "url": "https://www.englandrugby.com/fixtures-and-results/search-results?team=17450",
      "image_url": "https://images.englandrugby.com/club_images/17450.png",
      "address": "Ramsey Rufc, Mooragh Promenade, Ramsey, Isle Of Man, Isle Of Man, IM8 3AP, United Kingdom",
      "postcode": "IM8 3AP",
      "maps_url": "https://www.google.com/maps/search/?api=1&query=Ramsey%20Rufc%0AMooragh%20Promenade%0ARamsey%0AIsle%20Of%20Man%0AIsle%20Of%20Man%0AIM8%203AP%0AUnited%20Kingdom",
      "latitude": 54.33057239999999,
      "longitude": -4.3846088,
      "formatted_address": "8JJ8+65C, Mooragh Park, Ramsey, Isle of Man IM8, Isle of Man",
      "place_id": "ChIJg38Y0AefY0gRqWZhixJ2-wQ"
    }
  ],
  "team_count": 14,
  "success_count": 14
}