{
  "league_name": "Counties 4 Kent",
  "league_url": "https://www.englandrugby.com/fixtures-and-results/search-results?competition=261&division=66544",
  "teams": [
    {
      "name": "Cliffe Crusaders",
      "url": "https://www.englandrugby.com/fixtures-and-results/search-results?team=5260",
      "image_url": "https://images.englandrugby.com/club_images/5260.png",
      "address": "Cliffe Memorial Hall, Rochester, Kent, ME37UT, England",
      "postcode": "ME37UT",
      "maps_url": "https://www.google.com/maps/search/?api=1&query=Cliffe%20Memorial%20Hall%0ARochester%0AKent%0AME37UT%0AEngland",
      "latitude": 51.45794430000001,
      "longitude": 0.4966221,
      "formatted_address": "Church St, Cliffe, Rochester ME3 7PU, UK",
      "place_id": "ChIJaVhHdenO2EcRTrXaMLA3qaY"
    },
    {
      "name": "Sevenoaks III",
      "url": "https://www.englandrugby.com/fixtures-and-results/search-results?team=19008",
      "image_url": "https://images.englandrugby.com/club_images/19008.png",
      "address": "Knole Paddock Plymouth Drive Sevenoaks KENT TN13 3RP UNITED KINGDOM ",
      "postcode": "TN13 3RP",
      "maps_url": "https://www.google.com/maps/search/?api=1&query=Knole%20Paddock%20Plymouth%20Drive%20Sevenoaks%20KENT%20TN13%203RP%20UNITED%20KINGDOM%20",
      "latitude": 51.2739863,
      "longitude": 0.199947,
      "formatted_address": "75FX+HX Knole Paddock, Sevenoaks TN13 3RP, UK",
      "place_id": "ChIJ1T07Xb9N30cRG9rQvlDNYRc"
    },
    {
      "name": "Dartfordians II",
      "url": "https://www.englandrugby.com/fixtures-and-results/search-results?team=6167",
      "image_url": "https://images.englandrugby.com/club_images/6167.png",
      "address": "War Memorial Club House Bourne Road Bexley KENT DA5 1LW UNITED KINGDOM ",
      "postcode": "DA5 1LW",
      "maps_url": "https://www.google.com/maps/search/?api=1&query=War%20Memorial%20Club%20House%20Bourne%20Road%20Bexley%20KENT%20DA5%201LW%20UNITED%20KINGDOM%20",
      "latitude": 51.4434645,
      "longitude": 0.1514732,
      "formatted_address": "Bourne Rd, Bexley DA5 1LW, UK",
      "place_id": "Eh1Cb3VybmUgUmQsIEJleGxleSBEQTUgMUxXLCBVSyIuKiwKFAoSCfUZc3xrrthHEWFoQZF0XoyUEhQKEgl5f6x6Za7YRxE6_y7_ekIlNQ"
    },
    {
      "name": "Faversham",
      "url": "https://www.englandrugby.com/fixtures-and-results/search-results?team=8022",
      "image_url": "https://images.englandrugby.com/club_images/8022.png",
      "address": "Faversham Rufc, The Lodge, Recreation Ground, Park Road, Faversham, Kent , ME13 8HA, United Kingdom",
      "postcode": "ME13 8HA",
      "maps_url": "https://www.google.com/maps/search/?api=1&query=Faversham%20Rufc%0AThe%20Lodge%0ARecreation%20Ground%0APark%20Road%0AFaversham%0AKent%20%0AME13%208HA%0AUnited%20Kingdom",
      "latitude": 51.31413999999999,
      "longitude": 0.896998,
      "formatted_address": "Recreation Ground, Faversham ME13 8BF, UK",
      "place_id": "ChIJQ0pJBePS3kcRapsfVhHz_Rc"
    },
    {
      "name": "Beckenham III",
      "url": "https://www.englandrugby.com/fixtures-and-results/search-results?team=1789",
      "image_url": "https://images.englandrugby.com/club_images/1789.png",
      "address": "Balmoral Avenue Elmers End Beckenham KENT BR3 3RD UNITED KINGDOM ",
      "postcode": "BR3 3RD",
      "maps_url": "https://www.google.com/maps/search/?api=1&query=Balmoral%20Avenue%20Elmers%20End%20Beckenham%20KENT%20BR3%203RD%20UNITED%20KINGDOM%20",
      "latitude": 51.3979564,
      "longitude": -0.0395429,
      "formatted_address": "Balmoral Ave, Beckenham BR3 3RD, UK",
      "place_id": "EiNCYWxtb3JhbCBBdmUsIEJlY2tlbmhhbSBCUjMgM1JELCBVSyIuKiwKFAoSCU-NWtSoAXZIEUIN2sVymWpPEhQKEgnlDI4mrwF2SBGFkNTmh8ZnQw"
    },
    {
      "name": "Old Colfeians II",
      "url": "https://www.englandrugby.com/fixtures-and-results/search-results?team=15539",
      "image_url": "https://images.englandrugby.com/club_images/15539.png",
      "address": "Horn Park, Eltham Road, London, Kent, SE12 8UE, United Kingdom",
      "postcode": "SE12 8UE",
      "maps_url": "https://www.google.com/maps/search/?api=1&query=Horn%20Park%0AEltham%20Road%0ALondon%0AKent%0ASE12%208UE%0AUnited%20Kingdom",
      "latitude": 51.454731,
      "longitude": 0.0190391,
      "formatted_address": "Eltham Rd, London SE12 8UE, UK",
      "place_id": "Eh5FbHRoYW0gUmQsIExvbmRvbiBTRTEyIDhVRSwgVUsiLiosChQKEgkrdtJ_v6nYRxH6n6v1Pb5ebhIUChIJYb7zrsGp2EcRdTdud5YQiPM"
    },
    {
      "name": "Sheppey",
      "url": "https://www.englandrugby.com/fixtures-and-results/search-results?team=19172",
      "image_url": "https://images.englandrugby.com/club_images/19172.png",
      "address": "Sheppey Rugby Football Club, The Clubhouse, Stupple Field, Lower Road,, Minster,, Sheerness, Kent, ME12 3RT, United Kingdom",
      "postcode": "ME12 3RT",
      "maps_url": "https://www.google.com/maps/search/?api=1&query=Sheppey%20Rugby%20Football%20Club%0AThe%20Clubhouse%0AStupple%20Field%0ALower%20Road%2C%0AMinster%2C%0ASheerness%0AKent%0AME12%203RT%0AUnited%20Kingdom",
      "latitude": 51.40996320000001,
      "longitude": 0.7902334,
      "formatted_address": "Lower Rd, Minster on Sea, Sheerness ME12 3RT, UK",
      "place_id": "ChIJt0aTKLQr2UcR2Eu3lhMLoGo"
    },
    {
      "name": "Rye",
      "url": "https://www.englandrugby.com/fixtures-and-results/search-results?team=18463",
      "image_url": "https://images.englandrugby.com/club_images/18463.png",
      "address": "Rye R.F.C. New Road Rye KENT TN31 7LS UNITED KINGDOM ",
      "postcode": "TN31 7LS",
      "maps_url": "https://www.google.com/maps/search/?api=1&query=Rye%20R.F.C.%20New%20Road%20Rye%20KENT%20TN31%207LS%20UNITED%20KINGDOM%20",
      "latitude": 50.9537544,
      "longitude": 0.7442576999999999,
      "formatted_address": "New Rd, Rye TN31 7LS, UK",
      "place_id": "ChIJneRoINnh3kcRelQT1HRxoOo"
    },
    {
      "name": "Bromley II",
      "url": "https://www.englandrugby.com/fixtures-and-results/search-results?team=3411",
      "image_url": "https://images.englandrugby.com/club_images/3411.png",
      "address": "Bromley Rfc, Warman Sports Club, Barnet Wood Road, Hayes, Kent, BR2 7AA, United Kingdom",
      "postcode": "BR2 7AA",
      "maps_url": "https://www.google.com/maps/search/?api=1&query=Bromley%20Rfc%0AWarman%20Sports%20Club%0ABarnet%20Wood%20Road%0AHayes%0AKent%0ABR2%207AA%0AUnited%20Kingdom",
      "latitude": 51.3714999,
      "longitude": 0.0313819,
      "formatted_address": "Barnet Wood Rd, Bromley BR2, UK",
      "place_id": "ChIJP-TAEOmq2EcRCKwMKqlnjag"
    },
    {
      "name": "King's College Hospital",
      "url": "https://www.englandrugby.com/fixtures-and-results/search-results?team=11534",
      "image_url": "https://images.englandrugby.com/club_images/11534.png",
      "address": "Dulwich Sports Ground, 108 Turney Road, London, KENT, SE21 7JH, UNITED KINGDOM, ",
      "postcode": "SE21 7JH",
      "maps_url": "https://www.google.com/maps/search/?api=1&query=Dulwich%20Sports%20Ground%0A108%20Turney%20Road%0ALondon%0AKENT%0ASE21%207JH%0AUNITED%20KINGDOM%0A",
      "latitude": 51.446331,
      "longitude": -0.09154899999999999,
      "formatted_address": "c/o Southwark Community Sports Trust, Turney Rd, London SE21 7JH, UK",
      "place_id": "ChIJ9bMGdvYDdkgRfFMFXhp_y-c"
    },
    {
      "name": "East Peckham & Paddock Wood",
      "url": "https://www.englandrugby.com/fixtures-and-results/search-results?team=7187",
      "image_url": "https://images.englandrugby.com/club_images/7187.png",
      "address": "Green Lane Playing Field, Green Lane, Paddock Wood, Tonbridge, Kent, TN12 6BF, United Kingdom",
      "postcode": "TN12 6BF",
      "maps_url": "https://www.google.com/maps/search/?api=1&query=Green%20Lane%20Playing%20Field%0AGreen%20Lane%0APaddock%20Wood%0ATonbridge%0AKent%0ATN12%206BF%0AUnited%20Kingdom",
      "latitude": 51.1737199,
      "longitude": 0.3943794,
      "formatted_address": "Green Ln, Paddock Wood, Tonbridge TN12, UK",
      "place_id": "ChIJvTHTNB8430cRmP6wRnMNdxY"
    }
  ],
  "team_count": 11,
  "success_count": 11
}