{
  "league_name": "Counties 4 Midlands West (North)",
  "league_url": "https://www.englandrugby.com/fixtures-and-results/search-results?competition=1597&division=66522",
  "teams": [
    {
      "name": "Whitchurch II",
      "url": "https://www.englandrugby.com/fixtures-and-results/search-results?team=25226",
      "image_url": "https://images.englandrugby.com/club_images/25226.png",
      "address": "The Clubhouse Edgeley Park Heath Road Whitchurch SHROPSHIRE SY13 1EU UNITED KINGDOM ",
      "postcode": "SY13 1EU",
      "maps_url": "https://www.google.com/maps/search/?api=1&query=The%20Clubhouse%20Edgeley%20Park%20Heath%20Road%20Whitchurch%20SHROPSHIRE%20SY13%201EU%20UNITED%20KINGDOM%20",
      "latitude": 52.9614793,
      "longitude": -2.680642,
      "formatted_address": "73 Queensway, Whitchurch SY13 1HB, UK",
      "place_id": "ChIJuWpmGE6SekgR9VaqlNU6G8A"
    },
    {
      "name": "Bloxwich",
      "url": "https://www.englandrugby.com/fixtures-and-results/search-results?team=2624",
      "image_url": "https://images.englandrugby.com/club_images/2624.png",
      "address": "King George V Playing Fields, Stafford Road, Bloxwich, Walsall, West Midlands, WS3 3NJ, England",
      "postcode": "WS3 3NJ",
      "maps_url": "https://www.google.com/maps/search/?api=1&query=King%20George%20V%20Playing%20Fields%0AStafford%20Road%0ABloxwich%0AWalsall%0AWest%20Midlands%0AWS3%203NJ%0AEngland",
      "latitude": 52.6236402,
      "longitude": -2.0100245,
      "formatted_address": "King George V Memorial Playing Field, William Wiggin Ave, Bloxwich, Walsall WS3 3NS, UK",
      "place_id": "ChIJeXFWlGmfcEgRPN11m0lLfLE"
    },
    {
      "name": "Wednesbury",
      "url": "https://www.englandrugby.com/fixtures-and-results/search-results?team=24582",
      "image_url": "https://images.englandrugby.com/club_images/24582.png",
      "address": "Wednesbury RUFC Woden Road North Old Park Wednesbury WEST MIDLANDS WS10 9NP ",
      "postcode": "WS10 9NP",
      "maps_url": "https://www.google.com/maps/search/?api=1&query=Wednesbury%20RUFC%20Woden%20Road%20North%20Old%20Park%20Wednesbury%20WEST%20MIDLANDS%20WS10%209NP%20",
      "latitude": 52.5630906,
      "longitude": -2.0223725,
      "formatted_address": "Woden Rd N, Wednesbury WS10 9NP, UK",
      "place_id": "ChIJYxls0fCYcEgRctFSWw30lfY"
    },
    {
      "name": "Burntwood II",
      "url": "https://www.englandrugby.com/fixtures-and-results/search-results?team=3762",
      "image_url": "https://images.englandrugby.com/club_images/3762.png",
      "address": "The Chasetown Civil Engineering Sportsway, Burntwood, Staffordshire, WS7 3PH, England",
      "postcode": "WS7 3PH",
      "maps_url": "https://www.google.com/maps/search/?api=1&query=The%20Chasetown%20Civil%20Engineering%20Sportsway%0ABurntwood%0AStaffordshire%0AWS7%203PH%0AEngland",
      "latitude": 52.66922479999999,
      "longitude": -1.9345148,
      "formatted_address": "St Patrick's House, Chasetown, Burntwood, Chasetown WS7 3QL, UK",
      "place_id": "ChIJ_Qtg9YygcEgRF1z3OkrMhiQ"
    },
    {
      "name": "Newcastle (Staffs) III",
      "url": "https://www.englandrugby.com/fixtures-and-results/search-results?team=14460",
      "image_url": "https://images.englandrugby.com/club_images/14460.png",
      "address": "Newcastle (staffs) Rufc., The Pavilion, Lilleshall Road, Newcastle-under-lyme, Staffordshire, ST5 3BX, England",
      "postcode": "ST5 3BX",
      "maps_url": "https://www.google.com/maps/search/?api=1&query=Newcastle%20%28staffs%29%20Rufc.%0AThe%20Pavilion%0ALilleshall%20Road%0ANewcastle-under-lyme%0AStaffordshire%0AST5%203BX%0AEngland",
      "latitude": 52.996103,
      "longitude": -2.2161944,
      "formatted_address": "Lilleshall Rd, Newcastle-under-Lyme, Newcastle ST5 3BX, UK",
      "place_id": "ChIJuUC_HnFoekgRQxCC3XsVShs"
    },
    {
      "name": "Essington",
      "url": "https://www.englandrugby.com/fixtures-and-results/search-results?team=7700",
      "image_url": "https://images.englandrugby.com/club_images/7700.png",
      "address": "Essington Rufc Ltd, High Hill, Essington, Wolverhampton, West Midlands, WV11 2DW, United Kingdom",
      "postcode": "WV11 2DW",
      "maps_url": "https://www.google.com/maps/search/?api=1&query=Essington%20Rufc%20Ltd%0AHigh%20Hill%0AEssington%0AWolverhampton%0AWest%20Midlands%0AWV11%202DW%0AUnited%20Kingdom",
      "latitude": 52.623921,
      "longitude": -2.0599684,
      "formatted_address": "High Hill, Essington, Wolverhampton WV11 2DW, UK",
      "place_id": "ChIJk2KzremecEgR2ZzHVFpvfHQ"
    },
    {
      "name": "Stafford II",
      "url": "https://www.englandrugby.com/fixtures-and-results/search-results?team=26664",
      "image_url": "https://images.englandrugby.com/club_images/26664.png",
      "address": "Stafford Rugby Club, The County Ground, Blackberry Lane, Stafford, Staffordshire, ST16 2TT, United Kingdom",
      "postcode": "ST16 2TT",
      "maps_url": "https://www.google.com/maps/search/?api=1&query=Stafford%20Rugby%20Club%0AThe%20County%20Ground%0ABlackberry%20Lane%0AStafford%0AStaffordshire%0AST16%202TT%0AUnited%20Kingdom",
      "latitude": 52.8102888,
      "longitude": -2.1286404,
      "formatted_address": "Blackberry Ln, Stafford ST16 2TR, UK",
      "place_id": "ChIJSzoKMXRxekgROsdrng8Hb0Y"
    },
    {
      "name": "Telford Hornets II",
      "url": "https://www.englandrugby.com/fixtures-and-results/search-results?team=21797",
      "image_url": "https://images.englandrugby.com/club_images/21797.png",
      "address": "Town Park Hinkshay Road Dawley Telford SHROPSHIRE TF4 3NZ UNITED KINGDOM ",
      "postcode": "TF4 3NZ",
      "maps_url": "https://www.google.com/maps/search/?api=1&query=Town%20Park%20Hinkshay%20Road%20Dawley%20Telford%20SHROPSHIRE%20TF4%203NZ%20UNITED%20KINGDOM%20",
      "latitude": 52.6622819,
      "longitude": -2.4463151,
      "formatted_address": "Telford Town Park, Hinkshay Rd, Telford TF3 4EP, UK",
      "place_id": "ChIJjzZ8OoN_cEgRIQ8KLUNqvlA"
    },
    {
      "name": "Aldridge",
      "url": "https://www.englandrugby.com/fixtures-and-results/search-results?team=415",
      "image_url": "https://images.englandrugby.com/club_images/415.png",
      "address": "Bourne Vale, Off Little Hardwick Road, Aldridge, West Midlands, WS9 0SH, United Kingdom",
      "postcode": "WS9 0SH",
      "maps_url": "https://www.google.com/maps/search/?api=1&query=Bourne%20Vale%0AOff%20Little%20Hardwick%20Road%0AAldridge%0AWest%20Midlands%0AWS9%200SH%0AUnited%20Kingdom",
      "latitude": 52.5888942,
      "longitude": -1.9027241,
      "formatted_address": "Little Hardwick Rd, Aldridge WS9 0SQ, UK",
      "place_id": "ChIJc_HOFe6jcEgR1j18SfiLGN4"
    },
    {
      "name": "Linley",
      "url": "https://www.englandrugby.com/fixtures-and-results/search-results?team=12321",
      "image_url": "https://images.englandrugby.com/club_images/12321.png",
      "address": "Kidsgrove Athletic Fc , 15 Hollinwood Road, Kidsgrove, Stoke-on-trent, Staffordshire, ST7 1DQ, United Kingdom",
      "postcode": "ST7 1DQ",
      "maps_url": "https://www.google.com/maps/search/?api=1&query=Kidsgrove%20Athletic%20Fc%20%0A15%20Hollinwood%20Road%0AKidsgrove%0AStoke-on-trent%0AStaffordshire%0AST7%201DQ%0AUnited%20Kingdom",
      "latitude": 53.08091539999999,
      "longitude": -2.251319,
      "formatted_address": "Hollinwood Rd, Kidsgrove, Stoke-on-Trent ST7 1DQ, UK",
      "place_id": "ChIJ0y6Th8RcekgRwcfyO14Q_nM"
    },
    {
      "name": "Trentham II",
      "url": "https://www.englandrugby.com/fixtures-and-results/search-results?team=23126",
      "image_url": "https://images.englandrugby.com/club_images/23126.png",
      "address": "New Inn Lane Trentham Stoke On Trent STAFFORDSHIRE ST4 8BE",
      "postcode": "ST4 8BE",
      "maps_url": "https://www.google.com/maps/search/?api=1&query=New%20Inn%20Lane%20Trentham%20Stoke%20On%20Trent%20STAFFORDSHIRE%20ST4%208BE",
      "latitude": 52.9712163,
      "longitude": -2.1909175,
      "formatted_address": "New Inn Ln, Stoke-on-Trent ST4, UK",
      "place_id": "ChIJbaEEwO1oekgRsIIU1dQBZLM"
    },
    {
      "name": "Stoke on Trent II",
      "url": "https://www.englandrugby.com/fixtures-and-results/search-results?team=21079",
      "image_url": "https://images.englandrugby.com/club_images/21079.png",
      "address": "Stoke On Trent Rufc, Hartwell Lane, Barlaston, Stone, Staffordshire, ST15 8TL, England",
      "postcode": "ST15 8TL",
      "maps_url": "https://www.google.com/maps/search/?api=1&query=Stoke%20On%20Trent%20Rufc%0AHartwell%20Lane%0ABarlaston%0AStone%0AStaffordshire%0AST15%208TL%0AEngland",
      "latitude": 52.946864,
      "longitude": -2.131155,
      "formatted_address": "Hartwell La, Barlaston, Stone ST15 8TL, UK",
      "place_id": "ChIJ63FmKUxpekgRNtXxyKnQPCM"
    }
  ],
  "team_count": 12,
  "success_count": 12
}