{
  "league_name": "Counties 1 Cumbria",
  "league_url": "https://www.englandrugby.com/fixtures-and-results/search-results?competition=1623&division=66671",
  "teams": [
    {
      "name": "Hawcoat Park",
      "url": "https://www.englandrugby.com/fixtures-and-results/search-results?team=9735",
      "image_url": "https://images.englandrugby.com/club_images/9735.png",
      "address": "Hawcoat Park Sports & Social Club, Hawcoat Lane, Barrow In Furness, Cumbria, LA14 4HF, United Kingdom",
      "postcode": "LA14 4HF",
      "maps_url": "https://www.google.com/maps/search/?api=1&query=Hawcoat%20Park%20Sports%20%26%20Social%20Club%0AHawcoat%20Lane%0ABarrow%20In%20Furness%0ACumbria%0ALA14%204HF%0AUnited%20Kingdom",
      "latitude": 54.1341753,
      "longitude": -3.2129306,
      "formatted_address": "Dane Avenue, Employees Social Club, Barrow-in-Furness LA14 4JS, UK",
      "place_id": "ChIJGTGcJUqvfEgRrt6gSwJHsmQ"
    },
    {
      "name": "Carlisle",
      "url": "https://www.englandrugby.com/fixtures-and-results/search-results?team=4206",
      "image_url": "https://images.englandrugby.com/club_images/4206.png",
      "address": "The Rugby Club Warwick Road Carlisle CUMBRIA CA1 1LW UNITED KINGDOM ",
      "postcode": "CA1 1LW",
      "maps_url": "https://www.google.com/maps/search/?api=1&query=The%20Rugby%20Club%20Warwick%20Road%20Carlisle%20CUMBRIA%20CA1%201LW%20UNITED%20KINGDOM%20",
      "latitude": 54.8944182,
      "longitude": -2.9176471,
      "formatted_address": "Warwick Rd, Carlisle CA1 1LW, UK",
      "place_id": "EiBXYXJ3aWNrIFJkLCBDYXJsaXNsZSBDQTEgMUxXLCBVSyIuKiwKFAoSCdHcDvdHGn1IEZgTLiJrbSfEEhQKEgmrqqqsORp9SBEckSSZupXtfA"
    },
    {
      "name": "Kirkby Lonsdale",
      "url": "https://www.englandrugby.com/fixtures-and-results/search-results?team=11718",
      "image_url": "https://images.englandrugby.com/club_images/11718.png",
      "address": "The Clubhouse, Underley Park, Underley Park, Kirkby Lonsdale, Cumbria, LA6 2DS, United Kingdom",
      "postcode": "LA6 2DS",
      "maps_url": "https://www.google.com/maps/search/?api=1&query=The%20Clubhouse%0AUnderley%20Park%0AUnderley%20Park%0AKirkby%20Lonsdale%0ACumbria%0ALA6%202DS%0AUnited%20Kingdom",
      "latitude": 54.2079186,
      "longitude": -2.6029532,
      "formatted_address": "9 Raygarth, Kirkby Lonsdale, Carnforth LA6 2DS, UK",
      "place_id": "ChIJiTyHIUqGfEgRFo8MfqPjfjs"
    },
    {
      "name": "Cockermouth",
      "url": "https://www.englandrugby.com/fixtures-and-results/search-results?team=5361",
      "image_url": "https://images.englandrugby.com/club_images/5361.png",
      "address": "Grasmoor Sports Centre, Strawberry How Strawberry How Lorton Road Cockermouth CUMBRIA CA13 9XQ UNITED KINGDOM ",
      "postcode": "CA13 9XQ",
      "maps_url": "https://www.google.com/maps/search/?api=1&query=Grasmoor%20Sports%20Centre%2C%20Strawberry%20How%20Strawberry%20How%20Lorton%20Road%20Cockermouth%20CUMBRIA%20CA13%209XQ%20UNITED%20KINGDOM%20",
      "latitude": 54.655724,
      "longitude": -3.348662,
      "formatted_address": "Cockermouth CA13 9XQ, UK",
      "place_id": "ChIJiabM763WfEgR6PqqyvNURhg"
    },
    {
      "name": "St Benedicts",
      "url": "https://www.englandrugby.com/fixtures-and-results/search-results?team=20199",
      "image_url": "https://images.englandrugby.com/club_images/20199.png",
      "address": "Newlands Avenue, Mirehouse, Whitehaven, Cumbria, CA28 9SH, United Kingdom",
      "postcode": "CA28 9SH",
      "maps_url": "https://www.google.com/maps/search/?api=1&query=Newlands%20Avenue%0AMirehouse%0AWhitehaven%0ACumbria%0ACA28%209SH%0AUnited%20Kingdom",
      "latitude": 54.5286707,
      "longitude": -3.5793171,
      "formatted_address": "Newlands Ave, Whitehaven CA28 9SH, UK",
      "place_id": "EiVOZXdsYW5kcyBBdmUsIFdoaXRlaGF2ZW4gQ0EyOCA5U0gsIFVLIi4qLAoUChIJS4669Y4xY0gRoYWyse7Wbp8SFAoSCWkYamOOMWNIER2lNmTKb1eh"
    },
    {
      "name": "Whitehaven",
      "url": "https://www.englandrugby.com/fixtures-and-results/search-results?team=25273",
      "image_url": "https://images.englandrugby.com/club_images/25273.png",
      "address": "The Playground Richmond Terrace WHITEHAVEN CUMBRIA CA28 7QR ",
      "postcode": "CA28 7QR",
      "maps_url": "https://www.google.com/maps/search/?api=1&query=The%20Playground%20Richmond%20Terrace%20WHITEHAVEN%20CUMBRIA%20CA28%207QR%20",
      "latitude": 54.5439612,
      "longitude": -3.587384,
      "formatted_address": "Whitehaven CA28 7QP, UK",
      "place_id": "ChIJuX_JdjwxY0gRz8duW7bGzK4"
    },
    {
      "name": "Egremont",
      "url": "https://www.englandrugby.com/fixtures-and-results/search-results?team=7411",
      "image_url": "https://images.englandrugby.com/club_images/7411.png",
      "address": "Bleach Green Egremont CUMBRIA CA22 2NL UNITED KINGDOM ",
      "postcode": "CA22 2NL",
      "maps_url": "https://www.google.com/maps/search/?api=1&query=Bleach%20Green%20Egremont%20CUMBRIA%20CA22%202NL%20UNITED%20KINGDOM%20",
      "latitude": 54.47751479999999,
      "longitude": -3.5282127,
      "formatted_address": "Egremont CA22 2NL, UK",
      "place_id": "ChIJFbePPIwzY0gRega1a5f1fMc"
    },
    {
      "name": "Ambleside",
      "url": "https://www.englandrugby.com/fixtures-and-results/search-results?team=578",
      "image_url": "https://images.englandrugby.com/club_images/578.png",
      "address": "Galava Park, Borrans Road, Ambleside, Cumbria, LA22 0EN, United Kingdom",
      "postcode": "LA22 0EN",
      "maps_url": "https://www.google.com/maps/search/?api=1&query=Galava%20Park%0ABorrans%20Road%0AAmbleside%0ACumbria%0ALA22%200EN%0AUnited%20Kingdom",
      "latitude": 54.4240252,
      "longitude": -2.9672122,
      "formatted_address": "Borrans Rd, Ambleside LA22 0EN, UK",
      "place_id": "ChIJT4OR3uvqfEgR13wQk2DtRsw"
    },
    {
      "name": "Workington",
      "url": "https://www.englandrugby.com/fixtures-and-results/search-results?team=26096",
      "image_url": "https://images.englandrugby.com/club_images/26096.png",
      "address": "Ellis Sports Ground, Moss Bay Road, Workington, Cumbria, CA14 3XZ, United Kingdom",
      "postcode": "CA14 3XZ",
      "maps_url": "https://www.google.com/maps/search/?api=1&query=Ellis%20Sports%20Ground%0AMoss%20Bay%20Road%0AWorkington%0ACumbria%0ACA14%203XZ%0AUnited%20Kingdom",
      "latitude": 54.6336683,
      "longitude": -3.5596783,
      "formatted_address": "Mossbay Rd, Workington CA14 3XZ, UK",
      "place_id": "EiNNb3NzYmF5IFJkLCBXb3JraW5ndG9uIENBMTQgM1haLCBVSyIuKiwKFAoSCZ_ppd4TLGNIEcZgFkiq2Sz-EhQKEgnPV0_lDSxjSBH1QRTRLm1CAw"
    },
    {
      "name": "Creighton",
      "url": "https://www.englandrugby.com/fixtures-and-results/search-results?team=5852",
      "image_url": "https://images.englandrugby.com/club_images/5852.png",
      "address": "Sycamore Lane Parkland Carlisle CUMBRIA CA1 3SR UNITED KINGDOM ",
      "postcode": "CA1 3SR",
      "maps_url": "https://www.google.com/maps/search/?api=1&query=Sycamore%20Lane%20Parkland%20Carlisle%20CUMBRIA%20CA1%203SR%20UNITED%20KINGDOM%20",
      "latitude": 54.875968,
      "longitude": -2.8887685,
      "formatted_address": "Sycamore Ln, Carlisle CA1 3SR, UK",
      "place_id": "EiFTeWNhbW9yZSBMbiwgQ2FybGlzbGUgQ0ExIDNTUiwgVUsiLiosChQKEgmTuwZzqRt9SBEuZ8RqXWNU_RIUChIJxyovC6kbfUgRkerPMNRXFeE"
    },
    {
      "name": "Windermere",
      "url": "https://www.englandrugby.com/fixtures-and-results/search-results?team=25596",
      "image_url": "https://images.englandrugby.com/club_images/25596.png",
      "address": "Clubhouse Dawes Meadow Longlands Bowness on Windermere CUMBRIA LA23 3AS UNITED KINGDOM",
      "postcode": "LA23 3AS",
      "maps_url": "https://www.google.com/maps/search/?api=1&query=Clubhouse%20Dawes%20Meadow%20Longlands%20Bowness%20on%20Windermere%20CUMBRIA%20LA23%203AS%20UNITED%20KINGDOM",
      "latitude": 54.3687867,
      "longitude": -2.9178911,
      "formatted_address": "Longlands Rd, Bowness-on-Windermere, Windermere LA23 3AS, UK",
      "place_id": "EjxMb25nbGFuZHMgUmQsIEJvd25lc3Mtb24tV2luZGVybWVyZSwgV2luZGVybWVyZSBMQTIzIDNBUywgVUsiLiosChQKEgkbqNpb65R8SBHhbgRBRAelXRIUChIJNcxKle2UfEgRG0ylGd6u5IE"
    },
    {
      "name": "Keswick II",
      "url": "https://www.englandrugby.com/fixtures-and-results/search-results?team=11330",
      "image_url": "https://images.englandrugby.com/club_images/11330.png",
      "address": "Davidson Park, Crow Park Road, Keswick, Cumbria, CA12 5EG, United Kingdom",
      "postcode": "CA12 5EG",
      "maps_url": "https://www.google.com/maps/search/?api=1&query=Davidson%20Park%0ACrow%20Park%20Road%0AKeswick%0ACumbria%0ACA12%205EG%0AUnited%20Kingdom",
      "latitude": 54.6003969,
      "longitude": -3.1433348,
      "formatted_address": "Crow Park Rd, Keswick CA12 5EG, UK",
      "place_id": "EiJDcm93IFBhcmsgUmQsIEtlc3dpY2sgQ0ExMiA1RUcsIFVLIi4qLAoUChIJwYor4WTbfEgRvaiYahBBz1MSFAoSCXe3aDll23xIEVU_g0NhuPqb"
    },
    {
      "name": "Penrith II",
      "url": "https://www.englandrugby.com/fixtures-and-results/search-results?team=16687",
      "image_url": "https://images.englandrugby.com/club_images/16687.png",
      "address": "Penrith Rufc, Winters Park, Penrith, Cumbria, CA11 8RQ, United Kingdom",
      "postcode": "CA11 8RQ",
      "maps_url": "https://www.google.com/maps/search/?api=1&query=Penrith%20Rufc%0AWinters%20Park%0APenrith%0ACumbria%0ACA11%208RQ%0AUnited%20Kingdom",
      "latitude": 54.6589951,
      "longitude": -2.7347055,
      "formatted_address": "Winters Pk, Penrith CA11 8RQ, UK",
      "place_id": "ChIJVWVmbI_7fEgRnqVHR9-LAT0"
    },
    {
      "name": "Millom",
      "url": "https://www.englandrugby.com/fixtures-and-results/search-results?team=13890",
      "image_url": "https://images.englandrugby.com/club_images/13890.png",
      "address": "Wilson Park Haverigg Millom CUMBRIA LA18 4ES ENGLAND ",
      "postcode": "LA18 4ES",
      "maps_url": "https://www.google.com/maps/search/?api=1&query=Wilson%20Park%20Haverigg%20Millom%20CUMBRIA%20LA18%204ES%20ENGLAND%20",
      "latitude": 54.1996225,
      "longitude": -3.2935903,
      "formatted_address": "Wilson Ave, Haverigg, Millom LA18, UK",
      "place_id": "ChIJzVZiQA6ufEgRnFHwAQaYESA"
    }
  ],
  "team_count": 14,
  "success_count": 14
}