{
  "league_name": "Counties 2 Tribute Ale Devon",
  "league_url": "https://www.englandrugby.com/fixtures-and-results/search-results?competition=1699&division=66462",
  "teams": [
    {
      "name": "Devonport Services II",
      "url": "https://www.englandrugby.com/fixtures-and-results/search-results?team=6409",
      "image_url": "https://images.englandrugby.com/club_images/6409.png",
      "address": "The Rectory Field 2nd Avenue Plymouth DEVON PL1 5QD UNITED KINGDOM",
      "postcode": "PL1 5QD",
      "maps_url": "https://www.google.com/maps/search/?api=1&query=The%20Rectory%20Field%202nd%20Avenue%20Plymouth%20DEVON%20PL1%205QD%20UNITED%20KINGDOM",
      "latitude": 50.3724205,
      "longitude": -4.1648611,
      "formatted_address": "Second Ave, Stoke, Plymouth PL1 5QD, UK",
      "place_id": "EidTZWNvbmQgQXZlLCBTdG9rZSwgUGx5bW91dGggUEwxIDVRRCwgVUsiLiosChQKEgmBNlMpapNsSBEzHnPEo1VnDhIUChIJSV1sLGqTbEgRwfj_G4v5-OI"
    },
    {
      "name": "Bideford",
      "url": "https://www.englandrugby.com/fixtures-and-results/search-results?team=2153",
      "image_url": "https://images.englandrugby.com/club_images/2153.png",
      "address": "Bideford R.f.c., King George's Field, Riverside, Bank End, Bideford, Devon, EX39 2QS, United Kingdom",
      "postcode": "EX39 2QS",
      "maps_url": "https://www.google.com/maps/search/?api=1&query=Bideford%20R.f.c.%0AKing%20George%27s%20Field%0ARiverside%2C%20Bank%20End%0ABideford%0ADevon%0AEX39%202QS%0AUnited%20Kingdom",
      "latitude": 51.0248769,
      "longitude": -4.2041524,
      "formatted_address": "Bank End, Bideford EX39 2QS, UK",
      "place_id": "ChIJaQOn9Ns9bEgRsfK-SMQyfcM"
    },
    {
      "name": "Exeter Saracens",
      "url": "https://www.englandrugby.com/fixtures-and-results/search-results?team=7777",
      "image_url": "https://images.englandrugby.com/club_images/7777.png",
      "address": "Exeter Saracens, Exhibition Fields, Summer Lane, Whipton, Exeter, Devon, EX4 8NT, England",
      "postcode": "EX4 8NT",
      "maps_url": "https://www.google.com/maps/search/?api=1&query=Exeter%20Saracens%0AExhibition%20Fields%0ASummer%20Lane%0AWhipton%0AExeter%0ADevon%0AEX4%208NT%0AEngland",
      "latitude": 50.73791259999999,
      "longitude": -3.4895553,
      "formatted_address": "Exhibition Fields, Summer Ln, Whipton, Exeter EX4 8NT, UK",
      "place_id": "ChIJNeqDzY6jbUgRM2hhJQYhGew"
    },
    {
      "name": "Topsham II",
      "url": "https://www.englandrugby.com/fixtures-and-results/search-results?team=22935",
      "image_url": "https://images.englandrugby.com/club_images/22935.png",
      "address": "Topsham Rfc, Bonfire Field, Exeter Road, Exeter, Devon, EX3 0LY, United Kingdom",
      "postcode": "EX3 0LY",
      "maps_url": "https://www.google.com/maps/search/?api=1&query=Topsham%20Rfc%0ABonfire%20Field%0AExeter%20Road%0AExeter%0ADevon%0AEX3%200LY%0AUnited%20Kingdom",
      "latitude": 50.6887576,
      "longitude": -3.4703749,
      "formatted_address": "Bonfire Field, Exeter Rd, Topsham, Exeter EX3 0LY, UK",
      "place_id": "ChIJ3ayNkT-hbUgR9Rq5fZc2n-I"
    },
    {
      "name": "Honiton",
      "url": "https://www.englandrugby.com/fixtures-and-results/search-results?team=10355",
      "image_url": "https://images.englandrugby.com/club_images/10355.png",
      "address": "Honiton Rfc, Allhallows Playing Fields, Northcote Lane, Honiton, Devon, EX14 1NH, United Kingdom",
      "postcode": "EX14 1NH",
      "maps_url": "https://www.google.com/maps/search/?api=1&query=Honiton%20Rfc%0AAllhallows%20Playing%20Fields%0ANorthcote%20Lane%0AHoniton%0ADevon%0AEX14%201NH%0AUnited%20Kingdom",
      "latitude": 50.8022802,
      "longitude": -3.1941095,
      "formatted_address": "Alhallows Playing Field, School Ln, Honiton EX14 1QW, UK",
      "place_id": "ChIJj6JUnV-FbUgRz4GPHHK4D14"
    },
    {
      "name": "South Molton",
      "url": "https://www.englandrugby.com/fixtures-and-results/search-results?team=19624",
      "image_url": "https://images.englandrugby.com/club_images/19624.png",
      "address": "Unicorn Park, Station Road, Pathfields, South Molton, Devon, EX363BS, United Kingdom",
      "postcode": "EX363BS",
      "maps_url": "https://www.google.com/maps/search/?api=1&query=Unicorn%20Park%0AStation%20Road%0APathfields%0ASouth%20Molton%0ADevon%0AEX363BS%0AUnited%20Kingdom",
      "latitude": 51.0232951,
      "longitude": -3.8271269,
      "formatted_address": "Station Rd, South Molton EX36, UK",
      "place_id": "EiFTdGF0aW9uIFJkLCBTb3V0aCBNb2x0b24gRVgzNiwgVUsiLiosChQKEgl_kRX3UcttSBFT_M35cMA0nBIUChIJs3eReswybEgRuWCKHgPtpiE"
    },
    {
      "name": "Old Plymothian & Mannamedian",
      "url": "https://www.englandrugby.com/fixtures-and-results/search-results?team=15907",
      "image_url": "https://images.englandrugby.com/club_images/15907.png",
      "address": "Opm Rfc, King George V  Playing Fields, 44 Haye Road, Plymouth, Devon, PL9 8HR, United Kingdom",
      "postcode": "PL9 8HR",
      "maps_url": "https://www.google.com/maps/search/?api=1&query=Opm%20Rfc%2C%20King%20George%20V%20%20Playing%20Fields%0A44%20Haye%20Road%0APlymouth%0ADevon%0APL9%208HR%0AUnited%20Kingdom",
      "latitude": 50.3635428,
      "longitude": -4.065108299999999,
      "formatted_address": "44 Haye Rd, Plymouth PL9 8AR, UK",
      "place_id": "ChIJDR2JRbztbEgRvkPOp2UJUjs"
    },
    {
      "name": "Withycombe",
      "url": "https://www.englandrugby.com/fixtures-and-results/search-results?team=25785",
      "image_url": "https://images.englandrugby.com/club_images/25785.png",
      "address": "Raleigh Park 36, Hulham Road Exmouth DEVON EX8 3HS UNITED KINGDOM ",
      "postcode": "EX8 3HS",
      "maps_url": "https://www.google.com/maps/search/?api=1&query=Raleigh%20Park%2036%2C%20Hulham%20Road%20Exmouth%20DEVON%20EX8%203HS%20UNITED%20KINGDOM%20",
      "latitude": 50.63004220000001,
      "longitude": -3.4058039,
      "formatted_address": "Raleigh Park, 36 Hulham Rd, Exmouth EX8 3HT, UK",
      "place_id": "ChIJP8gG1AmgbUgRxPsV_VnfdXA"
    },
    {
      "name": "Crediton II",
      "url": "https://www.englandrugby.com/fixtures-and-results/search-results?team=5833",
      "image_url": "https://images.englandrugby.com/club_images/5833.png",
      "address": "Crediton R.f.c., Blagdon, Exhibition Road, Crediton, Devon, EX17 1BY, United Kingdom",
      "postcode": "EX17 1BY",
      "maps_url": "https://www.google.com/maps/search/?api=1&query=Crediton%20R.f.c.%0ABlagdon%0AExhibition%20Road%0ACrediton%0ADevon%0AEX17%201BY%0AUnited%20Kingdom",
      "latitude": 50.79249739999999,
      "longitude": -3.6462499,
      "formatted_address": "Exhibition Rd, Crediton EX17 1EP, UK",
      "place_id": "ChIJiyKYsSiwbUgRpXEG0ieGisU"
    },
    {
      "name": "Tavistock",
      "url": "https://www.englandrugby.com/fixtures-and-results/search-results?team=21699",
      "image_url": "https://images.englandrugby.com/club_images/21699.png",
      "address": "Tavistock R.f.c., Sandy Park, Trelawny Road, Tavistock, Devon, PL19 0JL, United Kingdom",
      "postcode": "PL19 0JL",
      "maps_url": "https://www.google.com/maps/search/?api=1&query=Tavistock%20R.f.c.%0ASandy%20Park%0ATrelawny%20Road%0ATavistock%0ADevon%0APL19%200JL%0AUnited%20Kingdom",
      "latitude": 50.5611184,
      "longitude": -4.1447337,
      "formatted_address": "Trelawny Rd, Tavistock PL19 0JL, UK",
      "place_id": "ChIJ91SFBTL1bEgR2biju31lJJI"
    },
    {
      "name": "Ivybridge II",
      "url": "https://www.englandrugby.com/fixtures-and-results/search-results?team=11063",
      "image_url": "https://images.englandrugby.com/club_images/11063.png",
      "address": "Ivybridge R.f.c., Cross-in-hand, Filham, Ivybridge, Devon, PL21 0LR, United Kingdom",
      "postcode": "PL21 0LR",
      "maps_url": "https://www.google.com/maps/search/?api=1&query=Ivybridge%20R.f.c.%0ACross-in-hand%0AFilham%0AIvybridge%0ADevon%0APL21%200LR%0AUnited%20Kingdom",
      "latitude": 50.3894823,
      "longitude": -3.9037041,
      "formatted_address": "Cross-in-Hand, Filham, Ivybridge PL21 0LR, UK",
      "place_id": "ChIJ3aKVU7nlbEgR3SaRGpdhzoA"
    },
    {
      "name": "Dartmouth",
      "url": "https://www.englandrugby.com/fixtures-and-results/search-results?team=6192",
      "image_url": "https://images.englandrugby.com/club_images/6192.png",
      "address": "Dartmouth Rugby Club, C/0 Dartmouth Rowing Club, Sandquay Road, Dartmouth, Devon, TQ6 9PH, United Kingdom",
      "postcode": "TQ6 9PH",
      "maps_url": "https://www.google.com/maps/search/?api=1&query=Dartmouth%20Rugby%20Club%0AC%2F0%20Dartmouth%20Rowing%20Club%0ASandquay%20Road%0ADartmouth%0ADevon%0ATQ6%209PH%0AUnited%20Kingdom",
      "latitude": 50.3579119,
      "longitude": -3.5780153,
      "formatted_address": "Sandquay Rd, Dartmouth TQ6 9PH, UK",
      "place_id": "EiJTYW5kcXVheSBSZCwgRGFydG1vdXRoIFRRNiA5UEgsIFVLIi4qLAoUChIJH8J3BJUZbUgRjxQQ1Zd0NwwSFAoSCdm6fACVGW1IESZuvX5YX3Mk"
    }
  ],
  "team_count": 12,
  "success_count": 12
}