{
  "league_name": "Counties 1 Essex",
  "league_url": "https://www.englandrugby.com/fixtures-and-results/search-results?competition=261&division=66532",
  "teams": [
    {
      "name": "Thurrock",
      "url": "https://www.englandrugby.com/fixtures-and-results/search-results?team=22768",
      "image_url": "https://images.englandrugby.com/club_images/22768.png",
      "address": "Oakfield, Long Lane, Grays, Essex, RM16 2QH, United Kingdom",
      "postcode": "RM16 2QH",
      "maps_url": "https://www.google.com/maps/search/?api=1&query=Oakfield%0ALong%20Lane%0AGrays%0AEssex%0ARM16%202QH%0AUnited%20Kingdom",
      "latitude": 51.4983013,
      "longitude": 0.3526797,
      "formatted_address": "Long Ln, Grays RM16 2QH, UK",
      "place_id": "EhtMb25nIExuLCBHcmF5cyBSTTE2IDJRSCwgVUsiLiosChQKEgkN3nE-mbfYRxFv8eBnae3dphIUChIJN1O6HZe32EcRIhawc56fUVg"
    },
    {
      "name": "Epping Upper Clapton",
      "url": "https://www.englandrugby.com/fixtures-and-results/search-results?team=7624",
      "image_url": "https://images.englandrugby.com/club_images/7624.png",
      "address": "Epping Upper Clapton Rfc, The Clubhouse, Upland Road, Thornwood Common, Nr Epping, Essex, CM16 6NL, United Kingdom",
      "postcode": "CM16 6NL",
      "maps_url": "https://www.google.com/maps/search/?api=1&query=Epping%20Upper%20Clapton%20Rfc%0AThe%20Clubhouse%0AUpland%20Road%0AThornwood%20Common%0ANr%20Epping%0AEssex%0ACM16%206NL%0AUnited%20Kingdom",
      "latitude": 51.724985,
      "longitude": 0.121751,
      "formatted_address": "Upland Rd, Thornwood, Epping CM16 6NL, UK",
      "place_id": "ChIJeUqzHx6Z2EcRtNSKcx9xKRM"
    },
    {
      "name": "Romford & Gidea Park",
      "url": "https://www.englandrugby.com/fixtures-and-results/search-results?team=17957",
      "image_url": "https://images.englandrugby.com/club_images/17957.png",
      "address": "Crowlands Crow Lane Romford ESSEX RM7 0EP UNITED KINGDOM ",
      "postcode": "RM7 0EP",
      "maps_url": "https://www.google.com/maps/search/?api=1&query=Crowlands%20Crow%20Lane%20Romford%20ESSEX%20RM7%200EP%20UNITED%20KINGDOM%20",
      "latitude": 51.5686128,
      "longitude": 0.1638723,
      "formatted_address": "Crow Ln, Romford RM7 0EP, UK",
      "place_id": "EhxDcm93IExuLCBSb21mb3JkIFJNNyAwRVAsIFVLIi4qLAoUChIJxcICyeik2EcRr9n5B_yNra0SFAoSCU1x1BfopNhHEZ44HqAsW5Jt"
    },
    {
      "name": "Campion",
      "url": "https://www.englandrugby.com/fixtures-and-results/search-results?team=4078",
      "image_url": "https://images.englandrugby.com/club_images/4078.png",
      "address": "Cottons Park, Cottons Approach, Romford, ESSEX, RM7 7AA, UNITED KINGDOM, ",
      "postcode": "RM7 7AA",
      "maps_url": "https://www.google.com/maps/search/?api=1&query=Cottons%20Park%0ACottons%20Approach%0ARomford%0AESSEX%0ARM7%207AA%0AUNITED%20KINGDOM%0A",
      "latitude": 51.5761227,
      "longitude": 0.1730468,
      "formatted_address": "Cottons Park, Cottons Approach, Romford RM7 7AA, UK",
      "place_id": "ChIJr_u9vsek2EcR0mtYxgm6II8"
    },
    {
      "name": "East London",
      "url": "https://www.englandrugby.com/fixtures-and-results/search-results?team=7163",
      "image_url": "https://images.englandrugby.com/club_images/7163.png",
      "address": "71 Holland Road, West Ham, London, E15 3BP, United Kingdom",
      "postcode": "E15 3BP",
      "maps_url": "https://www.google.com/maps/search/?api=1&query=71%20Holland%20Road%0AWest%20Ham%0ALondon%0AE15%203BP%0AUnited%20Kingdom",
      "latitude": 51.5291973,
      "longitude": 0.0102894,
      "formatted_address": "71 Holland Rd, London E15 3BP, UK",
      "place_id": "ChIJXw1fv_Gn2EcRlomKeJzqdOM"
    },
    {
      "name": "Billericay",
      "url": "https://www.englandrugby.com/fixtures-and-results/search-results?team=2201",
      "image_url": "https://images.englandrugby.com/club_images/2201.png",
      "address": "Willowbrook Sports & Social Club, Stock Road, Billericay, Essex, CM4 9PQ, United Kingdom",
      "postcode": "CM4 9PQ",
      "maps_url": "https://www.google.com/maps/search/?api=1&query=Willowbrook%20Sports%20%26%20Social%20Club%0AStock%20Road%0ABillericay%0AEssex%0ACM4%209PQ%0AUnited%20Kingdom",
      "latitude": 51.6486984,
      "longitude": 0.4376991,
      "formatted_address": "Willowbrook Recreation Ground, Stock Rd, Stock, Ingatestone CM4 9PQ, UK",
      "place_id": "ChIJVVVVga_B2EcRrcjBql8CZ2E"
    },
    {
      "name": "Maldon",
      "url": "https://www.englandrugby.com/fixtures-and-results/search-results?team=13154",
      "image_url": "https://images.englandrugby.com/club_images/13154.png",
      "address": "Drapers Farm Sports Club Drapers Chase Goldhanger Road Heybridge Essex CM9 4QT UNITED KINGDOM ",
      "postcode": "CM9 4QT",
      "maps_url": "https://www.google.com/maps/search/?api=1&query=Drapers%20Farm%20Sports%20Club%20Drapers%20Chase%20Goldhanger%20Road%20Heybridge%20Essex%20CM9%204QT%20UNITED%20KINGDOM%20",
      "latitude": 51.7406314,
      "longitude": 0.7040887,
      "formatted_address": "Drapers Chase, Heybridge, Maldon CM9 4QT, UK",
      "place_id": "ChIJe8DYCA7h2EcR8gUbkgIonw8"
    },
    {
      "name": "Chingford",
      "url": "https://www.englandrugby.com/fixtures-and-results/search-results?team=4795",
      "image_url": "https://images.englandrugby.com/club_images/4795.png",
      "address": "Lea Valley Playing Fields Waltham Way Chingford London E4 8AQ UNITED KINGDOM ",
      "postcode": "E4 8AQ",
      "maps_url": "https://www.google.com/maps/search/?api=1&query=Lea%20Valley%20Playing%20Fields%20Waltham%20Way%20Chingford%20London%20E4%208AQ%20UNITED%20KINGDOM%20",
      "latitude": 51.63042,
      "longitude": -0.0180395,
      "formatted_address": "Lea Valley Playing Fields, London E4 7SR, UK",
      "place_id": "ChIJ____-zkedkgRCuh6hMDPXjw"
    },
    {
      "name": "Stanford Le Hope",
      "url": "https://www.englandrugby.com/fixtures-and-results/search-results?team=20883",
      "image_url": "https://images.englandrugby.com/club_images/20883.png",
      "address": "SRGUG Clubhouse Stanford Rec. Ground Grove Road Stanford-le-Hope ESSEX SS17 0ED UNITED KINGDOM ",
      "postcode": "SS17 0ED",
      "maps_url": "https://www.google.com/maps/search/?api=1&query=SRGUG%20Clubhouse%20Stanford%20Rec.%20Ground%20Grove%20Road%20Stanford-le-Hope%20ESSEX%20SS17%200ED%20UNITED%20KINGDOM%20",
      "latitude": 51.76683689999999,
      "longitude": 0.4757762,
      "formatted_address": "Essex, UK",
      "place_id": "ChIJ0w2H_idW2EcReVDuRzjLV0I"
    },
    {
      "name": "Upminster",
      "url": "https://www.englandrugby.com/fixtures-and-results/search-results?team=23759",
      "image_url": "https://images.englandrugby.com/club_images/23759.png",
      "address": "Hall Lane Playing Fields Hall Lane Upminster ESSEX RM14 3HL UNITED KINGDOM ",
      "postcode": "RM14 3HL",
      "maps_url": "https://www.google.com/maps/search/?api=1&query=Hall%20Lane%20Playing%20Fields%20Hall%20Lane%20Upminster%20ESSEX%20RM14%203HL%20UNITED%20KINGDOM%20",
      "latitude": 51.5678892,
      "longitude": 0.2603143,
      "formatted_address": "Upminster Hall Playing Fields, Hall Ln, Upminster RM14 1QT, UK",
      "place_id": "ChIJAX9l5se72EcRRFfayaiRwfY"
    }
  ],
  "team_count": 10,
  "success_count": 10
}