{
  "league_name": "Counties 1 Kent",
  "league_url": "https://www.englandrugby.com/fixtures-and-results/search-results?competition=261&division=66541",
  "teams": [
    {
      "name": "Old Elthamians",
      "url": "https://www.englandrugby.com/fixtures-and-results/search-results?team=15658",
      "image_url": "https://images.englandrugby.com/club_images/15658.png",
      "address": "Queen Mary Sports Ground (east Ground), Perry Street, Chislehurst, BR7 6HB, England",
      "postcode": "BR7 6HB",
      "maps_url": "https://www.google.com/maps/search/?api=1&query=Queen%20Mary%20Sports%20Ground%20%28east%20Ground%29%0APerry%20Street%0AChislehurst%0ABR7%206HB%0AEngland",
      "latitude": 51.4164854,
      "longitude": 0.0894752,
      "formatted_address": "Perry St, Chislehurst, UK",
      "place_id": "ChIJe6JLlfar2EcRbDmtVNsu5l8"
    },
    {
      "name": "Dover",
      "url": "https://www.englandrugby.com/fixtures-and-results/search-results?team=6688",
      "image_url": "https://images.englandrugby.com/club_images/6688.png",
      "address": "Dover Rugby Football Club, Crabble Athletic Ground, Crabble Road, River, Dover, Kent, CT17 0JB, United Kingdom",
      "postcode": "CT17 0JB",
      "maps_url": "https://www.google.com/maps/search/?api=1&query=Dover%20Rugby%20Football%20Club%0ACrabble%20Athletic%20Ground%0ACrabble%20Road%2C%20River%0ADover%0AKent%0ACT17%200JB%0AUnited%20Kingdom",
      "latitude": 51.13785069999999,
      "longitude": 1.2869678,
      "formatted_address": "Dover CT17 0JB, UK",
      "place_id": "ChIJPRy_UdG73kcR2QpVTTshfl0"
    },
    {
      "name": "Deal & Betteshanger",
      "url": "https://www.englandrugby.com/fixtures-and-results/search-results?team=6261",
      "image_url": "https://images.englandrugby.com/club_images/6261.png",
      "address": "The Drill Field Canada Road Deal KENT CT14 7EJ UNITED KINGDOM ",
      "postcode": "CT14 7EJ",
      "maps_url": "https://www.google.com/maps/search/?api=1&query=The%20Drill%20Field%20Canada%20Road%20Deal%20KENT%20CT14%207EJ%20UNITED%20KINGDOM%20",
      "latitude": 51.2137526,
      "longitude": 1.3985275,
      "formatted_address": "Canada Rd & Drill Fld, Walmer, Deal CT14 7EJ, UK",
      "place_id": "EjBDYW5hZGEgUmQgJiBEcmlsbCBGbGQsIFdhbG1lciwgRGVhbCBDVDE0IDdFSiwgVUsiZiJkChQKEgmx5oRk2K7eRxFQjsxTgW2EKBIUChIJseaEZNiu3kcRUI7MU4FthCgaFAoSCQ3OfAzYrt5HEfk8syew0TM2GhQKEgkDvjh82K7eRxE1fHUWaptsmSIKDTaZhh4V-2XVAA"
    },
    {
      "name": "Heathfield & Waldron",
      "url": "https://www.englandrugby.com/fixtures-and-results/search-results?team=9826",
      "image_url": "https://images.englandrugby.com/club_images/9826.png",
      "address": "The Hardy Roberts Recreation Ground, Cross-in-hand, Heathfield, East Sussex, TN21 0TA, England",
      "postcode": "TN21 0TA",
      "maps_url": "https://www.google.com/maps/search/?api=1&query=The%20Hardy%20Roberts%20Recreation%20Ground%0ACross-in-hand%0AHeathfield%0AEast%20Sussex%0ATN21%200TA%0AEngland",
      "latitude": 51.052341,
      "longitude": 0.242545,
      "formatted_address": "Recreation Ground, Rotherfield, Crowborough TN6 3NQ, UK",
      "place_id": "ChIJsTfXnlJC30cRRUWuIuxgDBg"
    },
    {
      "name": "Sevenoaks II",
      "url": "https://www.englandrugby.com/fixtures-and-results/search-results?team=19007",
      "image_url": "https://images.englandrugby.com/club_images/19007.png",
      "address": "Knole Paddock Plymouth Drive Sevenoaks KENT TN13 3RP UNITED KINGDOM ",
      "postcode": "TN13 3RP",
      "maps_url": "https://www.google.com/maps/search/?api=1&query=Knole%20Paddock%20Plymouth%20Drive%20Sevenoaks%20KENT%20TN13%203RP%20UNITED%20KINGDOM%20",
      "latitude": 51.2739863,
      "longitude": 0.199947,
      "formatted_address": "75FX+HX Knole Paddock, Sevenoaks TN13 3RP, UK",
      "place_id": "ChIJ1T07Xb9N30cRG9rQvlDNYRc"
    },
    {
      "name": "Ashford",
      "url": "https://www.englandrugby.com/fixtures-and-results/search-results?team=876",
      "image_url": "https://images.englandrugby.com/club_images/876.png",
      "address": "Kinneys Field Canterbury Road, Bybrook Ashford KENT TN24 9QB UNITED KINGDOM ",
      "postcode": "TN24 9QB",
      "maps_url": "https://www.google.com/maps/search/?api=1&query=Kinneys%20Field%20Canterbury%20Road%2C%20Bybrook%20Ashford%20KENT%20TN24%209QB%20UNITED%20KINGDOM%20",
      "latitude": 51.1584477,
      "longitude": 0.8824145,
      "formatted_address": "Bybrook Rd & Canterbury Rd, Ashford TN24 9QB, UK",
      "place_id": "EjBCeWJyb29rIFJkICYgQ2FudGVyYnVyeSBSZCwgQXNoZm9yZCBUTjI0IDlRQiwgVUsiZiJkChQKEgmlRo7SZtreRxHJ1Uq_7GLV9BIUChIJpUaO0mba3kcRydVKv-xi1fQaFAoSCRX5bERk2t5HEXen9Rcy5HToGhQKEgmfpdbrJtDeRxEntY5IhDTAkyIKDd0ofh4VUaWGAA"
    },
    {
      "name": "Beccehamian",
      "url": "https://www.englandrugby.com/fixtures-and-results/search-results?team=1747",
      "image_url": "https://images.englandrugby.com/club_images/1747.png",
      "address": "Sparrows Den Corkscrew Hill West Wickham KENT BR4 9BB UNITED KINGDOM ",
      "postcode": "BR4 9BB",
      "maps_url": "https://www.google.com/maps/search/?api=1&query=Sparrows%20Den%20Corkscrew%20Hill%20West%20Wickham%20KENT%20BR4%209BB%20UNITED%20KINGDOM%20",
      "latitude": 51.36967689999999,
      "longitude": -0.007380800000000001,
      "formatted_address": "Corkscrew Hill, West Wickham BR4 9BB, UK",
      "place_id": "ChIJRZJgQiIAdkgRryCGITROQXg"
    },
    {
      "name": "Crowborough",
      "url": "https://www.englandrugby.com/fixtures-and-results/search-results?team=5917",
      "image_url": "https://images.englandrugby.com/club_images/5917.png",
      "address": "Steel Cross, Green Lane, Crowborough, East Sussex, TN6 2XB, United Kingdom",
      "postcode": "TN6 2XB",
      "maps_url": "https://www.google.com/maps/search/?api=1&query=Steel%20Cross%0AGreen%20Lane%0ACrowborough%0AEast%20Sussex%0ATN6%202XB%0AUnited%20Kingdom",
      "latitude": 51.06207999999999,
      "longitude": 0.1832156,
      "formatted_address": "Steel Cross Venue, Crowborough TN6 2XB, UK",
      "place_id": "ChIJq6qq5tJc30cRzskpDTqswSs"
    },
    {
      "name": "Gillingham Anchorians",
      "url": "https://www.englandrugby.com/fixtures-and-results/search-results?team=8574",
      "image_url": "https://images.englandrugby.com/club_images/8574.png",
      "address": "Anchorians Clubhouse Darland Avenue Gillingham KENT ME7 3AN UNITED KINGDOM ",
      "postcode": "ME7 3AN",
      "maps_url": "https://www.google.com/maps/search/?api=1&query=Anchorians%20Clubhouse%20Darland%20Avenue%20Gillingham%20KENT%20ME7%203AN%20UNITED%20KINGDOM%20",
      "latitude": 51.3699658,
      "longitude": 0.5619637,
      "formatted_address": "Darland Ave, Gillingham ME7 3AN, UK",
      "place_id": "ChIJnfZ8TZ7S2EcR5ACCUhlcmNc"
    },
    {
      "name": "Cranbrook",
      "url": "https://www.englandrugby.com/fixtures-and-results/search-results?team=5760",
      "image_url": "https://images.englandrugby.com/club_images/5760.png",
      "address": "Tomlin Ground Angley Road Cranbrook KENT TN17 2PN UNITED KINGDOM ",
      "postcode": "TN17 2PN",
      "maps_url": "https://www.google.com/maps/search/?api=1&query=Tomlin%20Ground%20Angley%20Road%20Cranbrook%20KENT%20TN17%202PN%20UNITED%20KINGDOM%20",
      "latitude": 51.104082,
      "longitude": 0.5350674,
      "formatted_address": "Tomlin Ground, Angley Rd, Cranbrook TN17 2PN, UK",
      "place_id": "ChIJuTayXl0730cRACC8lMVfKeE"
    },
    {
      "name": "Charlton Park",
      "url": "https://www.englandrugby.com/fixtures-and-results/search-results?team=4416",
      "image_url": "https://images.englandrugby.com/club_images/4416.png",
      "address": "60a Broad Walk Kidbrooke London SE3 8NB UNITED KINGDOM",
      "postcode": "SE3 8NB",
      "maps_url": "https://www.google.com/maps/search/?api=1&query=60a%20Broad%20Walk%20Kidbrooke%20London%20SE3%208NB%20UNITED%20KINGDOM",
      "latitude": 51.4657984,
      "longitude": 0.0363491,
      "formatted_address": "60A Broad Walk, London SE3 8NB, UK",
      "place_id": "ChIJQeYUOq6p2EcRiLOMHAiy4eE"
    },
    {
      "name": "Park House",
      "url": "https://www.englandrugby.com/fixtures-and-results/search-results?team=16583",
      "image_url": "https://images.englandrugby.com/club_images/16583.png",
      "address": "Barnet Wood Road, Hayes, Kent, BR2 7AA, United Kingdom",
      "postcode": "BR2 7AA",
      "maps_url": "https://www.google.com/maps/search/?api=1&query=Barnet%20Wood%20Road%0AHayes%0AKent%0ABR2%207AA%0AUnited%20Kingdom",
      "latitude": 51.3714999,
      "longitude": 0.0313819,
      "formatted_address": "Barnet Wood Rd, Bromley BR2, UK",
      "place_id": "ChIJP-TAEOmq2EcRCKwMKqlnjag"
    }
  ],
  "team_count": 12,
  "success_count": 12
}