{
  "league_name": "Counties 2 Tribute Ale Dorset & Wilts South",
  "league_url": "https://www.englandrugby.com/fixtures-and-results/search-results?competition=1699&division=66485",
  "teams": [
    {
      "name": "Oakmeadians",
      "url": "https://www.englandrugby.com/fixtures-and-results/search-results?team=15295",
      "image_url": "https://images.englandrugby.com/club_images/15295.png",
      "address": "The Pavillion Central Drive Meyrick Park Meyrick Park Bournemouth DORSET BH2 6LJ UNITED KINGDOM ",
      "postcode": "BH2 6LJ",
      "maps_url": "https://www.google.com/maps/search/?api=1&query=The%20Pavillion%20Central%20Drive%20Meyrick%20Park%20Meyrick%20Park%20Bournemouth%20DORSET%20BH2%206LJ%20UNITED%20KINGDOM%20",
      "latitude": 50.7251851,
      "longitude": -1.8840015,
      "formatted_address": "Central Dr, Bournemouth BH2 6LH, UK",
      "place_id": "ChIJYwsQWcChc0gRaqZ_7NaSNpE"
    },
    {
      "name": "Dorchester",
      "url": "https://www.englandrugby.com/fixtures-and-results/search-results?team=6585",
      "image_url": "https://images.englandrugby.com/club_images/6585.png",
      "address": "Dorchester Rfc, Coburg Road, Dorchester, Dorset, DT1 2HX, England",
      "postcode": "DT1 2HX",
      "maps_url": "https://www.google.com/maps/search/?api=1&query=Dorchester%20Rfc%0ACoburg%20Road%0ADorchester%0ADorset%0ADT1%202HX%0AEngland",
      "latitude": 50.7071637,
      "longitude": -2.4594029,
      "formatted_address": "Coburg Rd, Dorchester DT1 2HX, UK",
      "place_id": "ChIJrfC5OsRZckgRWFiUsQG2djo"
    },
    {
      "name": "Bridport",
      "url": "https://www.englandrugby.com/fixtures-and-results/search-results?team=3172",
      "image_url": "https://images.englandrugby.com/club_images/3172.png",
      "address": "Bridport R.f.c., Bridport Leisure Centre, Brewery Fields, Bridport, Dorset, DT6 5LN, United Kingdom",
      "postcode": "DT6 5LN",
      "maps_url": "https://www.google.com/maps/search/?api=1&query=Bridport%20R.f.c.%0ABridport%20Leisure%20Centre%0ABrewery%20Fields%0ABridport%0ADorset%0ADT6%205LN%0AUnited%20Kingdom",
      "latitude": 50.7259505,
      "longitude": -2.7632493,
      "formatted_address": "Brewery Fields, Skilling Hill Rd, Bridport DT6 5LN, UK",
      "place_id": "ChIJFQP8HoFjckgRLqosNvtsX-k"
    },
    {
      "name": "East Dorset Dockers",
      "url": "https://www.englandrugby.com/fixtures-and-results/search-results?team=7118",
      "image_url": "https://images.englandrugby.com/club_images/7118.png",
      "address": "Iford Lane Playing Fields Iford Lane Bournemouth DORSET BH6 5NF UNITED KINGDOM ",
      "postcode": "BH6 5NF",
      "maps_url": "https://www.google.com/maps/search/?api=1&query=Iford%20Lane%20Playing%20Fields%20Iford%20Lane%20Bournemouth%20DORSET%20BH6%205NF%20UNITED%20KINGDOM%20",
      "latitude": 50.7348895,
      "longitude": -1.7985902,
      "formatted_address": "Iford Ln, Bournemouth, UK",
      "place_id": "ChIJ6bZVwMSec0gRskPLarLaGec"
    },
    {
      "name": "Lytchett Minster",
      "url": "https://www.englandrugby.com/fixtures-and-results/search-results?team=13046",
      "image_url": "https://images.englandrugby.com/club_images/13046.png",
      "address": "Lytchett Park Watery Lane Lytchett Minster DORSET BH16 6HZ UNITED KINGDOM ",
      "postcode": "BH16 6HZ",
      "maps_url": "https://www.google.com/maps/search/?api=1&query=Lytchett%20Park%20Watery%20Lane%20Lytchett%20Minster%20DORSET%20BH16%206HZ%20UNITED%20KINGDOM%20",
      "latitude": 50.7368607,
      "longitude": -2.0477184,
      "formatted_address": "Watery Ln, Poole BH16, UK",
      "place_id": "ChIJu6cKegOmc0gRqf2MdYTxs8U"
    },
    {
      "name": "Wimborne II",
      "url": "https://www.englandrugby.com/fixtures-and-results/search-results?team=25551",
      "image_url": "https://images.englandrugby.com/club_images/25551.png",
      "address": "Wimborne RFC Leigh Park Gordon Road Gordon Road Wimborne DORSET BH21 2AP UNITED KINGDOM ",
      "postcode": "BH21 2AP",
      "maps_url": "https://www.google.com/maps/search/?api=1&query=Wimborne%20RFC%20Leigh%20Park%20Gordon%20Road%20Gordon%20Road%20Wimborne%20DORSET%20BH21%202AP%20UNITED%20KINGDOM%20",
      "latitude": 50.7960085,
      "longitude": -1.9719765,
      "formatted_address": "Gordon Rd, Wimborne Minster, Wimborne BH21 2AP, UK",
      "place_id": "ChIJjeglgZykc0gRltK9qLNfjXo"
    },
    {
      "name": "Wheatsheaf Cabin Crew",
      "url": "https://www.englandrugby.com/fixtures-and-results/search-results?team=25199",
      "image_url": "https://images.englandrugby.com/club_images/25199.png",
      "address": "Sports Pavillion And Playing Pitches, Rear Of Salisbury Livestock Market, Salisbury Road, Netherhampton, Salisbury, Wiltshire, SP2 8RH, United Kingdom",
      "postcode": "SP2 8RH",
      "maps_url": "https://www.google.com/maps/search/?api=1&query=Sports%20Pavillion%20And%20Playing%20Pitches%0ARear%20Of%20Salisbury%20Livestock%20Market%0ASalisbury%20Road%2C%20Netherhampton%0ASalisbury%0AWiltshire%0ASP2%208RH%0AUnited%20Kingdom",
      "latitude": 51.0622181,
      "longitude": -1.8347184,
      "formatted_address": "The Livestock Market, 94 Netherhampton Rd, Netherhampton, Salisbury SP2 8RH, UK",
      "place_id": "ChIJceSSy8rrc0gR1l7NIoMmI0Y"
    },
    {
      "name": "Weymouth & Portland",
      "url": "https://www.englandrugby.com/fixtures-and-results/search-results?team=25111",
      "image_url": "https://images.englandrugby.com/club_images/25111.png",
      "address": "Weymouth & Portland RFC Ltd Monmouth Avenue Weymouth DORSET DT3 5HZ UNITED KINGDOM ",
      "postcode": "DT3 5HZ",
      "maps_url": "https://www.google.com/maps/search/?api=1&query=Weymouth%20%26%20Portland%20RFC%20Ltd%20Monmouth%20Avenue%20Weymouth%20DORSET%20DT3%205HZ%20UNITED%20KINGDOM%20",
      "latitude": 50.6325067,
      "longitude": -2.4533146,
      "formatted_address": "Monmouth Ave, Weymouth DT3 5HZ, UK",
      "place_id": "ChIJMRCF_rj3ckgRBi7bGMhRGtA"
    },
    {
      "name": "Yeovil",
      "url": "https://www.englandrugby.com/fixtures-and-results/search-results?team=26435",
      "image_url": "https://images.englandrugby.com/club_images/26435.png",
      "address": "Church Lane, Yeovil, Somerset, BA22 9TR, United Kingdom",
      "postcode": "BA22 9TR",
      "maps_url": "https://www.google.com/maps/search/?api=1&query=Church%20Lane%0AYeovil%0ASomerset%0ABA22%209TR%0AUnited%20Kingdom",
      "latitude": 50.9233143,
      "longitude": -2.6323025,
      "formatted_address": "Church Ln, Yeovil BA22 9TR, UK",
      "place_id": "Eh5DaHVyY2ggTG4sIFllb3ZpbCBCQTIyIDlUUiwgVUsiLiosChQKEglFFYfXwkFySBFpUcf6spjiyBIUChIJkwoBi9xBckgRqh9M6J2RpU0"
    },
    {
      "name": "Puddletown",
      "url": "https://www.englandrugby.com/fixtures-and-results/search-results?team=17249",
      "image_url": "https://images.englandrugby.com/club_images/17249.png",
      "address": "The Clubhouse Enterprise Park Piddlehinton Dorchester DORSET DT2 7UA UNITED KINGDOM ",
      "postcode": "DT2 7UA",
      "maps_url": "https://www.google.com/maps/search/?api=1&query=The%20Clubhouse%20Enterprise%20Park%20Piddlehinton%20Dorchester%20DORSET%20DT2%207UA%20UNITED%20KINGDOM%20",
      "latitude": 50.7646627,
      "longitude": -2.3921558,
      "formatted_address": "Unit 20, Enterprise Park, Piddlehinton, Dorchester DT2 7UA, UK",
      "place_id": "ChIJIwowN4FRckgR89vn_u9krDs"
    },
    {
      "name": "Swanage & W II",
      "url": "https://www.englandrugby.com/fixtures-and-results/search-results?team=21494",
      "image_url": "https://images.englandrugby.com/club_images/21494.png",
      "address": "Swanage & Wareham R.F.C. Bestwall Wareham DORSET BH20 4HY UNITED KINGDOM ",
      "postcode": "BH20 4HY",
      "maps_url": "https://www.google.com/maps/search/?api=1&query=Swanage%20%26%20Wareham%20R.F.C.%20Bestwall%20Wareham%20DORSET%20BH20%204HY%20UNITED%20KINGDOM%20",
      "latitude": 50.6875284,
      "longitude": -2.100463,
      "formatted_address": "Bestwall Rd, Wareham BH20 4HY, UK",
      "place_id": "ChIJwwrNSLGpc0gR1zN2_r8k3QE"
    },
    {
      "name": "Bournemouth III",
      "url": "https://www.englandrugby.com/fixtures-and-results/search-results?team=2793",
      "image_url": "https://images.englandrugby.com/club_images/2793.png",
      "address": "Chapel Gate, East Parley , Christchurch, Dorset, BH23 6BL, United Kingdom",
      "postcode": "BH23 6BL",
      "maps_url": "https://www.google.com/maps/search/?api=1&query=Chapel%20Gate%0AEast%20Parley%20%0AChristchurch%0ADorset%0ABH23%206BL%0AUnited%20Kingdom",
      "latitude": 50.7790599,
      "longitude": -1.8580167,
      "formatted_address": "Chapel Gate, Christchurch BH23 6BL, UK",
      "place_id": "EiZDaGFwZWwgR2F0ZSwgQ2hyaXN0Y2h1cmNoIEJIMjMgNkJMLCBVSyIuKiwKFAoSCW9e86mEmHNIEfC9_MA4pyl0EhQKEglnqirGg5hzSBFxlZNxs1bcug"
    }
  ],
  "team_count": 12,
  "success_count": 12
}