{
  "league_name": "Counties 2 Tribute Ale Berks/Bucks & Oxon East",
  "league_url": "https://www.englandrugby.com/fixtures-and-results/search-results?competition=1699&division=66478",
  "teams": [
    {
      "name": "Beaconsfield II",
      "url": "https://www.englandrugby.com/fixtures-and-results/search-results?team=1704",
      "image_url": "https://images.englandrugby.com/club_images/1704.png",
      "address": "Oak Lodge, Windsor End, Beaconsfield, Buckinghamshire, HP9 2SQ, United Kingdom",
      "postcode": "HP9 2SQ",
      "maps_url": "https://www.google.com/maps/search/?api=1&query=Oak%20Lodge%0AWindsor%20End%0ABeaconsfield%0ABuckinghamshire%0AHP9%202SQ%0AUnited%20Kingdom",
      "latitude": 51.59690149999999,
      "longitude": -0.6328739,
      "formatted_address": "Oak Lodge, Windsor End, Beaconsfield HP9 2SQ, UK",
      "place_id": "ChIJXd9BUCdkdkgRo_UB-T3uFB8"
    },
    {
      "name": "Amersham & Chiltern II",
      "url": "https://www.englandrugby.com/fixtures-and-results/search-results?team=583",
      "image_url": "https://images.englandrugby.com/club_images/583.png",
      "address": "Ash Grove Weedon Lane Chesham Bois Amersham BUCKINGHAMSHIRE HP6 5QU UNITED KINGDOM ",
      "postcode": "HP6 5QU",
      "maps_url": "https://www.google.com/maps/search/?api=1&query=Ash%20Grove%20Weedon%20Lane%20Chesham%20Bois%20Amersham%20BUCKINGHAMSHIRE%20HP6%205QU%20UNITED%20KINGDOM%20",
      "latitude": 51.68193230000001,
      "longitude": -0.6229717,
      "formatted_address": "Ash Grove & Weedon Ln, Amersham HP6 5QX, UK",
      "place_id": "EitBc2ggR3JvdmUgJiBXZWVkb24gTG4sIEFtZXJzaGFtIEhQNiA1UVgsIFVLImYiZAoUChIJ02cKqYBddkgR5WJrEblyx_YSFAoSCdNnCqmAXXZIEeViaxG5csf2GhQKEgnb-YFUh112SBG8mKsfEISwxxoUChIJqUU764BddkgRNjv-XKjJQJAiCg17Cc4eFSvxoP8"
    },
    {
      "name": "Maidenhead II",
      "url": "https://www.englandrugby.com/fixtures-and-results/search-results?team=13107",
      "image_url": "https://images.englandrugby.com/club_images/13107.png",
      "address": "Braywick Park Braywick Road Maidenhead BERKSHIRE SL6 1BN UNITED KINGDOM ",
      "postcode": "SL6 1BN",
      "maps_url": "https://www.google.com/maps/search/?api=1&query=Braywick%20Park%20Braywick%20Road%20Maidenhead%20BERKSHIRE%20SL6%201BN%20UNITED%20KINGDOM%20",
      "latitude": 51.5122075,
      "longitude": -0.7164345999999999,
      "formatted_address": "Braywick Rd, Maidenhead SL6 1BN, UK",
      "place_id": "ChIJz_nEqCx9dkgR9_BrawVGUyo"
    },
    {
      "name": "Milton Keynes",
      "url": "https://www.englandrugby.com/fixtures-and-results/search-results?team=13918",
      "image_url": "https://images.englandrugby.com/club_images/13918.png",
      "address": "Emerson Valley Sports Pavilion, Bowland Drive, Milton Keynes, Buckinghamshire, MK4 2DN, England",
      "postcode": "MK4 2DN",
      "maps_url": "https://www.google.com/maps/search/?api=1&query=Emerson%20Valley%20Sports%20Pavilion%0ABowland%20Drive%0AMilton%20Keynes%0ABuckinghamshire%0AMK4%202DN%0AEngland",
      "latitude": 52.0023087,
      "longitude": -0.7805245,
      "formatted_address": "Bowland Dr, Emerson Valley, Milton Keynes MK4 2DN, UK",
      "place_id": "ChIJhwPp1_P_dkgRwboyUZwGaII"
    },
    {
      "name": "Slough",
      "url": "https://www.englandrugby.com/fixtures-and-results/search-results?team=19514",
      "image_url": "https://images.englandrugby.com/club_images/19514.png",
      "address": "Farnham Common Sports Club, One Pin Lane, Farnham Common, Slough, Berkshire, SL2 3QY, United Kingdom",
      "postcode": "SL2 3QY",
      "maps_url": "https://www.google.com/maps/search/?api=1&query=Farnham%20Common%20Sports%20Club%0AOne%20Pin%20Lane%0AFarnham%20Common%0ASlough%0ABerkshire%0ASL2%203QY%0AUnited%20Kingdom",
      "latitude": 51.5632834,
      "longitude": -0.6125881,
      "formatted_address": "Farnham Common Sports Club, One Pin Ln, Farnham Common, Slough SL2 3QY, UK",
      "place_id": "ChIJ-68G_KxldkgRKWFc8w2h5gk"
    },
    {
      "name": "Chesham",
      "url": "https://www.englandrugby.com/fixtures-and-results/search-results?team=4596",
      "image_url": "https://images.englandrugby.com/club_images/4596.png",
      "address": "Chartridge Golf Club, Chartridge Lane, Chesham, Buckinghamshire, HP5 2TF, United Kingdom",
      "postcode": "HP5 2TF",
      "maps_url": "https://www.google.com/maps/search/?api=1&query=Chartridge%20Golf%20Club%0AChartridge%20Lane%0AChesham%0ABuckinghamshire%0AHP5%202TF%0AUnited%20Kingdom",
      "latitude": 51.7192304,
      "longitude": -0.6430461000000001,
      "formatted_address": "Chartridge Park Golf Course, Chartridge Ln, Chesham HP5 2TF, UK",
      "place_id": "ChIJwX2c6LVddkgRPqADmcNTMtQ"
    },
    {
      "name": "Marlow II",
      "url": "https://www.englandrugby.com/fixtures-and-results/search-results?team=13443",
      "image_url": "https://images.englandrugby.com/club_images/13443.png",
      "address": "Riverwoods Drive Marlow BUCKINGHAMSHIRE SL7 1QU UNITED KINGDOM ",
      "postcode": "SL7 1QU",
      "maps_url": "https://www.google.com/maps/search/?api=1&query=Riverwoods%20Drive%20Marlow%20BUCKINGHAMSHIRE%20SL7%201QU%20UNITED%20KINGDOM%20",
      "latitude": 51.5686389,
      "longitude": -0.7571324,
      "formatted_address": "Riverwoods Dr, Marlow SL7 1QU, UK",
      "place_id": "EiFSaXZlcndvb2RzIERyLCBNYXJsb3cgU0w3IDFRVSwgVUsiLiosChQKEgndSyJIdmJ2SBGuxHFJ8c4mBBIUChIJI_fwN3ZidkgR-kSYlHx0P6E"
    },
    {
      "name": "Reading II",
      "url": "https://www.englandrugby.com/fixtures-and-results/search-results?team=17534",
      "image_url": "https://images.englandrugby.com/club_images/17534.png",
      "address": "Holme Park, Sonning Lane, Reading, Berkshire, RG4 6ST, England",
      "postcode": "RG4 6ST",
      "maps_url": "https://www.google.com/maps/search/?api=1&query=Holme%20Park%0ASonning%20Lane%0AReading%0ABerkshire%0ARG4%206ST%0AEngland",
      "latitude": 51.4663398,
      "longitude": -0.9168451999999999,
      "formatted_address": "Holme Park Farm Ln, Sonning, Reading RG4 6ST, UK",
      "place_id": "ChIJZd4gR-GEdkgRqVjWFNRcLjM"
    },
    {
      "name": "Risborough",
      "url": "https://www.englandrugby.com/fixtures-and-results/search-results?team=17864",
      "image_url": "https://images.englandrugby.com/club_images/17864.png",
      "address": "8 Westmead, Princes Risborough, Buckinghamshire, HP27 9HR, United Kingdom",
      "postcode": "HP27 9HR",
      "maps_url": "https://www.google.com/maps/search/?api=1&query=8%20Westmead%0APrinces%20Risborough%0ABuckinghamshire%0AHP27%209HR%0AUnited%20Kingdom",
      "latitude": 51.7288425,
      "longitude": -0.832567,
      "formatted_address": "8 Westmead, Princes Risborough HP27 9HR, UK",
      "place_id": "ChIJjaAUxF30dkgR7dYHRC2Gk7k"
    },
    {
      "name": "Henley III",
      "url": "https://www.englandrugby.com/fixtures-and-results/search-results?team=9996",
      "image_url": "https://images.englandrugby.com/club_images/9996.png",
      "address": "Dry Leas, Marlow Road, Henley-on-thames, Oxfordshire, RG9 2JA, United Kingdom",
      "postcode": "RG9 2JA",
      "maps_url": "https://www.google.com/maps/search/?api=1&query=Dry%20Leas%0AMarlow%20Road%0AHenley-on-thames%0AOxfordshire%0ARG9%202JA%0AUnited%20Kingdom",
      "latitude": 51.5430685,
      "longitude": -0.9070623999999999,
      "formatted_address": "Henley-on-Thames RG9 2JN, UK",
      "place_id": "ChIJ0aq8eACPdkgRWIyVT7XyK7U"
    },
    {
      "name": "Bracknell III",
      "url": "https://www.englandrugby.com/fixtures-and-results/search-results?team=2893",
      "image_url": "https://images.englandrugby.com/club_images/2893.png",
      "address": "Bracknell Rfc, Lily Hill Park, Lily Hill Drive, Bracknell, Berkshire, RG12 2UG, United Kingdom",
      "postcode": "RG12 2UG",
      "maps_url": "https://www.google.com/maps/search/?api=1&query=Bracknell%20Rfc%0ALily%20Hill%20Park%0ALily%20Hill%20Drive%0ABracknell%0ABerkshire%0ARG12%202UG%0AUnited%20Kingdom",
      "latitude": 51.4135478,
      "longitude": -0.7301215999999999,
      "formatted_address": "Lily Hl Pk, Lily Hl Dr, Bracknell RG12 2UG, UK",
      "place_id": "ChIJq41msmx-dkgRqVYgdUzeWMc"
    }
  ],
  "team_count": 11,
  "success_count": 11
}