{
  "league_name": "Counties 2 Essex",
  "league_url": "https://www.englandrugby.com/fixtures-and-results/search-results?competition=261&division=66533",
  "teams": [
    {
      "name": "Canvey Island",
      "url": "https://www.englandrugby.com/fixtures-and-results/search-results?team=4150",
      "image_url": "https://images.englandrugby.com/club_images/4150.png",
      "address": "Tewkes Creek, Dovervelt Road, Canvey Island, Essex, SS8 8EJ, United Kingdom",
      "postcode": "SS8 8EJ",
      "maps_url": "https://www.google.com/maps/search/?api=1&query=Tewkes%20Creek%0ADovervelt%20Road%0ACanvey%20Island%0AEssex%0ASS8%208EJ%0AUnited%20Kingdom",
      "latitude": 51.5290019,
      "longitude": 0.5933676,
      "formatted_address": "Dovervelt Rd, Canvey Island SS8 8EJ, UK",
      "place_id": "EidEb3ZlcnZlbHQgUmQsIENhbnZleSBJc2xhbmQgU1M4IDhFSiwgVUsiLiosChQKEgnDcv7altrYRxHb7Rm4RbfZthIUChIJAyuagZba2EcRCTinaxxep4g"
    },
    {
      "name": "Burnham-on-Crouch",
      "url": "https://www.englandrugby.com/fixtures-and-results/search-results?team=3700",
      "image_url": "https://images.englandrugby.com/club_images/3700.png",
      "address": "Burnham-on-crouch R.u.f.c., Millfields, Station Road, Burnham On Crouch, Essex , CM0 8HS, United Kingdom",
      "postcode": "CM0 8HS",
      "maps_url": "https://www.google.com/maps/search/?api=1&query=Burnham-on-crouch%20R.u.f.c.%0AMillfields%0AStation%20Road%0ABurnham%20On%20Crouch%0AEssex%20%0ACM0%208HS%0AUnited%20Kingdom",
      "latitude": 51.628011,
      "longitude": 0.8116523999999999,
      "formatted_address": "Millfields, Station Rd, Burnham-on-Crouch CM0 8HS, UK",
      "place_id": "ChIJFbXSzRwh2UcR1fmBeFT3P7M"
    },
    {
      "name": "Old Brentwoods",
      "url": "https://www.englandrugby.com/fixtures-and-results/search-results?team=15448",
      "image_url": "https://images.englandrugby.com/club_images/15448.png",
      "address": "Old Brentwoods RFC Old Brentwoods Club Ashwells Road Pilgrims Hatch Brentwood ESSEX CM15 9SE UNITED KINGDOM ",
      "postcode": "CM15 9SE",
      "maps_url": "https://www.google.com/maps/search/?api=1&query=Old%20Brentwoods%20RFC%20Old%20Brentwoods%20Club%20Ashwells%20Road%20Pilgrims%20Hatch%20Brentwood%20ESSEX%20CM15%209SE%20UNITED%20KINGDOM%20",
      "latitude": 51.6490741,
      "longitude": 0.2750454,
      "formatted_address": "Ashwells Rd, Pilgrims Hatch, Brentwood CM15 9SE, UK",
      "place_id": "ChIJdWs32eO92EcRj_cHRQYibZQ"
    },
    {
      "name": "Basildon",
      "url": "https://www.englandrugby.com/fixtures-and-results/search-results?team=1539",
      "image_url": "https://images.englandrugby.com/club_images/1539.png",
      "address": "Gardiner's Close, Basildon, Essex , SS14 3AW, United Kingdom",
      "postcode": "SS14 3AW",
      "maps_url": "https://www.google.com/maps/search/?api=1&query=Gardiner%27s%20Close%0ABasildon%0AEssex%20%0ASS14%203AW%0AUnited%20Kingdom",
      "latitude": 51.5854137,
      "longitude": 0.4774931,
      "formatted_address": "Gardiners Cl, Basildon SS14 3AW, UK",
      "place_id": "EiNHYXJkaW5lcnMgQ2wsIEJhc2lsZG9uIFNTMTQgM0FXLCBVSyIuKiwKFAoSCc397m0bxNhHEbqRhDHyZINoEhQKEgltBXZ-G8TYRxEGa3cvJsUk_g"
    },
    {
      "name": "Dagenham",
      "url": "https://www.englandrugby.com/fixtures-and-results/search-results?team=6050",
      "image_url": "https://images.englandrugby.com/club_images/6050.png",
      "address": "The Pavillion  Central Park Rainham Road North Dagenham ESSEX RM10 7EJ UNITED KINGDOM ",
      "postcode": "RM10 7EJ",
      "maps_url": "https://www.google.com/maps/search/?api=1&query=The%20Pavillion%20%20Central%20Park%20Rainham%20Road%20North%20Dagenham%20ESSEX%20RM10%207EJ%20UNITED%20KINGDOM%20",
      "latitude": 51.5598221,
      "longitude": 0.1629118,
      "formatted_address": "Central Park (Dagenham), Rainham Rd N, Dagenham RM10 7EU, UK",
      "place_id": "ChIJIZqk-OCk2EcRAwN8oezQIJ4"
    },
    {
      "name": "Kings Cross Steelers",
      "url": "https://www.englandrugby.com/fixtures-and-results/search-results?team=11557",
      "image_url": "https://images.englandrugby.com/club_images/11557.png",
      "address": "East London Rugby Club, 71 Holland Road, London, E15 3BP, United Kingdom",
      "postcode": "E15 3BP",
      "maps_url": "https://www.google.com/maps/search/?api=1&query=East%20London%20Rugby%20Club%0A71%20Holland%20Road%0ALondon%0AE15%203BP%0AUnited%20Kingdom",
      "latitude": 51.5291973,
      "longitude": 0.0102894,
      "formatted_address": "71 Holland Rd, London E15 3BP, UK",
      "place_id": "ChIJXw1fv_Gn2EcRlomKeJzqdOM"
    },
    {
      "name": "Millwall",
      "url": "https://www.englandrugby.com/fixtures-and-results/search-results?team=13906",
      "image_url": "https://images.englandrugby.com/club_images/13906.png",
      "address": "75 Manchester Road, Isle Of Dogs, London, E14 3DN, United Kingdom",
      "postcode": "E14 3DN",
      "maps_url": "https://www.google.com/maps/search/?api=1&query=75%20Manchester%20Road%0AIsle%20Of%20Dogs%0ALondon%0AE14%203DN%0AUnited%20Kingdom",
      "latitude": 51.48777519999999,
      "longitude": -0.0104898,
      "formatted_address": "75 Manchester Rd, London E14 3DN, UK",
      "place_id": "ChIJdR-bFpoCdkgRFD_KNFhHKNU"
    },
    {
      "name": "Witham",
      "url": "https://www.englandrugby.com/fixtures-and-results/search-results?team=25764",
      "image_url": "https://images.englandrugby.com/club_images/25764.png",
      "address": "Witham Rufc, Spa Road, Spa Road, Witham, Essex, CM8 1UN, United Kingdom",
      "postcode": "CM8 1UN",
      "maps_url": "https://www.google.com/maps/search/?api=1&query=Witham%20Rufc%0ASpa%20Road%0ASpa%20Road%0AWitham%0AEssex%0ACM8%201UN%0AUnited%20Kingdom",
      "latitude": 51.8040337,
      "longitude": 0.6260477,
      "formatted_address": "Spa Rd, Witham CM8, UK",
      "place_id": "ChIJwxIep1bk2EcRMXvoAk-yglI"
    },
    {
      "name": "Clacton",
      "url": "https://www.englandrugby.com/fixtures-and-results/search-results?team=5113",
      "image_url": "https://images.englandrugby.com/club_images/5113.png",
      "address": "Not For Post, Rugby Clubhouse, Recreation Ground, Valley Road, Clacton-on-sea, CO15 6NA, United Kingdom",
      "postcode": "CO15 6NA",
      "maps_url": "https://www.google.com/maps/search/?api=1&query=Not%20For%20Post%0ARugby%20Clubhouse%0ARecreation%20Ground%0AValley%20Road%0AClacton-on-sea%0ACO15%206NA%0AUnited%20Kingdom",
      "latitude": 51.8027797,
      "longitude": 1.162987,
      "formatted_address": "Valley Rd, Clacton-on-Sea CO15 6NA, UK",
      "place_id": "EiZWYWxsZXkgUmQsIENsYWN0b24tb24tU2VhIENPMTUgNk5BLCBVSyIuKiwKFAoSCXvs2x7YbNlHEbtHNbAqTJX1EhQKEglzVzSI12zZRxGJat6vW15okQ"
    },
    {
      "name": "Kelvedon and Feering",
      "url": "https://www.englandrugby.com/fixtures-and-results/search-results?team=124853",
      "image_url": "https://images.englandrugby.com/club_images/124853.png",
      "address": "Rye Mill Lane, Feering, Colchester, Essex , CO5 9SB, United Kingdom",
      "postcode": "CO5 9SB",
      "maps_url": "https://www.google.com/maps/search/?api=1&query=Rye%20Mill%20Lane%0AFeering%0AColchester%0AEssex%20%0ACO5%209SB%0AUnited%20Kingdom",
      "latitude": 51.8466892,
      "longitude": 0.7113412,
      "formatted_address": "Rye Mill Ln, Feering, Colchester CO5 9SB, UK",
      "place_id": "EixSeWUgTWlsbCBMbiwgRmVlcmluZywgQ29sY2hlc3RlciBDTzUgOVNCLCBVSyIuKiwKFAoSCYEZCMMr49hHEdywmqAz7k_KEhQKEgnLy21jLOPYRxGk9aR_FdN5tw"
    },
    {
      "name": "Writtle Wanderers",
      "url": "https://www.englandrugby.com/fixtures-and-results/search-results?team=26200",
      "image_url": "https://images.englandrugby.com/club_images/26200.png",
      "address": "Writtle Sports & Social Club, Paradise Road, Writtle, Chelmsford, Essex , CM1 3HP, United Kingdom",
      "postcode": "CM1 3HP",
      "maps_url": "https://www.google.com/maps/search/?api=1&query=Writtle%20Sports%20%26%20Social%20Club%0AParadise%20Road%0AWrittle%0AChelmsford%0AEssex%20%0ACM1%203HP%0AUnited%20Kingdom",
      "latitude": 51.7244071,
      "longitude": 0.4323271,
      "formatted_address": "Paradise Road, Writtle, CM1 3HP, Writtle, Chelmsford CM1 3HW, UK",
      "place_id": "ChIJd4aFx1Tq2EcRyud1rHBt10s"
    },
    {
      "name": "Harwich & Dovercourt",
      "url": "https://www.englandrugby.com/fixtures-and-results/search-results?team=9612",
      "image_url": "https://images.englandrugby.com/club_images/9612.png",
      "address": "Wick Lane, Dovercourt, Harwich, CO12 3TA, United Kingdom",
      "postcode": "CO12 3TA",
      "maps_url": "https://www.google.com/maps/search/?api=1&query=Wick%20Lane%0ADovercourt%0AHarwich%0ACO12%203TA%0AUnited%20Kingdom",
      "latitude": 51.927712,
      "longitude": 1.2675006,
      "formatted_address": "Wick Ln, Harwich CO12 3TA, UK",
      "place_id": "Eh1XaWNrIExuLCBIYXJ3aWNoIENPMTIgM1RBLCBVSyIuKiwKFAoSCY_rw3ZNcdlHEWc7G46Pyc2hEhQKEgn3om15TXHZRxGHXi91p4HG0w"
    }
  ],
  "team_count": 12,
  "success_count": 12
}