{
  "league_name": "Counties 2 Tribute Ale Berks/Bucks & Oxon West",
  "league_url": "https://www.englandrugby.com/fixtures-and-results/search-results?competition=1699&division=66479",
  "teams": [
    {
      "name": "Banbury II",
      "url": "https://www.englandrugby.com/fixtures-and-results/search-results?team=1271",
      "image_url": "https://images.englandrugby.com/club_images/1271.png",
      "address": "Bodicote Park, Oxford Road, Banbury, Oxfd, OX15 4AF, United Kingdom",
      "postcode": "OX15 4AF",
      "maps_url": "https://www.google.com/maps/search/?api=1&query=Bodicote%20Park%0AOxford%20Road%0ABanbury%0AOxfd%0AOX15%204AF%0AUnited%20Kingdom",
      "latitude": 52.0358604,
      "longitude": -1.3192036,
      "formatted_address": "Bodicote Park, Oxford Rd, Bodicote, Banbury OX15 4BD, UK",
      "place_id": "ChIJgZL6paInd0gRisb0BVslYLY"
    },
    {
      "name": "Didcot",
      "url": "https://www.englandrugby.com/fixtures-and-results/search-results?team=6428",
      "image_url": "https://images.englandrugby.com/club_images/6428.png",
      "address": "Boundary Park, Greenwood Way, Harwell, Didcot, Oxfordshire, OX11 0AB, United Kingdom",
      "postcode": "OX11 0AB",
      "maps_url": "https://www.google.com/maps/search/?api=1&query=Boundary%20Park%0AGreenwood%20Way%0AHarwell%0ADidcot%0AOxfordshire%0AOX11%200AB%0AUnited%20Kingdom",
      "latitude": 51.60802229999999,
      "longitude": -1.2695921,
      "formatted_address": "Greenwood Way, Didcot OX11 6EY, UK",
      "place_id": "ChIJT5O76W65dkgRlKL99YfuSrA"
    },
    {
      "name": "Chipping Norton",
      "url": "https://www.englandrugby.com/fixtures-and-results/search-results?team=4868",
      "image_url": "https://images.englandrugby.com/club_images/4868.png",
      "address": "Chipping Norton Rugby Club, Greystones, Burford Road, Chipping Norton, Oxfordshire, OX7 5UY, United Kingdom",
      "postcode": "OX7 5UY",
      "maps_url": "https://www.google.com/maps/search/?api=1&query=Chipping%20Norton%20Rugby%20Club%0AGreystones%0ABurford%20Road%0AChipping%20Norton%0AOxfordshire%0AOX7%205UY%0AUnited%20Kingdom",
      "latitude": 51.9301591,
      "longitude": -1.5408486,
      "formatted_address": "Greystones, Burford Rd, Chipping Norton OX7 5UY, UK",
      "place_id": "ChIJY2AR_anUdkgRZAqSesumrMU"
    },
    {
      "name": "Grove",
      "url": "https://www.englandrugby.com/fixtures-and-results/search-results?team=9005",
      "image_url": "https://images.englandrugby.com/club_images/9005.png",
      "address": "Recreation Lane, Grove, Wantage, Oxfordshire, OX12 0AA, United Kingdom",
      "postcode": "OX12 0AA",
      "maps_url": "https://www.google.com/maps/search/?api=1&query=Recreation%20Lane%0AGrove%0AWantage%0AOxfordshire%0AOX12%200AA%0AUnited%20Kingdom",
      "latitude": 51.6041063,
      "longitude": -1.4283073,
      "formatted_address": "Recreation Ln, Grove, Wantage OX12, UK",
      "place_id": "ChIJ12pAzaW2dkgRMP1pFTalhLg"
    },
    {
      "name": "Tadley",
      "url": "https://www.englandrugby.com/fixtures-and-results/search-results?team=21606",
      "image_url": "https://images.englandrugby.com/club_images/21606.png",
      "address": "Frank Jose Park, Red Lane, Aldermaston, Berkshire, RG7 4PA, United Kingdom",
      "postcode": "RG7 4PA",
      "maps_url": "https://www.google.com/maps/search/?api=1&query=Frank%20Jose%20Park%0ARed%20Lane%0AAldermaston%0ABerkshire%0ARG7%204PA%0AUnited%20Kingdom",
      "latitude": 51.371588,
      "longitude": -1.1226491,
      "formatted_address": "Red Ln, Aldermaston, Reading RG7 4PA, UK",
      "place_id": "EihSZWQgTG4sIEFsZGVybWFzdG9uLCBSZWFkaW5nIFJHNyA0UEEsIFVLIi4qLAoUChIJI2Tog4afdkgRLa-C_12HnpcSFAoSCXk-tBiQn3ZIEYA6wfwyq3Uq"
    },
    {
      "name": "Hungerford",
      "url": "https://www.englandrugby.com/fixtures-and-results/search-results?team=10697",
      "image_url": "https://images.englandrugby.com/club_images/10697.png",
      "address": "Hungerford Rfc Clubhouse, Triangle Field, Priory Road, Hungerford, Berkshire, RG170AP, United Kingdom",
      "postcode": "RG170AP",
      "maps_url": "https://www.google.com/maps/search/?api=1&query=Hungerford%20Rfc%20Clubhouse%0ATriangle%20Field%0APriory%20Road%0AHungerford%0ABerkshire%0ARG170AP%0AUnited%20Kingdom",
      "latitude": 51.4041061,
      "longitude": -1.511729,
      "formatted_address": "Priory Rd, Hungerford RG17 0AP, UK",
      "place_id": "ChIJk0Hda0mrdkgRG5d4ROSn7Tc"
    },
    {
      "name": "Abingdon",
      "url": "https://www.englandrugby.com/fixtures-and-results/search-results?team=244",
      "image_url": "https://images.englandrugby.com/club_images/244.png",
      "address": "Southern Sports Park Lambrick Way Abingdon OXFORDSHIRE OX14 5TJ UNITED KINGDOM ",
      "postcode": "OX14 5TJ",
      "maps_url": "https://www.google.com/maps/search/?api=1&query=Southern%20Sports%20Park%20Lambrick%20Way%20Abingdon%20OXFORDSHIRE%20OX14%205TJ%20UNITED%20KINGDOM%20",
      "latitude": 51.657537,
      "longitude": -1.2871236,
      "formatted_address": "Lambrick Way, Abingdon OX14 5TJ, UK",
      "place_id": "EiNMYW1icmljayBXYXksIEFiaW5nZG9uIE9YMTQgNVRKLCBVSyIuKiwKFAoSCY_1VrKLuHZIEadCeOdAx_0JEhQKEgmXpiH9irh2SBF4IuIaSUy4lw"
    },
    {
      "name": "Faringdon",
      "url": "https://www.englandrugby.com/fixtures-and-results/search-results?team=7946",
      "image_url": "https://images.englandrugby.com/club_images/7946.png",
      "address": "Sports Pavilion, Folly Sports Park, Stanford Road, Faringdon, Oxfordshire, SN7 7AQ, England",
      "postcode": "SN7 7AQ",
      "maps_url": "https://www.google.com/maps/search/?api=1&query=Sports%20Pavilion%0AFolly%20Sports%20Park%0AStanford%20Road%0AFaringdon%0AOxfordshire%0ASN7%207AQ%0AEngland",
      "latitude": 51.6575087,
      "longitude": -1.5780993,
      "formatted_address": "Stanford Rd, Faringdon SN7 7AQ, UK",
      "place_id": "EiJTdGFuZm9yZCBSZCwgRmFyaW5nZG9uIFNONyA3QVEsIFVLIi4qLAoUChIJr6jkqepKcUgRAUpAiB_MVjISFAoSCZ8dxHiJSnFIEeivo0kyHLTx"
    },
    {
      "name": "Witney II",
      "url": "https://www.englandrugby.com/fixtures-and-results/search-results?team=25807",
      "image_url": "https://images.englandrugby.com/club_images/25807.png",
      "address": "Hailey Road, Witney, Oxfordshire, OX29 9UH, United Kingdom",
      "postcode": "OX29 9UH",
      "maps_url": "https://www.google.com/maps/search/?api=1&query=Hailey%20Road%0AWitney%0AOxfordshire%0AOX29%209UH%0AUnited%20Kingdom",
      "latitude": 51.8055608,
      "longitude": -1.4863863,
      "formatted_address": "Hailey Rd, Hailey, Witney OX29 9UH, UK",
      "place_id": "EiZIYWlsZXkgUmQsIEhhaWxleSwgV2l0bmV5IE9YMjkgOVVILCBVSyIuKiwKFAoSCduA8HOrzXZIEcmdtMhaHduLEhQKEglZPMTzq812SBGYO-DrQUs-zw"
    },
    {
      "name": "Newbury II",
      "url": "https://www.englandrugby.com/fixtures-and-results/search-results?team=14434",
      "image_url": "https://images.englandrugby.com/club_images/14434.png",
      "address": "Newbury Rfc Ltd, Monks Lane, Newbury, Berkshire, RG14 7RW, United Kingdom",
      "postcode": "RG14 7RW",
      "maps_url": "https://www.google.com/maps/search/?api=1&query=Newbury%20Rfc%20Ltd%0AMonks%20Lane%0ANewbury%0ABerkshire%0ARG14%207RW%0AUnited%20Kingdom",
      "latitude": 51.38111869999999,
      "longitude": -1.3334627,
      "formatted_address": "Monks Lane, Newbury RG14 7RW, UK",
      "place_id": "ChIJq2Kijn2odkgR2lXCT9qwjeU"
    }
  ],
  "team_count": 10,
  "success_count": 10
}