{
  "league_name": "Counties 4 Hampshire",
  "league_url": "https://www.englandrugby.com/fixtures-and-results/search-results?competition=261&division=66537",
  "teams": [
    {
      "name": "Fawley",
      "url": "https://www.englandrugby.com/fixtures-and-results/search-results?team=8026",
      "image_url": "https://images.englandrugby.com/club_images/8026.png",
      "address": "Fawley Rfc, Newlands Road, Fawley, Southampton, Hampshire, SO45 1GA, United Kingdom",
      "postcode": "SO45 1GA",
      "maps_url": "https://www.google.com/maps/search/?api=1&query=Fawley%20Rfc%0ANewlands%20Road%0AFawley%0ASouthampton%0AHampshire%0ASO45%201GA%0AUnited%20Kingdom",
      "latitude": 50.8237119,
      "longitude": -1.3708628,
      "formatted_address": "Newlands Rd, Southampton SO45 1GA, UK",
      "place_id": "ChIJA2OgUgZ6dEgRLdHP1t8o4IM"
    },
    {
      "name": "Basingstoke II",
      "url": "https://www.englandrugby.com/fixtures-and-results/search-results?team=1568",
      "image_url": "https://images.englandrugby.com/club_images/1568.png",
      "address": "Down Grange, Pack Lane, Kempshott, Basingstoke, Hampshire, RG22 5HH, England",
      "postcode": "RG22 5HH",
      "maps_url": "https://www.google.com/maps/search/?api=1&query=Down%20Grange%0APack%20Lane%0AKempshott%0ABasingstoke%0AHampshire%0ARG22%205HH%0AEngland",
      "latitude": 51.2482817,
      "longitude": -1.1265955,
      "formatted_address": "75-83 Pack Ln, Basingstoke RG22 5SN, UK",
      "place_id": "ChIJsSIexAcidEgRc46DizMmm2g"
    },
    {
      "name": "Lymington Mariners",
      "url": "https://www.englandrugby.com/fixtures-and-results/search-results?team=13007",
      "image_url": "https://images.englandrugby.com/club_images/13007.png",
      "address": "Woodside Park, Woodside Gardens, Rookes Lane, Lymington, Hampshire, SO41 8FP, United Kingdom",
      "postcode": "SO41 8FP",
      "maps_url": "https://www.google.com/maps/search/?api=1&query=Woodside%20Park%0AWoodside%20Gardens%0ARookes%20Lane%0ALymington%0AHampshire%0ASO41%208FP%0AUnited%20Kingdom",
      "latitude": 50.7495767,
      "longitude": -1.546714,
      "formatted_address": "Woodside Park, Lymington, 17 Rookes Ln, Lymington SO41 8FP, UK",
      "place_id": "ChIJdURtnzOBc0gRgEZDMk9PBR0"
    },
    {
      "name": "Alresford",
      "url": "https://www.englandrugby.com/fixtures-and-results/search-results?team=505",
      "image_url": "https://images.englandrugby.com/club_images/505.png",
      "address": "Alresford Recreation Centre, Arlebury Park, The Avenue, Alresford, Hampshire, SO24 9EP, United Kingdom",
      "postcode": "SO24 9EP",
      "maps_url": "https://www.google.com/maps/search/?api=1&query=Alresford%20Recreation%20Centre%0AArlebury%20Park%0AThe%20Avenue%0AAlresford%0AHampshire%0ASO24%209EP%0AUnited%20Kingdom",
      "latitude": 51.0893127,
      "longitude": -1.173162,
      "formatted_address": "Arlebury Park, The Avenue, Alresford SO24 9EP, UK",
      "place_id": "ChIJJXCkhyoUdEgRBvxxaVby3rQ"
    },
    {
      "name": "Millbrook II",
      "url": "https://www.englandrugby.com/fixtures-and-results/search-results?team=124635",
      "image_url": "https://images.englandrugby.com/club_images/124635.png",
      "address": "Lordshill Recreation Ground Redbridge Lane, Lordshill Southampton HAMPSHIRE SO16 9BP UNITED KINGDOM ",
      "postcode": "SO16 9BP",
      "maps_url": "https://www.google.com/maps/search/?api=1&query=Lordshill%20Recreation%20Ground%20Redbridge%20Lane%2C%20Lordshill%20Southampton%20HAMPSHIRE%20SO16%209BP%20UNITED%20KINGDOM%20",
      "latitude": 50.9383679,
      "longitude": -1.4650647,
      "formatted_address": "Redbridge Ln, Southampton SO16, UK",
      "place_id": "ChIJX4luQ8F1dEgR_jwckm3Kb1s"
    },
    {
      "name": "Farnham III",
      "url": "https://www.englandrugby.com/fixtures-and-results/search-results?team=7988",
      "image_url": "https://images.englandrugby.com/club_images/7988.png",
      "address": "Farnham Rufc, Wilkinson Way, Monkton Lane, Farnham, Surrey , GU9 9ND, United Kingdom",
      "postcode": "GU9 9ND",
      "maps_url": "https://www.google.com/maps/search/?api=1&query=Farnham%20Rufc%0AWilkinson%20Way%0AMonkton%20Lane%0AFarnham%0ASurrey%20%0AGU9%209ND%0AUnited%20Kingdom",
      "latitude": 51.2269266,
      "longitude": -0.7751568,
      "formatted_address": "Monkton Ln, Farnham GU9 9ND, UK",
      "place_id": "ChIJOX2MYOYsdEgRAGCvqmR6Kw4"
    },
    {
      "name": "Hook and Odiham",
      "url": "https://www.englandrugby.com/fixtures-and-results/search-results?team=10374",
      "image_url": "https://images.englandrugby.com/club_images/10374.png",
      "address": "Hook And Odiham Rfc, Papermill Avenue, Hook, Hampshire, RG27 9QU, United Kingdom",
      "postcode": "RG27 9QU",
      "maps_url": "https://www.google.com/maps/search/?api=1&query=Hook%20And%20Odiham%20Rfc%0APapermill%20Avenue%0AHook%0AHampshire%0ARG27%209QU%0AUnited%20Kingdom",
      "latitude": 51.28835300000001,
      "longitude": -0.948386,
      "formatted_address": "Papermill Ave, Hook RG27 9QU, UK",
      "place_id": "ChIJtQX4JzYndEgRqNsN2QT6tZI"
    },
    {
      "name": "Nomads",
      "url": "https://www.englandrugby.com/fixtures-and-results/search-results?team=14648",
      "image_url": "https://images.englandrugby.com/club_images/14648.png",
      "address": "Cockleshell Community Sports Ground, Cockleshell Gardens, Southsea, Hampshire, PO4 9SA, United Kingdom",
      "postcode": "PO4 9SA",
      "maps_url": "https://www.google.com/maps/search/?api=1&query=Cockleshell%20Community%20Sports%20Ground%0ACockleshell%20Gardens%0ASouthsea%0AHampshire%0APO4%209SA%0AUnited%20Kingdom",
      "latitude": 50.7875933,
      "longitude": -1.0495798,
      "formatted_address": "Cockleshell Gardens, Southsea, Portsmouth, Southsea PO4 9SA, UK",
      "place_id": "ChIJRTZWfbdddEgRlkDMMMCQ380"
    },
    {
      "name": "Chineham",
      "url": "https://www.englandrugby.com/fixtures-and-results/search-results?team=4791",
      "image_url": "https://images.englandrugby.com/club_images/4791.png",
      "address": "Basingstoke Sports & Social Club May's Bounty Cricket Ground Fairfields Road Basingstoke HAMPSHIRE RG21 3DR UNITED KINGDOM ",
      "postcode": "RG21 3DR",
      "maps_url": "https://www.google.com/maps/search/?api=1&query=Basingstoke%20Sports%20%26%20Social%20Club%20May%27s%20Bounty%20Cricket%20Ground%20Fairfields%20Road%20Basingstoke%20HAMPSHIRE%20RG21%203DR%20UNITED%20KINGDOM%20",
      "latitude": 51.2590217,
      "longitude": -1.09072,
      "formatted_address": "Fairfields Rd, Basingstoke RG21 3DR, UK",
      "place_id": "ChIJ52cmI4chdEgRx-AjrQNZWdE"
    },
    {
      "name": "Gosport & Fareham II",
      "url": "https://www.englandrugby.com/fixtures-and-results/search-results?team=8811",
      "image_url": "https://images.englandrugby.com/club_images/8811.png",
      "address": "Gosport Park, Dolphin Crescent, Gosport, Hampshire, PO12 2HE, United Kingdom",
      "postcode": "PO12 2HE",
      "maps_url": "https://www.google.com/maps/search/?api=1&query=Gosport%20Park%0ADolphin%20Crescent%0AGosport%0AHampshire%0APO12%202HE%0AUnited%20Kingdom",
      "latitude": 50.7870398,
      "longitude": -1.1357327,
      "formatted_address": "Gosport Park, Dolphin Cres, Gosport PO12 2HE, UK",
      "place_id": "ChIJFQkUjRJndEgRmrgMIesUkeA"
    }
  ],
  "team_count": 10,
  "success_count": 10
}