{
  "league_name": "Counties 2 Kent",
  "league_url": "https://www.englandrugby.com/fixtures-and-results/search-results?competition=261&division=66542",
  "teams": [
    {
      "name": "Tonbridge Juddians II",
      "url": "https://www.englandrugby.com/fixtures-and-results/search-results?team=22916",
      "image_url": "https://images.englandrugby.com/club_images/22916.png",
      "address": "Tonbridge Juddians Rfc, The Clubhouse, The Slade, Tonbridge, Kent , TN9 1HR, United Kingdom",
      "postcode": "TN9 1HR",
      "maps_url": "https://www.google.com/maps/search/?api=1&query=Tonbridge%20Juddians%20Rfc%0AThe%20Clubhouse%0AThe%20Slade%0ATonbridge%0AKent%20%0ATN9%201HR%0AUnited%20Kingdom",
      "latitude": 51.1975883,
      "longitude": 0.2705978,
      "formatted_address": "The Slade, Tonbridge TN9 1HR, UK",
      "place_id": "ChIJ8QqWh0lP30cRWjoaEnVU3mw"
    },
    {
      "name": "Thanet Wanderers",
      "url": "https://www.englandrugby.com/fixtures-and-results/search-results?team=21901",
      "image_url": "https://images.englandrugby.com/club_images/21901.png",
      "address": "Thanet Wanderers RUFC St. Peters Recreation Ground Callis Court Road Broadstairs KENT CT10 3AE UNITED KINGDOM ",
      "postcode": "CT10 3AE",
      "maps_url": "https://www.google.com/maps/search/?api=1&query=Thanet%20Wanderers%20RUFC%20St.%20Peters%20Recreation%20Ground%20Callis%20Court%20Road%20Broadstairs%20KENT%20CT10%203AE%20UNITED%20KINGDOM%20",
      "latitude": 51.3677526,
      "longitude": 1.4290627,
      "formatted_address": "Callis Ct Rd, Broadstairs CT10 3AE, UK",
      "place_id": "ChIJdYNvk5pU2UcR-vhVaM-Y088"
    },
    {
      "name": "Westcombe Park II",
      "url": "https://www.englandrugby.com/fixtures-and-results/search-results?team=24981",
      "image_url": "https://images.englandrugby.com/club_images/24981.png",
      "address": "Westcombe Park RFC Goddington Dene Goddington Lane Orpington KENT BR6 9SX UNITED KINGDOM ",
      "postcode": "BR6 9SX",
      "maps_url": "https://www.google.com/maps/search/?api=1&query=Westcombe%20Park%20RFC%20Goddington%20Dene%20Goddington%20Lane%20Orpington%20KENT%20BR6%209SX%20UNITED%20KINGDOM%20",
      "latitude": 51.3636876,
      "longitude": 0.1144741,
      "formatted_address": "Goddington Dene Sports Ground, Goddington Ln, Goddington, Orpington BR6 9SX, UK",
      "place_id": "ChIJT7wrq8Cs2EcRuVlAPR_4UVc"
    },
    {
      "name": "Folkestone",
      "url": "https://www.englandrugby.com/fixtures-and-results/search-results?team=8214",
      "image_url": "https://images.englandrugby.com/club_images/8214.png",
      "address": "Folkestone Rugby Club, New Burlington Field, Bargrove, Newington, Folkestone, Kent, CT18 8BH, United Kingdom",
      "postcode": "CT18 8BH",
      "maps_url": "https://www.google.com/maps/search/?api=1&query=Folkestone%20Rugby%20Club%0ANew%20Burlington%20Field%0ABargrove%0ANewington%0AFolkestone%0AKent%0ACT18%208BH%0AUnited%20Kingdom",
      "latitude": 51.090565,
      "longitude": 1.101701,
      "formatted_address": "New Burlington Ground, Newington, Folkestone CT18 8BH, UK",
      "place_id": "ChIJj61furTA3kcRLoUwgZjCr2s"
    },
    {
      "name": "Aylesford Bulls",
      "url": "https://www.englandrugby.com/fixtures-and-results/search-results?team=1151",
      "image_url": "https://images.englandrugby.com/club_images/1151.png",
      "address": "The Jack Williams Ground, Hall Road, Hall Road, Aylesford, Kent, ME20 7DS, United Kingdom",
      "postcode": "ME20 7DS",
      "maps_url": "https://www.google.com/maps/search/?api=1&query=The%20Jack%20Williams%20Ground%0AHall%20Road%0AHall%20Road%0AAylesford%0AKent%0AME20%207DS%0AUnited%20Kingdom",
      "latitude": 51.299189,
      "longitude": 0.4807269,
      "formatted_address": "Jack Williams Ground, Hall Rd, Aylesford ME20 7DS, UK",
      "place_id": "ChIJVVVVoZwz30cRXC-QQ0kpRcc"
    },
    {
      "name": "Old Alleynians II",
      "url": "https://www.englandrugby.com/fixtures-and-results/search-results?team=15399",
      "image_url": "https://images.englandrugby.com/club_images/15399.png",
      "address": "Alleynian Rugby, The Old Alleynian Sports Club, Dulwich Common, London, Greater London, SE21 7HA, United Kingdom",
      "postcode": "SE21 7HA",
      "maps_url": "https://www.google.com/maps/search/?api=1&query=Alleynian%20Rugby%0AThe%20Old%20Alleynian%20Sports%20Club%0ADulwich%20Common%0ALondon%0AGreater%20London%0ASE21%207HA%0AUnited%20Kingdom",
      "latitude": 51.4408836,
      "longitude": -0.0749287,
      "formatted_address": "Dulwich Common, London SE21 7HA, UK",
      "place_id": "ChIJYc3Rq-gDdkgR9mvSuVF5Qf8"
    },
    {
      "name": "Maidstone",
      "url": "https://www.englandrugby.com/fixtures-and-results/search-results?team=13128",
      "image_url": "https://images.englandrugby.com/club_images/13128.png",
      "address": "The William Day Mem. Ground, The Mote, Willow Way, Maidstone, Kent, ME15 7RN, United Kingdom",
      "postcode": "ME15 7RN",
      "maps_url": "https://www.google.com/maps/search/?api=1&query=The%20William%20Day%20Mem.%20Ground%0AThe%20Mote%2C%20Willow%20Way%0AMaidstone%0AKent%0AME15%207RN%0AUnited%20Kingdom",
      "latitude": 51.2683985,
      "longitude": 0.5350007,
      "formatted_address": "Willow Way, Maidstone ME15 7RN, UK",
      "place_id": "ChIJr3E7LSIy30cRRCj9hZ353AA"
    },
    {
      "name": "Sidcup II",
      "url": "https://www.englandrugby.com/fixtures-and-results/search-results?team=19315",
      "image_url": "https://images.englandrugby.com/club_images/19315.png",
      "address": "Crescent Farm Sydney Road SIDCUP KENT DA14 6RA UNITED KINGDOM ",
      "postcode": "DA14 6RA",
      "maps_url": "https://www.google.com/maps/search/?api=1&query=Crescent%20Farm%20Sydney%20Road%20SIDCUP%20KENT%20DA14%206RA%20UNITED%20KINGDOM%20",
      "latitude": 51.426294,
      "longitude": 0.0912927,
      "formatted_address": "Sydney Rd, Sidcup DA14 6RA, UK",
      "place_id": "Eh5TeWRuZXkgUmQsIFNpZGN1cCBEQTE0IDZSQSwgVUsiLiosChQKEgkNA_ow_6vYRxEnaJiNF1FAWhIUChIJyyT6zPir2EcRMl0HiySemIY"
    },
    {
      "name": "Medway II",
      "url": "https://www.englandrugby.com/fixtures-and-results/search-results?team=13596",
      "image_url": "https://images.englandrugby.com/club_images/13596.png",
      "address": "Medway RFC Priestfields  Rochester KENT ME1 3AD UNITED KINGDOM ",
      "postcode": "ME1 3AD",
      "maps_url": "https://www.google.com/maps/search/?api=1&query=Medway%20RFC%20Priestfields%20%20Rochester%20KENT%20ME1%203AD%20UNITED%20KINGDOM%20",
      "latitude": 51.37425589999999,
      "longitude": 0.4963684,
      "formatted_address": "Priestfields, Rochester ME1 3AD, UK",
      "place_id": "ChIJ-Xq0CO3M2EcRUHMMrwEmROU"
    },
    {
      "name": "Beckenham II",
      "url": "https://www.englandrugby.com/fixtures-and-results/search-results?team=1786",
      "image_url": "https://images.englandrugby.com/club_images/1786.png",
      "address": "Balmoral Avenue Elmers End Beckenham KENT BR3 3RD UNITED KINGDOM ",
      "postcode": "BR3 3RD",
      "maps_url": "https://www.google.com/maps/search/?api=1&query=Balmoral%20Avenue%20Elmers%20End%20Beckenham%20KENT%20BR3%203RD%20UNITED%20KINGDOM%20",
      "latitude": 51.3979564,
      "longitude": -0.0395429,
      "formatted_address": "Balmoral Ave, Beckenham BR3 3RD, UK",
      "place_id": "EiNCYWxtb3JhbCBBdmUsIEJlY2tlbmhhbSBCUjMgM1JELCBVSyIuKiwKFAoSCU-NWtSoAXZIEUIN2sVymWpPEhQKEgnlDI4mrwF2SBGFkNTmh8ZnQw"
    },
    {
      "name": "Vigo",
      "url": "https://www.englandrugby.com/fixtures-and-results/search-results?team=24006",
      "image_url": "https://images.englandrugby.com/club_images/24006.png",
      "address": "Swanswood Field Vigo Village, Harvel Road Vigo KENT DA13 0UA UNITED KINGDOM ",
      "postcode": "DA13 0UA",
      "maps_url": "https://www.google.com/maps/search/?api=1&query=Swanswood%20Field%20Vigo%20Village%2C%20Harvel%20Road%20Vigo%20KENT%20DA13%200UA%20UNITED%20KINGDOM%20",
      "latitude": 51.3291794,
      "longitude": 0.3472212,
      "formatted_address": "Harvel Rd, Vigo, UK",
      "place_id": "EhNIYXJ2ZWwgUmQsIFZpZ28sIFVLIi4qLAoUChIJSVeaX7lK30cRPLguncMWjq4SFAoSCctN7te-St9HEaDK-kgwrg4K"
    }
  ],
  "team_count": 11,
  "success_count": 11
}