{
  "league_name": "Counties 1 Hampshire",
  "league_url": "https://www.englandrugby.com/fixtures-and-results/search-results?competition=261&division=66534",
  "teams": [
    {
      "name": "Bognor",
      "url": "https://www.englandrugby.com/fixtures-and-results/search-results?team=2677",
      "image_url": "https://images.englandrugby.com/club_images/2677.png",
      "address": "Bognor R.f.c., Hampshire Avenue, Bognor Regis, West Sussex, PO21 5JH, United Kingdom",
      "postcode": "PO21 5JH",
      "maps_url": "https://www.google.com/maps/search/?api=1&query=Bognor%20R.f.c.%0AHampshire%20Avenue%0ABognor%20Regis%0AWest%20Sussex%0APO21%205JH%0AUnited%20Kingdom",
      "latitude": 50.79480299999999,
      "longitude": -0.684881,
      "formatted_address": "99 Hampshire Ave, Bognor Regis PO21 5JH, UK",
      "place_id": "ChIJ1aF7FlesdUgRmw4YaZ-kAfA"
    },
    {
      "name": "Winchester II",
      "url": "https://www.englandrugby.com/fixtures-and-results/search-results?team=25576",
      "image_url": "https://images.englandrugby.com/club_images/25576.png",
      "address": "Winchester Rfc Ltd, North Walls Park (off Nuns Walk), Winchester, Hampshire, SO23 7EF, United Kingdom",
      "postcode": "SO23 7EF",
      "maps_url": "https://www.google.com/maps/search/?api=1&query=Winchester%20Rfc%20Ltd%0ANorth%20Walls%20Park%20%28off%20Nuns%20Walk%29%0AWinchester%0AHampshire%0ASO23%207EF%0AUnited%20Kingdom",
      "latitude": 51.0710487,
      "longitude": -1.3085275,
      "formatted_address": "Rugby Football Club, Nuns Walk, Winchester SO23 7EF, UK",
      "place_id": "ChIJoaRlQQoSdEgR31N1uTRsHWs"
    },
    {
      "name": "Portsmouth",
      "url": "https://www.englandrugby.com/fixtures-and-results/search-results?team=17112",
      "image_url": "https://images.englandrugby.com/club_images/17112.png",
      "address": "Portsmouth Rugby Club Norway Road Hilsea Portsmouth HAMPSHIRE PO3 5EP UNITED KINGDOM ",
      "postcode": "PO3 5EP",
      "maps_url": "https://www.google.com/maps/search/?api=1&query=Portsmouth%20Rugby%20Club%20Norway%20Road%20Hilsea%20Portsmouth%20HAMPSHIRE%20PO3%205EP%20UNITED%20KINGDOM%20",
      "latitude": 50.82839629999999,
      "longitude": -1.0625611,
      "formatted_address": "Hilsea, Portsmouth PO3 5EP, UK",
      "place_id": "ChIJJQYdINhcdEgRzMsQfth0Fd8"
    },
    {
      "name": "Basingstoke",
      "url": "https://www.englandrugby.com/fixtures-and-results/search-results?team=1565",
      "image_url": "https://images.englandrugby.com/club_images/1565.png",
      "address": "Down Grange, Pack Lane, Kempshott, Basingstoke, Hampshire, RG22 5HH, England",
      "postcode": "RG22 5HH",
      "maps_url": "https://www.google.com/maps/search/?api=1&query=Down%20Grange%0APack%20Lane%0AKempshott%0ABasingstoke%0AHampshire%0ARG22%205HH%0AEngland",
      "latitude": 51.2482817,
      "longitude": -1.1265955,
      "formatted_address": "75-83 Pack Ln, Basingstoke RG22 5SN, UK",
      "place_id": "ChIJsSIexAcidEgRc46DizMmm2g"
    },
    {
      "name": "Chichester",
      "url": "https://www.englandrugby.com/fixtures-and-results/search-results?team=4753",
      "image_url": "https://images.englandrugby.com/club_images/4753.png",
      "address": "Oaklands Park, Wellington Road, Chichester, Sussex, PO19 6BB, United Kingdom",
      "postcode": "PO19 6BB",
      "maps_url": "https://www.google.com/maps/search/?api=1&query=Oaklands%20Park%0AWellington%20Road%0AChichester%0ASussex%0APO19%206BB%0AUnited%20Kingdom",
      "latitude": 50.8476727,
      "longitude": -0.7773531,
      "formatted_address": "25 Wellington Rd, Chichester PO19 6BB, UK",
      "place_id": "ChIJwSy8f3xNdEgR_q8Xcro88PM"
    },
    {
      "name": "Andover",
      "url": "https://www.englandrugby.com/fixtures-and-results/search-results?team=657",
      "image_url": "https://images.englandrugby.com/club_images/657.png",
      "address": "The Goodship Ground, Foxcotte Park, Andover, Hampshire, SP11 0TA, United Kingdom",
      "postcode": "SP11 0TA",
      "maps_url": "https://www.google.com/maps/search/?api=1&query=The%20Goodship%20Ground%0AFoxcotte%20Park%0AAndover%0AHampshire%0ASP11%200TA%0AUnited%20Kingdom",
      "latitude": 51.2313719,
      "longitude": -1.5033214,
      "formatted_address": "Foxcotte Ln, Andover SP11 0TA, UK",
      "place_id": "EiFGb3hjb3R0ZSBMbiwgQW5kb3ZlciBTUDExIDBUQSwgVUsiLiosChQKEgkXvtj3m_hzSBHhDwJ8hXackhIUChIJY0e2eWcHdEgRbwlm3tlscsY"
    },
    {
      "name": "Bournemouth II",
      "url": "https://www.englandrugby.com/fixtures-and-results/search-results?team=2792",
      "image_url": "https://images.englandrugby.com/club_images/2792.png",
      "address": "Chapel Gate, East Parley , Christchurch, Dorset, BH23 6BL, United Kingdom",
      "postcode": "BH23 6BL",
      "maps_url": "https://www.google.com/maps/search/?api=1&query=Chapel%20Gate%0AEast%20Parley%20%0AChristchurch%0ADorset%0ABH23%206BL%0AUnited%20Kingdom",
      "latitude": 50.7790599,
      "longitude": -1.8580167,
      "formatted_address": "Chapel Gate, Christchurch BH23 6BL, UK",
      "place_id": "EiZDaGFwZWwgR2F0ZSwgQ2hyaXN0Y2h1cmNoIEJIMjMgNkJMLCBVSyIuKiwKFAoSCW9e86mEmHNIEfC9_MA4pyl0EhQKEglnqirGg5hzSBFxlZNxs1bcug"
    },
    {
      "name": "Millbrook",
      "url": "https://www.englandrugby.com/fixtures-and-results/search-results?team=13878",
      "image_url": "https://images.englandrugby.com/club_images/13878.png",
      "address": "Lordshill Recreation Ground Redbridge Lane, Lordshill Southampton HAMPSHIRE SO16 9BP UNITED KINGDOM ",
      "postcode": "SO16 9BP",
      "maps_url": "https://www.google.com/maps/search/?api=1&query=Lordshill%20Recreation%20Ground%20Redbridge%20Lane%2C%20Lordshill%20Southampton%20HAMPSHIRE%20SO16%209BP%20UNITED%20KINGDOM%20",
      "latitude": 50.9383679,
      "longitude": -1.4650647,
      "formatted_address": "Redbridge Ln, Southampton SO16, UK",
      "place_id": "ChIJX4luQ8F1dEgR_jwckm3Kb1s"
    },
    {
      "name": "Sandown & Shanklin",
      "url": "https://www.englandrugby.com/fixtures-and-results/search-results?team=18708",
      "image_url": "https://images.englandrugby.com/club_images/18708.png",
      "address": "The Clubhouse, Station Approach, Sandown, PO36 9ES, United Kingdom",
      "postcode": "PO36 9ES",
      "maps_url": "https://www.google.com/maps/search/?api=1&query=The%20Clubhouse%0AStation%20Approach%0ASandown%0APO36%209ES%0AUnited%20Kingdom",
      "latitude": 50.6559012,
      "longitude": -1.1658519,
      "formatted_address": "Station Approach, Sandown PO36 9ES, UK",
      "place_id": "EiZTdGF0aW9uIEFwcHJvYWNoLCBTYW5kb3duIFBPMzYgOUVTLCBVSyIuKiwKFAoSCTHwGe5oinRIEdh2VodzhbISEhQKEgljN9fvaIp0SBFW9aDDIEzgTg"
    },
    {
      "name": "Gosport & Fareham",
      "url": "https://www.englandrugby.com/fixtures-and-results/search-results?team=8808",
      "image_url": "https://images.englandrugby.com/club_images/8808.png",
      "address": "Gosport Park, Dolphin Crescent, Gosport, Hampshire, PO12 2HE, United Kingdom",
      "postcode": "PO12 2HE",
      "maps_url": "https://www.google.com/maps/search/?api=1&query=Gosport%20Park%0ADolphin%20Crescent%0AGosport%0AHampshire%0APO12%202HE%0AUnited%20Kingdom",
      "latitude": 50.7870398,
      "longitude": -1.1357327,
      "formatted_address": "Gosport Park, Dolphin Cres, Gosport PO12 2HE, UK",
      "place_id": "ChIJFQkUjRJndEgRmrgMIesUkeA"
    },
    {
      "name": "Guernsey II",
      "url": "https://www.englandrugby.com/fixtures-and-results/search-results?team=9030",
      "image_url": "https://images.englandrugby.com/club_images/9030.png",
      "address": "Garenne Stand, Foote's Lane, St Peter Port, Guernsey, Hampshire, GY1 2UL, United Kingdom",
      "postcode": "GY1 2UL",
      "maps_url": "https://www.google.com/maps/search/?api=1&query=Garenne%20Stand%0AFoote%27s%20Lane%0ASt%20Peter%20Port%0AGuernsey%0AHampshire%0AGY1%202UL%0AUnited%20Kingdom",
      "latitude": 49.4646184,
      "longitude": -2.5628604,
      "formatted_address": "Osmand Priaulx Memorial Playing Fields, Foote's Ln, Guernsey GY6, Guernsey",
      "place_id": "ChIJIVB1RgBzDUgRaqLJDuzjaCw"
    },
    {
      "name": "Eastleigh",
      "url": "https://www.englandrugby.com/fixtures-and-results/search-results?team=7248",
      "image_url": "https://images.englandrugby.com/club_images/7248.png",
      "address": "The Hub, Bishopstoke Road, Eastleigh, Hampshire, SO50 6LA, United Kingdom",
      "postcode": "SO50 6LA",
      "maps_url": "https://www.google.com/maps/search/?api=1&query=The%20Hub%0ABishopstoke%20Road%0AEastleigh%0AHampshire%0ASO50%206LA%0AUnited%20Kingdom",
      "latitude": 50.9707083,
      "longitude": -1.3414216,
      "formatted_address": "The Hub, Bishopstoke Rd, Eastleigh SO50 6LA, UK",
      "place_id": "ChIJJRSJgPBydEgRZKWnybenOo8"
    }
  ],
  "team_count": 12,
  "success_count": 12
}