{
  "league_name": "Counties 1 Tribute Ale Southern South",
  "league_url": "https://www.englandrugby.com/fixtures-and-results/search-results?competition=1699&division=66451",
  "teams": [
    {
      "name": "Walcot",
      "url": "https://www.englandrugby.com/fixtures-and-results/search-results?team=24095",
      "image_url": "https://images.englandrugby.com/club_images/24095.png",
      "address": "Albert Field, Lansdown, Bath, Somerset, BA1 9BJ, United Kingdom",
      "postcode": "BA1 9BJ",
      "maps_url": "https://www.google.com/maps/search/?api=1&query=Albert%20Field%0ALansdown%0ABath%0ASomerset%0ABA1%209BJ%0AUnited%20Kingdom",
      "latitude": 51.4164586,
      "longitude": -2.3955196,
      "formatted_address": "Lansdown, Bath BA1, UK",
      "place_id": "ChIJ9zbesP6DcUgRA3VsqAH_rck"
    },
    {
      "name": "Sherborne",
      "url": "https://www.englandrugby.com/fixtures-and-results/search-results?team=19189",
      "image_url": "https://images.englandrugby.com/club_images/19189.png",
      "address": "Sherborne Rfc, The Terrace Playing Fields, Gainsborough Park, Sherborne, Dorset, DT9 5NS, United Kingdom",
      "postcode": "DT9 5NS",
      "maps_url": "https://www.google.com/maps/search/?api=1&query=Sherborne%20Rfc%0AThe%20Terrace%20Playing%20Fields%0AGainsborough%20Park%0ASherborne%0ADorset%0ADT9%205NS%0AUnited%20Kingdom",
      "latitude": 50.9401486,
      "longitude": -2.5113469,
      "formatted_address": "Gainsborough, Dorchester Rd, Sherborne DT9 5NS, UK",
      "place_id": "ChIJb5EqhIdHckgRmRnJnnM8Npo"
    },
    {
      "name": "Swanage & Wareham",
      "url": "https://www.englandrugby.com/fixtures-and-results/search-results?team=21497",
      "image_url": "https://images.englandrugby.com/club_images/21497.png",
      "address": "Swanage & Wareham R.F.C. Bestwall Wareham DORSET BH20 4HY UNITED KINGDOM ",
      "postcode": "BH20 4HY",
      "maps_url": "https://www.google.com/maps/search/?api=1&query=Swanage%20%26%20Wareham%20R.F.C.%20Bestwall%20Wareham%20DORSET%20BH20%204HY%20UNITED%20KINGDOM%20",
      "latitude": 50.6875284,
      "longitude": -2.100463,
      "formatted_address": "Bestwall Rd, Wareham BH20 4HY, UK",
      "place_id": "ChIJwwrNSLGpc0gR1zN2_r8k3QE"
    },
    {
      "name": "Devizes",
      "url": "https://www.englandrugby.com/fixtures-and-results/search-results?team=6357",
      "image_url": "https://images.englandrugby.com/club_images/6357.png",
      "address": "Devizes Sports Club, London Road, Devizes, Wiltshire, SN10 2DL, United Kingdom",
      "postcode": "SN10 2DL",
      "maps_url": "https://www.google.com/maps/search/?api=1&query=Devizes%20Sports%20Club%0ALondon%20Road%0ADevizes%0AWiltshire%0ASN10%202DL%0AUnited%20Kingdom",
      "latitude": 51.3547463,
      "longitude": -1.9839672,
      "formatted_address": "London Rd, Devizes SN10 2DL, UK",
      "place_id": "Eh9Mb25kb24gUmQsIERldml6ZXMgU04xMCAyREwsIFVLIi4qLAoUChIJr1D73ZdhcUgRzg-lPv1XAnoSFAoSCYHFXraTYXFIEboadZQcPqBC"
    },
    {
      "name": "Salisbury",
      "url": "https://www.englandrugby.com/fixtures-and-results/search-results?team=18607",
      "image_url": "https://images.englandrugby.com/club_images/18607.png",
      "address": "C/o Salisbury Rfc, Castle Rd, Salisbury, Wiltshire, SP1 3SA, United Kingdom",
      "postcode": "SP1 3SA",
      "maps_url": "https://www.google.com/maps/search/?api=1&query=C%2Fo%20Salisbury%20Rfc%0ACastle%20Rd%0ASalisbury%0AWiltshire%0ASP1%203SA%0AUnited%20Kingdom",
      "latitude": 51.0865525,
      "longitude": -1.7993125,
      "formatted_address": "Stewards Bungalow, Castle Rd, Salisbury SP1 3SA, UK",
      "place_id": "ChIJOd6P_Fbpc0gR_itSlFjDFCc"
    },
    {
      "name": "Frome",
      "url": "https://www.englandrugby.com/fixtures-and-results/search-results?team=8353",
      "image_url": "https://images.englandrugby.com/club_images/8353.png",
      "address": "The Clubhouse, Gypsy Lane, Frome, Somerset, BA11 2NA, United Kingdom",
      "postcode": "BA11 2NA",
      "maps_url": "https://www.google.com/maps/search/?api=1&query=The%20Clubhouse%0AGypsy%20Lane%0AFrome%0ASomerset%0ABA11%202NA%0AUnited%20Kingdom",
      "latitude": 51.2437522,
      "longitude": -2.3038319,
      "formatted_address": "Gypsy Ln, Frome BA11 2NA, UK",
      "place_id": "EhxHeXBzeSBMbiwgRnJvbWUgQkExMSAyTkEsIFVLIi4qLAoUChIJN6DeXl4rckgRzwKKKVOvo2ISFAoSCd8dHVdeK3JIEX0CIz3sZrnI"
    },
    {
      "name": "Melksham",
      "url": "https://www.englandrugby.com/fixtures-and-results/search-results?team=13645",
      "image_url": "https://images.englandrugby.com/club_images/13645.png",
      "address": "Melksham Rugby Club, Oakfields, Eastern Way, Melksham, Wiltshire, SN12 7GU, United Kingdom",
      "postcode": "SN12 7GU",
      "maps_url": "https://www.google.com/maps/search/?api=1&query=Melksham%20Rugby%20Club%0AOakfields%0AEastern%20Way%0AMelksham%0AWiltshire%0ASN12%207GU%0AUnited%20Kingdom",
      "latitude": 51.3655676,
      "longitude": -2.1146914,
      "formatted_address": "Melksham Rugby Club, Oakfields, Eastern Way, Melksham SN12 7GU, UK",
      "place_id": "ChIJH9e5xf18cUgRC2WzSt9-Mrc"
    },
    {
      "name": "Corsham",
      "url": "https://www.englandrugby.com/fixtures-and-results/search-results?team=5659",
      "image_url": "https://images.englandrugby.com/club_images/5659.png",
      "address": "Corsham Rfc, Lacock Road, Corsham, Wiltshire, SN13 9QG, United Kingdom",
      "postcode": "SN13 9QG",
      "maps_url": "https://www.google.com/maps/search/?api=1&query=Corsham%20Rfc%0ALacock%20Road%0ACorsham%0AWiltshire%0ASN13%209QG%0AUnited%20Kingdom",
      "latitude": 51.4308357,
      "longitude": -2.1705617,
      "formatted_address": "Westrop, Corsham SN13 9QG, UK",
      "place_id": "ChIJ8ZxNnJV7cUgROw9edT3tPFY"
    },
    {
      "name": "Trowbridge II",
      "url": "https://www.englandrugby.com/fixtures-and-results/search-results?team=23241",
      "image_url": "https://images.englandrugby.com/club_images/23241.png",
      "address": "Paxcroft Hilperton Trowbridge WILTSHIRE BA14 6JB UNITED KINGDOM ",
      "postcode": "BA14 6JB",
      "maps_url": "https://www.google.com/maps/search/?api=1&query=Paxcroft%20Hilperton%20Trowbridge%20WILTSHIRE%20BA14%206JB%20UNITED%20KINGDOM%20",
      "latitude": 51.3323834,
      "longitude": -2.1695667,
      "formatted_address": "Paxcroft Farm, Paxcroft, Hilperton, Trowbridge BA14 6JB, UK",
      "place_id": "ChIJ7_oBWfN9cUgR5OxIIYtSuAo"
    },
    {
      "name": "Marlborough II",
      "url": "https://www.englandrugby.com/fixtures-and-results/search-results?team=13423",
      "image_url": "https://images.englandrugby.com/club_images/13423.png",
      "address": "The Clubhouse, The Common, Frees Avenue, Marlborough, Wiltshire, SN8 1DL, United Kingdom",
      "postcode": "SN8 1DL",
      "maps_url": "https://www.google.com/maps/search/?api=1&query=The%20Clubhouse%0AThe%20Common%0AFrees%20Avenue%0AMarlborough%0AWiltshire%0ASN8%201DL%0AUnited%20Kingdom",
      "latitude": 51.42690340000001,
      "longitude": -1.7339519,
      "formatted_address": "The Common, Free's Ave, Marlborough SN8, UK",
      "place_id": "ChIJC3-bzuxbcUgRxIKTmndPsmY"
    },
    {
      "name": "Swindon",
      "url": "https://www.englandrugby.com/fixtures-and-results/search-results?team=21532",
      "image_url": "https://images.englandrugby.com/club_images/21532.png",
      "address": "New Pavilion, Greenbridge Rd, Swindon Sn3 3la, Greenbridge Road, Swindon, Wiltshire, SN3 3LA, United Kingdom",
      "postcode": "SN3 3LA",
      "maps_url": "https://www.google.com/maps/search/?api=1&query=New%20Pavilion%2C%20Greenbridge%20Rd%2C%20Swindon%20Sn3%203la%0AGreenbridge%20Road%0ASwindon%0AWiltshire%0ASN3%203LA%0AUnited%20Kingdom",
      "latitude": 51.5669415,
      "longitude": -1.7499813,
      "formatted_address": "Greenbridge Rd, Swindon SN3, UK",
      "place_id": "ChIJa9Jx8MBFcUgR7PgQBqPRcFo"
    },
    {
      "name": "Chippenham II",
      "url": "https://www.englandrugby.com/fixtures-and-results/search-results?team=4844",
      "image_url": "https://images.englandrugby.com/club_images/4844.png",
      "address": "Allington Field Sheldon Corner Frogwell Chippenham WILTSHIRE SN14 0YZ UNITED KINGDOM ",
      "postcode": "SN14 0YZ",
      "maps_url": "https://www.google.com/maps/search/?api=1&query=Allington%20Field%20Sheldon%20Corner%20Frogwell%20Chippenham%20WILTSHIRE%20SN14%200YZ%20UNITED%20KINGDOM%20",
      "latitude": 51.4653702,
      "longitude": -2.1396751,
      "formatted_address": "Allington Way, Chippenham SN14, UK",
      "place_id": "ChIJx8otp-96cUgRZrazVIyOx6M"
    }
  ],
  "team_count": 12,
  "success_count": 12
}