{
  "league_name": "Counties 3 Tribute Ale Cornwall",
  "league_url": "https://www.englandrugby.com/fixtures-and-results/search-results?competition=1699&division=66461",
  "teams": [
    {
      "name": "St Ives (SW) II",
      "url": "https://www.englandrugby.com/fixtures-and-results/search-results?team=20430",
      "image_url": "https://images.englandrugby.com/club_images/20430.png",
      "address": "Alexandra Road, St. Ives, Cornw, TR26 1ER, United Kingdom",
      "postcode": "TR26 1ER",
      "maps_url": "https://www.google.com/maps/search/?api=1&query=Alexandra%20Road%0ASt.%20Ives%0ACornw%0ATR26%201ER%0AUnited%20Kingdom",
      "latitude": 50.2104222,
      "longitude": -5.4932026,
      "formatted_address": "Alexandra Rd, St Ives, Saint Ives TR26 1ER, UK",
      "place_id": "Ei5BbGV4YW5kcmEgUmQsIFN0IEl2ZXMsIFNhaW50IEl2ZXMgVFIyNiAxRVIsIFVLIi4qLAoUChIJQ3a981DdakgRz0T6mDW9JMESFAoSCZu8PTdS3WpIEddPCVGhY3ik"
    },
    {
      "name": "Illogan Park",
      "url": "https://www.englandrugby.com/fixtures-and-results/search-results?team=10851",
      "image_url": "https://images.englandrugby.com/club_images/10851.png",
      "address": "Sports Field, Paynters Lane End, Redruth, Cornwall, TR16 4RR, United Kingdom",
      "postcode": "TR16 4RR",
      "maps_url": "https://www.google.com/maps/search/?api=1&query=Sports%20Field%0APaynters%20Lane%20End%0ARedruth%0ACornwall%0ATR16%204RR%0AUnited%20Kingdom",
      "latitude": 50.2449308,
      "longitude": -5.2679621,
      "formatted_address": "Paynters Lane End, Redruth TR16 4RR, UK",
      "place_id": "ChIJsRayT5cfa0gRUxQXB_UAxc8"
    },
    {
      "name": "Lankelly-Fowey",
      "url": "https://www.englandrugby.com/fixtures-and-results/search-results?team=11871",
      "image_url": "https://images.englandrugby.com/club_images/11871.png",
      "address": "Lankelly-Fowey RFC Lankelly Farm Lankelly Lane Fowey CORNWALL PL23 1HN UNITED KINGDOM ",
      "postcode": "PL23 1HN",
      "maps_url": "https://www.google.com/maps/search/?api=1&query=Lankelly-Fowey%20RFC%20Lankelly%20Farm%20Lankelly%20Lane%20Fowey%20CORNWALL%20PL23%201HN%20UNITED%20KINGDOM%20",
      "latitude": 50.33621,
      "longitude": -4.6524073,
      "formatted_address": "Lankelly Ln, Fowey PL23, UK",
      "place_id": "ChIJBaeLs59ma0gRrqdAxVjn8E0"
    },
    {
      "name": "St Agnes",
      "url": "https://www.englandrugby.com/fixtures-and-results/search-results?team=20092",
      "image_url": "https://images.englandrugby.com/club_images/20092.png",
      "address": "St Agnes Sports Club, Enys Park, West Polberro, St. Agnes, Cornwall, TR5 0SS, United Kingdom",
      "postcode": "TR5 0SS",
      "maps_url": "https://www.google.com/maps/search/?api=1&query=St%20Agnes%20Sports%20Club%0AEnys%20Park%0AWest%20Polberro%0ASt.%20Agnes%0ACornwall%0ATR5%200SS%0AUnited%20Kingdom",
      "latitude": 50.3179126,
      "longitude": -5.2096183,
      "formatted_address": "Enys Park, Saint Agnes TR5 0SS, UK",
      "place_id": "ChIJTVuhN_wba0gRtERuhTWKbmg"
    },
    {
      "name": "Camborne S o M",
      "url": "https://www.englandrugby.com/fixtures-and-results/search-results?team=4006",
      "image_url": "https://images.englandrugby.com/club_images/4006.png",
      "address": "Camborne School of Mines Tremough Campus Penryn CORNWALL TR10 9EZ UNITED KINGDOM ",
      "postcode": "TR10 9EZ",
      "maps_url": "https://www.google.com/maps/search/?api=1&query=Camborne%20School%20of%20Mines%20Tremough%20Campus%20Penryn%20CORNWALL%20TR10%209EZ%20UNITED%20KINGDOM%20",
      "latitude": 50.1711056,
      "longitude": -5.1265302,
      "formatted_address": "Tremough Campus, Penryn TR10 9EZ, UK",
      "place_id": "ChIJ_993Bm0ja0gRAg-LflMgkkA"
    },
    {
      "name": "Saltash II",
      "url": "https://www.englandrugby.com/fixtures-and-results/search-results?team=18630",
      "image_url": "https://images.englandrugby.com/club_images/18630.png",
      "address": "Saltash Rfc, Moorlands Lane, Saltash, Cornwall , PL12 4HJ, United Kingdom",
      "postcode": "PL12 4HJ",
      "maps_url": "https://www.google.com/maps/search/?api=1&query=Saltash%20Rfc%0AMoorlands%20Lane%0ASaltash%0ACornwall%20%0APL12%204HJ%0AUnited%20Kingdom",
      "latitude": 50.4145096,
      "longitude": -4.2359008,
      "formatted_address": "Moorlands Ln, Saltash PL12 4HJ, UK",
      "place_id": "ChIJKeeWiyGSbEgRIw16OSn6X6c"
    },
    {
      "name": "Hayle",
      "url": "https://www.englandrugby.com/fixtures-and-results/search-results?team=9762",
      "image_url": "https://images.englandrugby.com/club_images/9762.png",
      "address": "Memorial Park, Marsh Lane, Hayle, Cornwall, TR27 4PS, United Kingdom",
      "postcode": "TR27 4PS",
      "maps_url": "https://www.google.com/maps/search/?api=1&query=Memorial%20Park%0AMarsh%20Lane%0AHayle%0ACornwall%0ATR27%204PS%0AUnited%20Kingdom",
      "latitude": 50.1958364,
      "longitude": -5.3998507,
      "formatted_address": "Marsh Ln, Hayle TR27 4PS, UK",
      "place_id": "EhxNYXJzaCBMbiwgSGF5bGUgVFIyNyA0UFMsIFVLIi4qLAoUChIJ71bW6tjdakgR4ix2664tMKQSFAoSCS9y4BTZ3WpIEZVXyGceBcLO"
    },
    {
      "name": "Roseland",
      "url": "https://www.englandrugby.com/fixtures-and-results/search-results?team=18000",
      "image_url": "https://images.englandrugby.com/club_images/18000.png",
      "address": "Philleigh., Truro, Cornwall, TR2 5ND, United Kingdom",
      "postcode": "TR2 5ND",
      "maps_url": "https://www.google.com/maps/search/?api=1&query=Philleigh.%0ATruro%0ACornwall%0ATR2%205ND%0AUnited%20Kingdom",
      "latitude": 50.2163827,
      "longitude": -4.9911653,
      "formatted_address": "Philleigh, Truro TR2 5ND, UK",
      "place_id": "ChIJ8SBbM3I-a0gRqMAxz7DxBmA"
    }
  ],
  "team_count": 8,
  "success_count": 8
}