{
  "league_name": "Counties 3 Tribute Ale Somerset North",
  "league_url": "https://www.englandrugby.com/fixtures-and-results/search-results?competition=1699&division=66474",
  "teams": [
    {
      "name": "Yatton",
      "url": "https://www.englandrugby.com/fixtures-and-results/search-results?team=26414",
      "image_url": "https://images.englandrugby.com/club_images/26414.png",
      "address": "Yatton RFC The Park North End Road Yatton SOMERSET BS49 4AR UNITED KINGDOM ",
      "postcode": "BS49 4AR",
      "maps_url": "https://www.google.com/maps/search/?api=1&query=Yatton%20RFC%20The%20Park%20North%20End%20Road%20Yatton%20SOMERSET%20BS49%204AR%20UNITED%20KINGDOM%20",
      "latitude": 51.39454019999999,
      "longitude": -2.8292762,
      "formatted_address": "N End, Yatton, Bristol BS49 4AW, UK",
      "place_id": "ChIJWZEd99H2cUgR0lpZDpb688k"
    },
    {
      "name": "Old Sulians",
      "url": "https://www.englandrugby.com/fixtures-and-results/search-results?team=16058",
      "image_url": "https://images.englandrugby.com/club_images/16058.png",
      "address": "Lansdown Road, Bath, Somerset, BA1 9BH, United Kingdom",
      "postcode": "BA1 9BH",
      "maps_url": "https://www.google.com/maps/search/?api=1&query=Lansdown%20Road%0ABath%0ASomerset%0ABA1%209BH%0AUnited%20Kingdom",
      "latitude": 51.3944779,
      "longitude": -2.3651185,
      "formatted_address": "Lansdown Rd, Bath BA1, UK",
      "place_id": "ChIJvQ3xR2iBcUgREU3ge0NPJfg"
    },
    {
      "name": "Clevedon II",
      "url": "https://www.englandrugby.com/fixtures-and-results/search-results?team=5238",
      "image_url": "https://images.englandrugby.com/club_images/5238.png",
      "address": "Clevedon RFC Coleridge Vale Playing Fields Southey Road Clevedon AVON BS21 6PF UNITED KINGDOM ",
      "postcode": "BS21 6PF",
      "maps_url": "https://www.google.com/maps/search/?api=1&query=Clevedon%20RFC%20Coleridge%20Vale%20Playing%20Fields%20Southey%20Road%20Clevedon%20AVON%20BS21%206PF%20UNITED%20KINGDOM%20",
      "latitude": 51.4319968,
      "longitude": -2.8549154,
      "formatted_address": "RFC, Southey Rd, Clevedon BS21 6PF, UK",
      "place_id": "ChIJuzhvJvHwcUgR-KMtBKR9s-8"
    },
    {
      "name": "Old Redcliffians III",
      "url": "https://www.englandrugby.com/fixtures-and-results/search-results?team=15933",
      "image_url": "https://images.englandrugby.com/club_images/15933.png",
      "address": "Old Redcliffians Scotland Lane Brislington Bristol BRISTOL BS4 5LU UNITED KINGDOM ",
      "postcode": "BS4 5LU",
      "maps_url": "https://www.google.com/maps/search/?api=1&query=Old%20Redcliffians%20Scotland%20Lane%20Brislington%20Bristol%20BRISTOL%20BS4%205LU%20UNITED%20KINGDOM%20",
      "latitude": 51.42441170000001,
      "longitude": -2.5386936,
      "formatted_address": "Scotland Ln, Brislington, Bristol BS4 5LU, UK",
      "place_id": "ChIJ1Q4W1CKPcUgRv7mDmH8A1q4"
    },
    {
      "name": "Bristol Harlequins",
      "url": "https://www.englandrugby.com/fixtures-and-results/search-results?team=3262",
      "image_url": "https://images.englandrugby.com/club_images/3262.png",
      "address": "Valhalla, Lanesboro, Broomhill Road, Brislington, Bristol, Bristol, BS4 5RG, United Kingdom",
      "postcode": "BS4 5RG",
      "maps_url": "https://www.google.com/maps/search/?api=1&query=Valhalla%0ALanesboro%0ABroomhill%20Road%0ABrislington%0ABristol%0ABristol%0ABS4%205RG%0AUnited%20Kingdom",
      "latitude": 51.4318832,
      "longitude": -2.534285,
      "formatted_address": "Broomhill Rd, Brislington, Bristol BS4 5RG, UK",
      "place_id": "Ei5Ccm9vbWhpbGwgUmQsIEJyaXNsaW5ndG9uLCBCcmlzdG9sIEJTNCA1UkcsIFVLIi4qLAoUChIJO02CxwSPcUgRsTbAG5ytPswSFAoSCcnjaLobj3FIEUDyGibd9daH"
    },
    {
      "name": "Midsomer Norton II",
      "url": "https://www.englandrugby.com/fixtures-and-results/search-results?team=13845",
      "image_url": "https://images.englandrugby.com/club_images/13845.png",
      "address": "Midsomer Norton R.F.C. Norton Down Playing Fields Silver Street Midsomer Norton Radstock SOMERSET BA3 2UE UNITED KINGDOM ",
      "postcode": "BA3 2UE",
      "maps_url": "https://www.google.com/maps/search/?api=1&query=Midsomer%20Norton%20R.F.C.%20Norton%20Down%20Playing%20Fields%20Silver%20Street%20Midsomer%20Norton%20Radstock%20SOMERSET%20BA3%202UE%20UNITED%20KINGDOM%20",
      "latitude": 51.2740929,
      "longitude": -2.4854623,
      "formatted_address": "Norton Down, Silver St, Midsomer Norton, Radstock BA3 2UE, UK",
      "place_id": "ChIJhxgO-ysmckgRnGpyAsKoSxk"
    },
    {
      "name": "Nailsea & Backwell II",
      "url": "https://www.englandrugby.com/fixtures-and-results/search-results?team=14248",
      "image_url": "https://images.englandrugby.com/club_images/14248.png",
      "address": "Nailsea & Backwell Rfc, West End Park, West End Lane, Nailsea, Somerset, BS48 4BY, United Kingdom",
      "postcode": "BS48 4BY",
      "maps_url": "https://www.google.com/maps/search/?api=1&query=Nailsea%20%26%20Backwell%20Rfc%0AWest%20End%20Park%0AWest%20End%20Lane%0ANailsea%0ASomerset%0ABS48%204BY%0AUnited%20Kingdom",
      "latitude": 51.4256682,
      "longitude": -2.7826856,
      "formatted_address": "W End Ln, Bristol, Nailsea, Bristol BS48 4BY, UK",
      "place_id": "ChIJl_PEkOTzcUgRaFjDCs56d0U"
    },
    {
      "name": "Gordano II",
      "url": "https://www.englandrugby.com/fixtures-and-results/search-results?team=8730",
      "image_url": "https://images.englandrugby.com/club_images/8730.png",
      "address": "Gordano Rfc, Caswell Lane, Portbury, Bristol, Bristol, BS20 7UF, United Kingdom",
      "postcode": "BS20 7UF",
      "maps_url": "https://www.google.com/maps/search/?api=1&query=Gordano%20Rfc%0ACaswell%20Lane%0APortbury%0ABristol%0ABristol%0ABS20%207UF%0AUnited%20Kingdom",
      "latitude": 51.4719458,
      "longitude": -2.7312802,
      "formatted_address": "Caswell Lane, Portbury, Bristol BS20 7UF, UK",
      "place_id": "ChIJx7zyzZnycUgRmy7Wk-LDs5Y"
    },
    {
      "name": "Winscombe II",
      "url": "https://www.englandrugby.com/fixtures-and-results/search-results?team=25675",
      "image_url": "https://images.englandrugby.com/club_images/25675.png",
      "address": "The Recreation Ground, Winscombe, Avon, BS251AZ, United Kingdom",
      "postcode": "BS251AZ",
      "maps_url": "https://www.google.com/maps/search/?api=1&query=The%20Recreation%20Ground%0AWinscombe%0AAvon%0ABS251AZ%0AUnited%20Kingdom",
      "latitude": 51.303663,
      "longitude": -2.847222,
      "formatted_address": "Winscombe BS25, UK",
      "place_id": "ChIJOysUGtb3cUgRcIXl6mZM5mg"
    },
    {
      "name": "Bristol Telephone Area",
      "url": "https://www.englandrugby.com/fixtures-and-results/search-results?team=3291",
      "image_url": "https://images.englandrugby.com/club_images/3291.png",
      "address": "The Club House, Btra Sports Ground, Stockwood Lane, Stockwood, Whitchurch, Bristol, BS14 8SJ, United Kingdom",
      "postcode": "BS14 8SJ",
      "maps_url": "https://www.google.com/maps/search/?api=1&query=The%20Club%20House%0ABtra%20Sports%20Ground%0AStockwood%20Lane%0AStockwood%0AWhitchurch%0ABristol%0ABS14%208SJ%0AUnited%20Kingdom",
      "latitude": 51.412773,
      "longitude": -2.5392203,
      "formatted_address": "Stockwood Ln, Stockwood, Bristol, UK",
      "place_id": "EiRTdG9ja3dvb2QgTG4sIFN0b2Nrd29vZCwgQnJpc3RvbCwgVUsiLiosChQKEgmludN5L49xSBGfOHwERW5oIhIUChIJpf1jPdiOcUgR7M44H-EMvP8"
    }
  ],
  "team_count": 10,
  "success_count": 10
}