{
  "league_name": "National League 2 North",
  "league_url": "https://www.englandrugby.com/fixtures-and-results/search-results?competition=1605&division=66416",
  "teams": [
    {
      "name": "Sheffield",
      "url": "https://www.englandrugby.com/fixtures-and-results/search-results?team=19073",
      "image_url": "https://images.englandrugby.com/club_images/19073.png",
      "address": "Abbeydale Sports Club, Abbeydale Road South, Sheffield, South Yorkshire, S17 3LJ, United Kingdom",
      "postcode": "S17 3LJ",
      "maps_url": "https://www.google.com/maps/search/?api=1&query=Abbeydale%20Sports%20Club%0AAbbeydale%20Road%20South%0ASheffield%0ASouth%20Yorkshire%0AS17%203LJ%0AUnited%20Kingdom",
      "latitude": 53.3256256,
      "longitude": -1.5205953,
      "formatted_address": "Abbeydale Rd S, Sheffield S17 3LJ, UK",
      "place_id": "ChIJt4gQu9mDeUgRtuokx4-p0qA"
    },
    {
      "name": "Macclesfield",
      "url": "https://www.englandrugby.com/fixtures-and-results/search-results?team=13064",
      "image_url": "https://images.englandrugby.com/club_images/13064.png",
      "address": "Priory Park, Priory Lane, Prestbury, Macclesfield, Cheshire, SK10 4AF, United Kingdom",
      "postcode": "SK10 4AF",
      "maps_url": "https://www.google.com/maps/search/?api=1&query=Priory%20Park%0APriory%20Lane%0APrestbury%0AMacclesfield%0ACheshire%0ASK10%204AF%0AUnited%20Kingdom",
      "latitude": 53.2726068,
      "longitude": -2.1612361,
      "formatted_address": "priory park, Priory Ln, Macclesfield SK10 4AF, UK",
      "place_id": "ChIJT0A1abtOekgRpL30HoARPMQ"
    },
    {
      "name": "Tynedale",
      "url": "https://www.englandrugby.com/fixtures-and-results/search-results?team=23390",
      "image_url": "https://images.englandrugby.com/club_images/23390.png",
      "address": "Station Road Corbridge NE45 5AY UNITED KINGDOM",
      "postcode": "NE45 5AY",
      "maps_url": "https://www.google.com/maps/search/?api=1&query=Station%20Road%20Corbridge%20NE45%205AY%20UNITED%20KINGDOM",
      "latitude": 54.9680816,
      "longitude": -2.0185983,
      "formatted_address": "Station Rd, Corbridge NE45 5AY, UK",
      "place_id": "EiJTdGF0aW9uIFJkLCBDb3JicmlkZ2UgTkU0NSA1QVksIFVLIi4qLAoUChIJqSuQ1bzFfUgRpyX6ym2jzdMSFAoSCaE6hLKixX1IEfShLNUYDMyW"
    },
    {
      "name": "Hull Ionians",
      "url": "https://www.englandrugby.com/fixtures-and-results/search-results?team=10641",
      "image_url": "https://images.englandrugby.com/club_images/10641.png",
      "address": "Brantingham Park Elloughton Road Elloughton Road Brantingham EAST RIDING OF YORKSHIRE HU15 1HX UNITED KINGDOM ",
      "postcode": "HU15 1HX",
      "maps_url": "https://www.google.com/maps/search/?api=1&query=Brantingham%20Park%20Elloughton%20Road%20Elloughton%20Road%20Brantingham%20EAST%20RIDING%20OF%20YORKSHIRE%20HU15%201HX%20UNITED%20KINGDOM%20",
      "latitude": 53.7327384,
      "longitude": -0.5718701,
      "formatted_address": "Elloughton Rd, Elloughton, Brough HU15, UK",
      "place_id": "EipFbGxvdWdodG9uIFJkLCBFbGxvdWdodG9uLCBCcm91Z2ggSFUxNSwgVUsiLiosChQKEglHjK-uKeh4SBFk2mGTQTgKwxIUChIJSXlWmoHCeEgRjhOW5b9BZgM"
    },
    {
      "name": "Darlington Mowden Park",
      "url": "https://www.englandrugby.com/fixtures-and-results/search-results?team=6105",
      "image_url": "https://images.englandrugby.com/club_images/6105.png",
      "address": "Darlington Arena, Neasham Road, Darlington, County Durham, DL2 1DL, United Kingdom",
      "postcode": "DL2 1DL",
      "maps_url": "https://www.google.com/maps/search/?api=1&query=Darlington%20Arena%0ANeasham%20Road%0ADarlington%0ACounty%20Durham%0ADL2%201DL%0AUnited%20Kingdom",
      "latitude": 54.5079751,
      "longitude": -1.5350051,
      "formatted_address": "Neasham Rd, Darlington DL2 1DL, UK",
      "place_id": "ChIJZZ3uJwqcfkgRO7kS5qepcvg"
    },
    {
      "name": "Wharfedale",
      "url": "https://www.englandrugby.com/fixtures-and-results/search-results?team=25147",
      "image_url": "https://images.englandrugby.com/club_images/25147.png",
      "address": "Wharfeside Avenue Threshfield Skipton NORTH YORKSHIRE BD23 5BS UNITED KINGDOM ",
      "postcode": "BD23 5BS",
      "maps_url": "https://www.google.com/maps/search/?api=1&query=Wharfeside%20Avenue%20Threshfield%20Skipton%20NORTH%20YORKSHIRE%20BD23%205BS%20UNITED%20KINGDOM%20",
      "latitude": 54.0735958,
      "longitude": -2.0137914,
      "formatted_address": "Wharfeside Ave, Threshfield, Skipton BD23 5BS, UK",
      "place_id": "EjFXaGFyZmVzaWRlIEF2ZSwgVGhyZXNoZmllbGQsIFNraXB0b24gQkQyMyA1QlMsIFVLIi4qLAoUChIJK1Y-_AsKfEgR3-Oxj9PpMzMSFAoSCUN0mAsMCnxIEf1GbbAbiusS"
    },
    {
      "name": "Preston Grasshoppers",
      "url": "https://www.englandrugby.com/fixtures-and-results/search-results?team=17180",
      "image_url": "https://images.englandrugby.com/club_images/17180.png",
      "address": "Lightfoot Green, Fulwood, Preston. LANCASHIRE PR4 0AP UNITED KINGDOM ",
      "postcode": "PR4 0AP",
      "maps_url": "https://www.google.com/maps/search/?api=1&query=Lightfoot%20Green%2C%20Fulwood%2C%20Preston.%20LANCASHIRE%20PR4%200AP%20UNITED%20KINGDOM%20",
      "latitude": 53.788019,
      "longitude": -2.7126175,
      "formatted_address": "Fulwood, Preston, UK",
      "place_id": "ChIJydOof-Jte0gRYUjrqE5DqGA"
    },
    {
      "name": "Otley",
      "url": "https://www.englandrugby.com/fixtures-and-results/search-results?team=16336",
      "image_url": "https://images.englandrugby.com/club_images/16336.png",
      "address": "Otley R.u.f.c., Cross Green, Otley, Wyorks, LS21 1HE, United Kingdom",
      "postcode": "LS21 1HE",
      "maps_url": "https://www.google.com/maps/search/?api=1&query=Otley%20R.u.f.c.%0ACross%20Green%0AOtley%0AWyorks%0ALS21%201HE%0AUnited%20Kingdom",
      "latitude": 53.90733969999999,
      "longitude": -1.6868171,
      "formatted_address": "Cross Grn, Otley LS21 1HE, UK",
      "place_id": "ChIJ_51Rrkn9e0gRcZ--nQLzH1k"
    },
    {
      "name": "Sheffield Tigers",
      "url": "https://www.englandrugby.com/fixtures-and-results/search-results?team=19099",
      "image_url": "https://images.englandrugby.com/club_images/19099.png",
      "address": "Dore Moor Hathersage Road Sheffield SOUTH YORKSHIRE S17 3AB UNITED KINGDOM ",
      "postcode": "S17 3AB",
      "maps_url": "https://www.google.com/maps/search/?api=1&query=Dore%20Moor%20Hathersage%20Road%20Sheffield%20SOUTH%20YORKSHIRE%20S17%203AB%20UNITED%20KINGDOM%20",
      "latitude": 53.3339744,
      "longitude": -1.5498295,
      "formatted_address": "Hathersage Rd, Dore, Sheffield S17 3AB, UK",
      "place_id": "ChIJOwGZ8jWBeUgRze4-8fMeBgA"
    },
    {
      "name": "Billingham",
      "url": "https://www.englandrugby.com/fixtures-and-results/search-results?team=2221",
      "image_url": "https://images.englandrugby.com/club_images/2221.png",
      "address": "Greenwood Road, Billingham, Ctydur, TS23 4BA, United Kingdom",
      "postcode": "TS23 4BA",
      "maps_url": "https://www.google.com/maps/search/?api=1&query=Greenwood%20Road%0ABillingham%0ACtydur%0ATS23%204BA%0AUnited%20Kingdom",
      "latitude": 54.603007,
      "longitude": -1.2725427,
      "formatted_address": "Greenwood Rd, Stockton-on-Tees, Billingham TS23 4BA, UK",
      "place_id": "EjdHcmVlbndvb2QgUmQsIFN0b2NrdG9uLW9uLVRlZXMsIEJpbGxpbmdoYW0gVFMyMyA0QkEsIFVLIi4qLAoUChIJiYDZf1XtfkgRrKGZJiM15w4SFAoSCasiDaSq8n5IEUdZZbuZyhSx"
    },
    {
      "name": "Hull",
      "url": "https://www.englandrugby.com/fixtures-and-results/search-results?team=10634",
      "image_url": "https://images.englandrugby.com/club_images/10634.png",
      "address": "Hull Sports Centre, Ferens Ground, Chanterlands Avenue, Hull, Yorkshire, HU5 4EF, United Kingdom",
      "postcode": "HU5 4EF",
      "maps_url": "https://www.google.com/maps/search/?api=1&query=Hull%20Sports%20Centre%0AFerens%20Ground%2C%20Chanterlands%20Avenue%0AHull%0AYorkshire%0AHU5%204EF%0AUnited%20Kingdom",
      "latitude": 53.7631087,
      "longitude": -0.3763255,
      "formatted_address": "Ferens Recreation Ground, Hull Sports Centre, Chanterlands Ave, Hull HU5 4EF, UK",
      "place_id": "ChIJVVVVUbm_eEgRzIPUkNWwXnY"
    },
    {
      "name": "Scunthorpe",
      "url": "https://www.englandrugby.com/fixtures-and-results/search-results?team=18838",
      "image_url": "https://images.englandrugby.com/club_images/18838.png",
      "address": "Heslam Park, Ashby Road, Scunthorpe, Lincolnshire, DN16 2AG, United Kingdom",
      "postcode": "DN16 2AG",
      "maps_url": "https://www.google.com/maps/search/?api=1&query=Heslam%20Park%0AAshby%20Road%0AScunthorpe%0ALincolnshire%0ADN16%202AG%0AUnited%20Kingdom",
      "latitude": 53.6050378,
      "longitude": -0.6620482,
      "formatted_address": "Scunthorpe, UK",
      "place_id": "ChIJn3hRp3jjeEgRra0OsvyHji0"
    },
    {
      "name": "Rossendale",
      "url": "https://www.englandrugby.com/fixtures-and-results/search-results?team=18009",
      "image_url": "https://images.englandrugby.com/club_images/18009.png",
      "address": "Marlpits Sports Centre, Newchurch Road, Rawtenstall, Lancashire, BB4 7SW, United Kingdom",
      "postcode": "BB4 7SW",
      "maps_url": "https://www.google.com/maps/search/?api=1&query=Marlpits%20Sports%20Centre%0ANewchurch%20Road%0ARawtenstall%0ALancashire%0ABB4%207SW%0AUnited%20Kingdom",
      "latitude": 53.7021174,
      "longitude": -2.2708164,
      "formatted_address": "Newchurch Rd, Rawtenstall, Rossendale BB4, UK",
      "place_id": "Ei1OZXdjaHVyY2ggUmQsIFJhd3RlbnN0YWxsLCBSb3NzZW5kYWxlIEJCNCwgVUsiLiosChQKEgnvnir7Q717SBHlxinBDiAlxxIUChIJAYMMXACYe0gRYX1_f41G15A"
    }
  ],
  "team_count": 13,
  "success_count": 13
}