{
  "league_name": "National League 1",
  "league_url": "https://www.englandrugby.com/fixtures-and-results/search-results?competition=1605&division=66415",
  "teams": [
    {
      "name": "Plymouth Albion",
      "url": "https://www.englandrugby.com/fixtures-and-results/search-results?team=16953",
      "image_url": "https://images.englandrugby.com/club_images/16953.png",
      "address": "Brickfields Stadium, Damerel Close, Devonport, Plymouth, Devon, PL1 4NE, England",
      "postcode": "PL1 4NE",
      "maps_url": "https://www.google.com/maps/search/?api=1&query=Brickfields%20Stadium%0ADamerel%20Close%0ADevonport%0APlymouth%0ADevon%0APL1%204NE%0AEngland",
      "latitude": 50.3708037,
      "longitude": -4.1712928,
      "formatted_address": "Madden Rd, Devonport, Plymouth PL1 4NE, UK",
      "place_id": "ChIJf6MWim6TbEgR5ryTgHcyWp8"
    },
    {
      "name": "Blackheath",
      "url": "https://www.englandrugby.com/fixtures-and-results/search-results?team=2494",
      "image_url": "https://images.englandrugby.com/club_images/2494.png",
      "address": "Kidbrooke Lane, London, SE9 6TE, England",
      "postcode": "SE9 6TE",
      "maps_url": "https://www.google.com/maps/search/?api=1&query=Kidbrooke%20Lane%0ALondon%0ASE9%206TE%0AEngland",
      "latitude": 51.4582346,
      "longitude": 0.0468094,
      "formatted_address": "Kidbrooke Ln, London SE9 6TE, UK",
      "place_id": "EiBLaWRicm9va2UgTG4sIExvbmRvbiBTRTkgNlRFLCBVSyIuKiwKFAoSCf-b7-4JqdhHEQwiB5qYNHmrEhQKEgndh0ngCanYRxFvpDR0M4SAOA"
    },
    {
      "name": "Rotherham Titans",
      "url": "https://www.englandrugby.com/fixtures-and-results/search-results?team=18095",
      "image_url": "https://images.englandrugby.com/club_images/18095.png",
      "address": "Rotherham Titans, Stafforce Stadium, Clifton Lane , Rotherham, South Yorkshire, S60 2SN, United Kingdom",
      "postcode": "S60 2SN",
      "maps_url": "https://www.google.com/maps/search/?api=1&query=Rotherham%20Titans%0AStafforce%20Stadium%0AClifton%20Lane%20%0ARotherham%0ASouth%20Yorkshire%0AS60%202SN%0AUnited%20Kingdom",
      "latitude": 53.426699,
      "longitude": -1.3440762,
      "formatted_address": "Badsley Moor Ln, Rotherham S60 2SN, UK",
      "place_id": "ChIJn9UQBop2eUgRm4kni0Ft7IQ"
    },
    {
      "name": "Sale FC",
      "url": "https://www.englandrugby.com/fixtures-and-results/search-results?team=18571",
      "image_url": "https://images.englandrugby.com/club_images/18571.png",
      "address": "Corpacq Stadium, Heywood Road, Brooklands, Sale, Cheshire, M33 3WB, United Kingdom",
      "postcode": "M33 3WB",
      "maps_url": "https://www.google.com/maps/search/?api=1&query=Corpacq%20Stadium%0AHeywood%20Road%0ABrooklands%0ASale%0ACheshire%0AM33%203WB%0AUnited%20Kingdom",
      "latitude": 53.4695771,
      "longitude": -2.3758645,
      "formatted_address": "Stadium Wy, Eccles, Manchester M30 7EY, UK",
      "place_id": "ChIJzWWdjUmpe0gR6HV1dg2uHbY"
    },
    {
      "name": "Rosslyn Park",
      "url": "https://www.englandrugby.com/fixtures-and-results/search-results?team=18036",
      "image_url": "https://images.englandrugby.com/club_images/18036.png",
      "address": "Priory Lane Roehampton London SURREY SW15 5JH UNITED KINGDOM ",
      "postcode": "SW15 5JH",
      "maps_url": "https://www.google.com/maps/search/?api=1&query=Priory%20Lane%20Roehampton%20London%20SURREY%20SW15%205JH%20UNITED%20KINGDOM%20",
      "latitude": 51.4507573,
      "longitude": -0.2553741,
      "formatted_address": "Priory Ln, London SW15, UK",
      "place_id": "EhpQcmlvcnkgTG4sIExvbmRvbiBTVzE1LCBVSyIuKiwKFAoSCW_A0O_BDnZIEckjW2CYCpR7EhQKEgnFxrPdNAl2SBESL3qjMWpeLA"
    },
    {
      "name": "Tonbridge Juddians",
      "url": "https://www.englandrugby.com/fixtures-and-results/search-results?team=22915",
      "image_url": "https://images.englandrugby.com/club_images/22915.png",
      "address": "Tonbridge Juddians Rfc, The Clubhouse, The Slade, Tonbridge, Kent , TN9 1HR, United Kingdom",
      "postcode": "TN9 1HR",
      "maps_url": "https://www.google.com/maps/search/?api=1&query=Tonbridge%20Juddians%20Rfc%0AThe%20Clubhouse%0AThe%20Slade%0ATonbridge%0AKent%20%0ATN9%201HR%0AUnited%20Kingdom",
      "latitude": 51.1975883,
      "longitude": 0.2705978,
      "formatted_address": "The Slade, Tonbridge TN9 1HR, UK",
      "place_id": "ChIJ8QqWh0lP30cRWjoaEnVU3mw"
    },
    {
      "name": "Rams",
      "url": "https://www.englandrugby.com/fixtures-and-results/search-results?team=17417",
      "image_url": "https://images.englandrugby.com/club_images/17417.png",
      "address": "Old Redingensians Sports Ground Old Bath Road, Sonning Reading BERKSHIRE RG4 6TQ UNITED KINGDOM ",
      "postcode": "RG4 6TQ",
      "maps_url": "https://www.google.com/maps/search/?api=1&query=Old%20Redingensians%20Sports%20Ground%20Old%20Bath%20Road%2C%20Sonning%20Reading%20BERKSHIRE%20RG4%206TQ%20UNITED%20KINGDOM%20",
      "latitude": 51.4652355,
      "longitude": -0.9094213,
      "formatted_address": "Old Bath Rd, Sonning, Reading RG4, UK",
      "place_id": "ChIJ_-LRuPyEdkgRZIrZpSsXvT0"
    },
    {
      "name": "Bishop's Stortford",
      "url": "https://www.englandrugby.com/fixtures-and-results/search-results?team=2422",
      "image_url": "https://images.englandrugby.com/club_images/2422.png",
      "address": "Silver Leys, Hadham Road, Bishops Stortford, Hertfordshire, CM23 2QE, United Kingdom",
      "postcode": "CM23 2QE",
      "maps_url": "https://www.google.com/maps/search/?api=1&query=Silver%20Leys%0AHadham%20Road%0ABishops%20Stortford%0AHertfordshire%0ACM23%202QE%0AUnited%20Kingdom",
      "latitude": 51.8766451,
      "longitude": 0.143629,
      "formatted_address": "Silver Leys, 140 Hadham Rd, Bishop's Stortford CM23 2PT, UK",
      "place_id": "ChIJAeyfOh6F2EcRUfJArgfmdug"
    },
    {
      "name": "Sedgley Park",
      "url": "https://www.englandrugby.com/fixtures-and-results/search-results?team=18924",
      "image_url": "https://images.englandrugby.com/club_images/18924.png",
      "address": "Sedgley Park RUFC Park Lane Whitefield Manchester M45 7DZ ENGLAND",
      "postcode": "M45 7DZ",
      "maps_url": "https://www.google.com/maps/search/?api=1&query=Sedgley%20Park%20RUFC%20Park%20Lane%20Whitefield%20Manchester%20M45%207DZ%20ENGLAND",
      "latitude": 53.5394332,
      "longitude": -2.3045532,
      "formatted_address": "Park Ln, Whitefield, Manchester M45 7DZ, UK",
      "place_id": "ChIJeUXMv4mve0gR4NjflcA6rqQ"
    },
    {
      "name": "Birmingham Moseley",
      "url": "https://www.englandrugby.com/fixtures-and-results/search-results?team=2343",
      "image_url": "https://images.englandrugby.com/club_images/2343.png",
      "address": "Birmingham Moseley Rugby, Billesley Common, Yardley Wood Road, Birmingham, West Midlands, B13 0HN, United Kingdom",
      "postcode": "B13 0HN",
      "maps_url": "https://www.google.com/maps/search/?api=1&query=Birmingham%20Moseley%20Rugby%0ABillesley%20Common%0AYardley%20Wood%20Road%0ABirmingham%0AWest%20Midlands%0AB13%200HN%0AUnited%20Kingdom",
      "latitude": 52.4262121,
      "longitude": -1.8766408,
      "formatted_address": "Billesley Common, Birmingham B13 0RD, UK",
      "place_id": "ChIJMwzaRlO5cEgRqN7HBJRC_1U"
    },
    {
      "name": "Dings Crusaders",
      "url": "https://www.englandrugby.com/fixtures-and-results/search-results?team=6469",
      "image_url": "https://images.englandrugby.com/club_images/6469.png",
      "address": "Dings Crusaders Rfc, Shaftsbury Park, Frenchay, Bristol, Bristol, BS16 1LG, United Kingdom",
      "postcode": "BS16 1LG",
      "maps_url": "https://www.google.com/maps/search/?api=1&query=Dings%20Crusaders%20Rfc%0AShaftsbury%20Park%0AFrenchay%0ABristol%0ABristol%0ABS16%201LG%0AUnited%20Kingdom",
      "latitude": 51.4980583,
      "longitude": -2.5295779,
      "formatted_address": "Shaftesbury Park, Frenchay Park Rd, Frenchay, Winterbourne, Bristol BS16 1LG, UK",
      "place_id": "ChIJe5VbnEuRcUgRzhJ42ewIMXY"
    },
    {
      "name": "Clifton",
      "url": "https://www.englandrugby.com/fixtures-and-results/search-results?team=5262",
      "image_url": "https://images.englandrugby.com/club_images/5262.png",
      "address": "Clifton Rfc, Station Road, Cribbs Causeway,  , Bristol, Avon, BS10 7TT, United Kingdom",
      "postcode": "BS10 7TT",
      "maps_url": "https://www.google.com/maps/search/?api=1&query=Clifton%20Rfc%0AStation%20Road%0ACribbs%20Causeway%0A%20%0ABristol%0AAvon%0ABS10%207TT%0AUnited%20Kingdom",
      "latitude": 51.5177578,
      "longitude": -2.624966,
      "formatted_address": "Station Rd, Henbury, Patchway, Bristol BS10 7TB, UK",
      "place_id": "ChIJw8ZZoDGScUgRzyL7N7lvTjA"
    },
    {
      "name": "Leeds Tykes",
      "url": "https://www.englandrugby.com/fixtures-and-results/search-results?team=26499",
      "image_url": "https://images.englandrugby.com/club_images/26499.png",
      "address": "The Clubhouse, The Sycamores, Bramhope, Leeds, West Yorkshire, LS16 9JR, United Kingdom",
      "postcode": "LS16 9JR",
      "maps_url": "https://www.google.com/maps/search/?api=1&query=The%20Clubhouse%0AThe%20Sycamores%0ABramhope%0ALeeds%0AWest%20Yorkshire%0ALS16%209JR%0AUnited%20Kingdom",
      "latitude": 53.8771152,
      "longitude": -1.606674,
      "formatted_address": "The Sycamores, Bramhope, Leeds LS16 9JR, UK",
      "place_id": "EitUaGUgU3ljYW1vcmVzLCBCcmFtaG9wZSwgTGVlZHMgTFMxNiA5SlIsIFVLIi4qLAoUChIJEZrgSbVZeUgRfsfojLH6dwwSFAoSCQ1tGGm1WXlIEaZbPIBLmobZ"
    },
    {
      "name": "Leicester Lions",
      "url": "https://www.englandrugby.com/fixtures-and-results/search-results?team=12077",
      "image_url": "https://images.englandrugby.com/club_images/12077.png",
      "address": "Leicester Lions Rfc Ltd, Westleigh Park, Lutterworth Road, Blaby, Leicestershire, LE8 4DY, United Kingdom",
      "postcode": "LE8 4DY",
      "maps_url": "https://www.google.com/maps/search/?api=1&query=Leicester%20Lions%20Rfc%20Ltd%0AWestleigh%20Park%0ALutterworth%20Road%0ABlaby%0ALeicestershire%0ALE8%204DY%0AUnited%20Kingdom",
      "latitude": 52.5637257,
      "longitude": -1.1700108,
      "formatted_address": "Lutterworth Rd, Blaby, Leicester LE8 4DY, UK",
      "place_id": "ChIJLSLiX_Bnd0gRs38nYIoYqM0"
    }
  ],
  "team_count": 14,
  "success_count": 14
}