{
  "league_name": "National League 2 West",
  "league_url": "https://www.englandrugby.com/fixtures-and-results/search-results?competition=1605&division=66418",
  "teams": [
    {
      "name": "Camborne",
      "url": "https://www.englandrugby.com/fixtures-and-results/search-results?team=4001",
      "image_url": "https://images.englandrugby.com/club_images/4001.png",
      "address": "Crane Park Clubhouse, Cranberry Road, Camborne, Cornwall, TR14 7PW, United Kingdom",
      "postcode": "TR14 7PW",
      "maps_url": "https://www.google.com/maps/search/?api=1&query=Crane%20Park%20Clubhouse%0ACranberry%20Road%0ACamborne%0ACornwall%0ATR14%207PW%0AUnited%20Kingdom",
      "latitude": 50.2130518,
      "longitude": -5.3105804,
      "formatted_address": "Cranberry Rd, Camborne TR14, UK",
      "place_id": "ChIJtf2z3PHfakgRAx7nib8yDTU"
    },
    {
      "name": "Luctonians",
      "url": "https://www.englandrugby.com/fixtures-and-results/search-results?team=12884",
      "image_url": "https://images.englandrugby.com/club_images/12884.png",
      "address": "Luctonians R.F.C. Mortimer Park Hereford Road,  Kingsland Leominster HEREFORDSHIRE HR6 9SB UNITED KINGDOM ",
      "postcode": "HR6 9SB",
      "maps_url": "https://www.google.com/maps/search/?api=1&query=Luctonians%20R.F.C.%20Mortimer%20Park%20Hereford%20Road%2C%20%20Kingsland%20Leominster%20HEREFORDSHIRE%20HR6%209SB%20UNITED%20KINGDOM%20",
      "latitude": 52.2529517,
      "longitude": -2.8278393,
      "formatted_address": "Mortimer Park, Kingsland, Leominster HR6 9SB, UK",
      "place_id": "ChIJ5zMsfdc-cEgRHkPMhVATK5U"
    },
    {
      "name": "Barnstaple",
      "url": "https://www.englandrugby.com/fixtures-and-results/search-results?team=1479",
      "image_url": "https://images.englandrugby.com/club_images/1479.png",
      "address": "Pottington Road, Barnstaple, Devon, EX31 1JH, United Kingdom",
      "postcode": "EX31 1JH",
      "maps_url": "https://www.google.com/maps/search/?api=1&query=Pottington%20Road%0ABarnstaple%0ADevon%0AEX31%201JH%0AUnited%20Kingdom",
      "latitude": 51.0828517,
      "longitude": -4.0670524,
      "formatted_address": "Pottington Rd, Barnstaple EX31 1JH, UK",
      "place_id": "EiZQb3R0aW5ndG9uIFJkLCBCYXJuc3RhcGxlIEVYMzEgMUpILCBVSyIuKiwKFAoSCUcWj5-UOmxIEQFSPT9j_FwnEhQKEgkD4JtfkzpsSBFmQhq1UCXTJw"
    },
    {
      "name": "Hornets",
      "url": "https://www.englandrugby.com/fixtures-and-results/search-results?team=10412",
      "image_url": "https://images.englandrugby.com/club_images/10412.png",
      "address": "Hutton Moor Road, Weston-super-mare, Somerset, BS22 8LY, United Kingdom",
      "postcode": "BS22 8LY",
      "maps_url": "https://www.google.com/maps/search/?api=1&query=Hutton%20Moor%20Road%0AWeston-super-mare%0ASomerset%0ABS22%208LY%0AUnited%20Kingdom",
      "latitude": 51.3451681,
      "longitude": -2.9472999,
      "formatted_address": "Hutton Moor Rd, Weston-super-Mare BS22 8LY, UK",
      "place_id": "Ei5IdXR0b24gTW9vciBSZCwgV2VzdG9uLXN1cGVyLU1hcmUgQlMyMiA4TFksIFVLIi4qLAoUChIJ2aOXNeT4cUgRVt5mGQOgCiMSFAoSCV8JWifk-HFIEbIEAbKTatgv"
    },
    {
      "name": "Hinckley",
      "url": "https://www.englandrugby.com/fixtures-and-results/search-results?team=10189",
      "image_url": "https://images.englandrugby.com/club_images/10189.png",
      "address": "Leicester Road Hinckley LEICESTERSHIRE LE10 3DR UNITED KINGDOM ",
      "postcode": "LE10 3DR",
      "maps_url": "https://www.google.com/maps/search/?api=1&query=Leicester%20Road%20Hinckley%20LEICESTERSHIRE%20LE10%203DR%20UNITED%20KINGDOM%20",
      "latitude": 52.5572667,
      "longitude": -1.3405961,
      "formatted_address": "Leicester Rd, Hinckley LE10 3DR, UK",
      "place_id": "EiNMZWljZXN0ZXIgUmQsIEhpbmNrbGV5IExFMTAgM0RSLCBVSyIuKiwKFAoSCWtJRMPxWndIEZWWR0-LbRiuEhQKEgnnCAal71p3SBFJCuRDQW2V0g"
    },
    {
      "name": "Cinderford",
      "url": "https://www.englandrugby.com/fixtures-and-results/search-results?team=5046",
      "image_url": "https://images.englandrugby.com/club_images/5046.png",
      "address": "Cinderford Rfc, Bells Sport & Rugby Park, Dockham Road, Cinderford, Gloucestershire, GL14 2AQ, United Kingdom",
      "postcode": "GL14 2AQ",
      "maps_url": "https://www.google.com/maps/search/?api=1&query=Cinderford%20Rfc%0ABells%20Sport%20%26%20Rugby%20Park%0ADockham%20Road%0ACinderford%0AGloucestershire%0AGL14%202AQ%0AUnited%20Kingdom",
      "latitude": 51.8243022,
      "longitude": -2.4955819,
      "formatted_address": "10 Southwood Cl, Cinderford GL14 2PR, UK",
      "place_id": "ChIJYVs6FQClcUgRo9mv3tSc6wM"
    },
    {
      "name": "Lymm",
      "url": "https://www.englandrugby.com/fixtures-and-results/search-results?team=13010",
      "image_url": "https://images.englandrugby.com/club_images/13010.png",
      "address": "Beechwood, Crouchley Lane, Lymm, Cheshire, WA13 0AT, United Kingdom",
      "postcode": "WA13 0AT",
      "maps_url": "https://www.google.com/maps/search/?api=1&query=Beechwood%0ACrouchley%20Lane%0ALymm%0ACheshire%0AWA13%200AT%0AUnited%20Kingdom",
      "latitude": 53.3730285,
      "longitude": -2.4744989,
      "formatted_address": "Beechwood Cottage, 64 Crouchley Ln., Lymm WA13 0AT, UK",
      "place_id": "ChIJQX_ETAQAe0gRwlHvYHidnvw"
    },
    {
      "name": "Chester",
      "url": "https://www.englandrugby.com/fixtures-and-results/search-results?team=4680",
      "image_url": "https://images.englandrugby.com/club_images/4680.png",
      "address": "Hare Lane Littleton Chester CHESHIRE CH3 7DB UNITED KINGDOM ",
      "postcode": "CH3 7DB",
      "maps_url": "https://www.google.com/maps/search/?api=1&query=Hare%20Lane%20Littleton%20Chester%20CHESHIRE%20CH3%207DB%20UNITED%20KINGDOM%20",
      "latitude": 53.1969065,
      "longitude": -2.8415787,
      "formatted_address": "Hare Ln, Littleton, Chester CH3 7DB, UK",
      "place_id": "EidIYXJlIExuLCBMaXR0bGV0b24sIENoZXN0ZXIgQ0gzIDdEQiwgVUsiLiosChQKEglnRLZ26ed6SBENQeExN4AeUBIUChIJI828msLnekgR-Ccs1UI96n8"
    },
    {
      "name": "Taunton Titans",
      "url": "https://www.englandrugby.com/fixtures-and-results/search-results?team=21681",
      "image_url": "https://images.englandrugby.com/club_images/21681.png",
      "address": "Summerfield Stadium, Hyde Lane, Taunton, Somerset, TA2 8BU, United Kingdom",
      "postcode": "TA2 8BU",
      "maps_url": "https://www.google.com/maps/search/?api=1&query=Summerfield%20Stadium%0AHyde%20Lane%0ATaunton%0ASomerset%0ATA2%208BU%0AUnited%20Kingdom",
      "latitude": 51.0288017,
      "longitude": -3.0555796,
      "formatted_address": "Hyde Ln, Bathpool, Taunton TA2 8BU, UK",
      "place_id": "EiZIeWRlIExuLCBCYXRocG9vbCwgVGF1bnRvbiBUQTIgOEJVLCBVSyIuKiwKFAoSCYFBBOuO9W1IEcoYj8F2um5oEhQKEglRMt3Yj_VtSBE0j3gBjZz3Dg"
    },
    {
      "name": "Redruth",
      "url": "https://www.englandrugby.com/fixtures-and-results/search-results?team=17621",
      "image_url": "https://images.englandrugby.com/club_images/17621.png",
      "address": "Cardrew Lane Redruth TR15 1SY UNITED KINGDOM",
      "postcode": "TR15 1SY",
      "maps_url": "https://www.google.com/maps/search/?api=1&query=Cardrew%20Lane%20Redruth%20TR15%201SY%20UNITED%20KINGDOM",
      "latitude": 50.2382961,
      "longitude": -5.2293448,
      "formatted_address": "Cardrew Ln, Redruth TR15 1SY, UK",
      "place_id": "EiBDYXJkcmV3IExuLCBSZWRydXRoIFRSMTUgMVNZLCBVSyIuKiwKFAoSCU2pOrNdH2tIEVquKEqUInvyEhQKEgmrRJueXR9rSBGpK4nNAe4yDQ"
    },
    {
      "name": "Old Redcliffians",
      "url": "https://www.englandrugby.com/fixtures-and-results/search-results?team=15929",
      "image_url": "https://images.englandrugby.com/club_images/15929.png",
      "address": "Old Redcliffians Scotland Lane Brislington Bristol BRISTOL BS4 5LU UNITED KINGDOM ",
      "postcode": "BS4 5LU",
      "maps_url": "https://www.google.com/maps/search/?api=1&query=Old%20Redcliffians%20Scotland%20Lane%20Brislington%20Bristol%20BRISTOL%20BS4%205LU%20UNITED%20KINGDOM%20",
      "latitude": 51.42441170000001,
      "longitude": -2.5386936,
      "formatted_address": "Scotland Ln, Brislington, Bristol BS4 5LU, UK",
      "place_id": "ChIJ1Q4W1CKPcUgRv7mDmH8A1q4"
    },
    {
      "name": "Exeter University",
      "url": "https://www.englandrugby.com/fixtures-and-results/search-results?team=7801",
      "image_url": "https://images.englandrugby.com/club_images/7801.png",
      "address": "Au, University Of Exeter, Sports Park, Stocker Road, EX4 4QN, United Kingdom",
      "postcode": "EX4 4QN",
      "maps_url": "https://www.google.com/maps/search/?api=1&query=Au%0AUniversity%20Of%20Exeter%0ASports%20Park%0AStocker%20Road%0AEX4%204QN%0AUnited%20Kingdom",
      "latitude": 50.7380364,
      "longitude": -3.5371669,
      "formatted_address": "Stocker Rd, Exeter EX4 4QL, UK",
      "place_id": "ChIJO26LhEWkbUgRUb5_FLMzR7w"
    },
    {
      "name": "Loughborough Students",
      "url": "https://www.englandrugby.com/fixtures-and-results/search-results?team=12833",
      "image_url": "https://images.englandrugby.com/club_images/12833.png",
      "address": "Sport Development Centre Loughborough University Loughborough University Loughborough LEICESTERSHIRE LE11 3TU UNITED KINGDOM ",
      "postcode": "LE11 3TU",
      "maps_url": "https://www.google.com/maps/search/?api=1&query=Sport%20Development%20Centre%20Loughborough%20University%20Loughborough%20University%20Loughborough%20LEICESTERSHIRE%20LE11%203TU%20UNITED%20KINGDOM%20",
      "latitude": 52.7648281,
      "longitude": -1.2295196,
      "formatted_address": "Loughborough LE11 3TU, UK",
      "place_id": "ChIJ0XomS8PgeUgRnn2RJ6Ki3C0"
    },
    {
      "name": "Syston",
      "url": "https://www.englandrugby.com/fixtures-and-results/search-results?team=118071",
      "image_url": "https://images.englandrugby.com/club_images/118071.png",
      "address": "Syston Rfc, Barkby Road, Quenilborough, Leicester, Leicestershire, LE7 3FE, United Kingdom",
      "postcode": "LE7 3FE",
      "maps_url": "https://www.google.com/maps/search/?api=1&query=Syston%20Rfc%0ABarkby%20Road%0AQuenilborough%0ALeicester%0ALeicestershire%0ALE7%203FE%0AUnited%20Kingdom",
      "latitude": 52.7013936,
      "longitude": -1.0498797,
      "formatted_address": "Barkby Rd, Leicester LE7 3FE, UK",
      "place_id": "ChIJC2PpGYPYeUgRWpx93BgoAqg"
    }
  ],
  "team_count": 14,
  "success_count": 14
}