{
  "league_name": "National League 2 East",
  "league_url": "https://www.englandrugby.com/fixtures-and-results/search-results?competition=1605&division=66417",
  "teams": [
    {
      "name": "Old Albanians",
      "url": "https://www.englandrugby.com/fixtures-and-results/search-results?team=15377",
      "image_url": "https://images.englandrugby.com/club_images/15377.png",
      "address": "Old Albanian Rfc, The Woollam Playing Fields, 160 Harpenden Road, St Albans, Hertfordshire, AL3 6BB, United Kingdom",
      "postcode": "AL3 6BB",
      "maps_url": "https://www.google.com/maps/search/?api=1&query=Old%20Albanian%20Rfc%0AThe%20Woollam%20Playing%20Fields%0A160%20Harpenden%20Road%0ASt%20Albans%0AHertfordshire%0AAL3%206BB%0AUnited%20Kingdom",
      "latitude": 51.7769488,
      "longitude": -0.3345082,
      "formatted_address": "160 Harpenden Rd, St Albans AL3 6BB, UK",
      "place_id": "ChIJdfUXpTU5dkgRfyzQeq846aA"
    },
    {
      "name": "Oundle",
      "url": "https://www.englandrugby.com/fixtures-and-results/search-results?team=16352",
      "image_url": "https://images.englandrugby.com/club_images/16352.png",
      "address": "Occupation Road, Oundle, Peterborough, Cambridgeshire, PE8 4RU, United Kingdom",
      "postcode": "PE8 4RU",
      "maps_url": "https://www.google.com/maps/search/?api=1&query=Occupation%20Road%0AOundle%0APeterborough%0ACambridgeshire%0APE8%204RU%0AUnited%20Kingdom",
      "latitude": 52.4901838,
      "longitude": -0.4687208,
      "formatted_address": "Occupation Rd, Oundle, Peterborough PE8 4RU, UK",
      "place_id": "Ei9PY2N1cGF0aW9uIFJkLCBPdW5kbGUsIFBldGVyYm9yb3VnaCBQRTggNFJVLCBVSyIuKiwKFAoSCaXFxsA0kndIEfyyudC1zXstEhQKEgkF80GPNJJ3SBG6K1U8Z8xiOg"
    },
    {
      "name": "Bury St Edmunds",
      "url": "https://www.englandrugby.com/fixtures-and-results/search-results?team=3824",
      "image_url": "https://images.englandrugby.com/club_images/3824.png",
      "address": "The Haberden Southgate Green Southgate Green Bury St Edmunds SUFFOLK IP33 2BL UNITED KINGDOM ",
      "postcode": "IP33 2BL",
      "maps_url": "https://www.google.com/maps/search/?api=1&query=The%20Haberden%20Southgate%20Green%20Southgate%20Green%20Bury%20St%20Edmunds%20SUFFOLK%20IP33%202BL%20UNITED%20KINGDOM%20",
      "latitude": 52.2362107,
      "longitude": 0.7246579,
      "formatted_address": "The Haberden Southgate Green, Bury St Edmunds, Bury Saint Edmunds IP33 2BL, UK",
      "place_id": "ChIJ16C90lVM2EcRO9FKVh8-7BU"
    },
    {
      "name": "Canterbury",
      "url": "https://www.englandrugby.com/fixtures-and-results/search-results?team=4123",
      "image_url": "https://images.englandrugby.com/club_images/4123.png",
      "address": "The Marine Travel Ground, Merton Lane (north), Nackington Road, Canterbury, Kent, CT4 7DZ, United Kingdom",
      "postcode": "CT4 7DZ",
      "maps_url": "https://www.google.com/maps/search/?api=1&query=The%20Marine%20Travel%20Ground%0AMerton%20Lane%20%28north%29%0ANackington%20Road%0ACanterbury%0AKent%0ACT4%207DZ%0AUnited%20Kingdom",
      "latitude": 51.27569039999999,
      "longitude": 1.0859745,
      "formatted_address": "30 St George's Pl, Canterbury CT1 1UT, UK",
      "place_id": "ChIJPzkDOjXK3kcRH16u5dGKl_8"
    },
    {
      "name": "Dorking",
      "url": "https://www.englandrugby.com/fixtures-and-results/search-results?team=6609",
      "image_url": "https://images.englandrugby.com/club_images/6609.png",
      "address": "The Pavilion, The Big Field, Brockham, Betchworth, Surrey, RH3 7LZ, United Kingdom",
      "postcode": "RH3 7LZ",
      "maps_url": "https://www.google.com/maps/search/?api=1&query=The%20Pavilion%0AThe%20Big%20Field%0ABrockham%0ABetchworth%0ASurrey%0ARH3%207LZ%0AUnited%20Kingdom",
      "latitude": 51.23628009999999,
      "longitude": -0.2869521,
      "formatted_address": "BROCKHAM BIG FIELD, Dorking Rugby Football Club, Brockham, Betchworth RH3 7LR, UK",
      "place_id": "ChIJb1PupenndUgRdYtzSa3hgw8"
    },
    {
      "name": "Barnes",
      "url": "https://www.englandrugby.com/fixtures-and-results/search-results?team=1400",
      "image_url": "https://images.englandrugby.com/club_images/1400.png",
      "address": "Barn Elms Sports Fields, Queen Elizabeth Walk, Queen Elizabeth Walk, Barnes, SW13 9SA, United Kingdom",
      "postcode": "SW13 9SA",
      "maps_url": "https://www.google.com/maps/search/?api=1&query=Barn%20Elms%20Sports%20Fields%0AQueen%20Elizabeth%20Walk%0AQueen%20Elizabeth%20Walk%0ABarnes%0ASW13%209SA%0AUnited%20Kingdom",
      "latitude": 51.4755979,
      "longitude": -0.230116,
      "formatted_address": "Barn Elms Sports Centre, Queen Elizabeth Walk, London SW13 0DG, UK",
      "place_id": "ChIJhbGPKQAPdkgRK_oSweeZKK8"
    },
    {
      "name": "Westcombe Park",
      "url": "https://www.englandrugby.com/fixtures-and-results/search-results?team=24978",
      "image_url": "https://images.englandrugby.com/club_images/24978.png",
      "address": "Westcombe Park RFC Goddington Dene Goddington Lane Orpington KENT BR6 9SX UNITED KINGDOM ",
      "postcode": "BR6 9SX",
      "maps_url": "https://www.google.com/maps/search/?api=1&query=Westcombe%20Park%20RFC%20Goddington%20Dene%20Goddington%20Lane%20Orpington%20KENT%20BR6%209SX%20UNITED%20KINGDOM%20",
      "latitude": 51.3636876,
      "longitude": 0.1144741,
      "formatted_address": "Goddington Dene Sports Ground, Goddington Ln, Goddington, Orpington BR6 9SX, UK",
      "place_id": "ChIJT7wrq8Cs2EcRuVlAPR_4UVc"
    },
    {
      "name": "Guernsey",
      "url": "https://www.englandrugby.com/fixtures-and-results/search-results?team=9028",
      "image_url": "https://images.englandrugby.com/club_images/9028.png",
      "address": "Garenne Stand, Foote's Lane, St Peter Port, Guernsey, Hampshire, GY1 2UL, United Kingdom",
      "postcode": "GY1 2UL",
      "maps_url": "https://www.google.com/maps/search/?api=1&query=Garenne%20Stand%0AFoote%27s%20Lane%0ASt%20Peter%20Port%0AGuernsey%0AHampshire%0AGY1%202UL%0AUnited%20Kingdom",
      "latitude": 49.4646184,
      "longitude": -2.5628604,
      "formatted_address": "Osmand Priaulx Memorial Playing Fields, Foote's Ln, Guernsey GY6, Guernsey",
      "place_id": "ChIJIVB1RgBzDUgRaqLJDuzjaCw"
    },
    {
      "name": "Esher",
      "url": "https://www.englandrugby.com/fixtures-and-results/search-results?team=7650",
      "image_url": "https://images.englandrugby.com/club_images/7650.png",
      "address": "369 Esher Rfc, Molesey Road, Hersham, Surrey, KT12 3PF, United Kingdom",
      "postcode": "KT12 3PF",
      "maps_url": "https://www.google.com/maps/search/?api=1&query=369%20Esher%20Rfc%0AMolesey%20Road%0AHersham%0ASurrey%0AKT12%203PF%0AUnited%20Kingdom",
      "latitude": 51.3799356,
      "longitude": -0.3893524,
      "formatted_address": "369 Molesey Rd, Walton-on-Thames KT12 3PG, UK",
      "place_id": "ChIJgbTPsA51dkgRa0z-o9uTyDA"
    },
    {
      "name": "London Welsh",
      "url": "https://www.englandrugby.com/fixtures-and-results/search-results?team=12635",
      "image_url": "https://images.englandrugby.com/club_images/12635.png",
      "address": "Old Deer Park, 187 Kew Road, Richmond, Surrey, TW9 2AZ, England",
      "postcode": "TW9 2AZ",
      "maps_url": "https://www.google.com/maps/search/?api=1&query=Old%20Deer%20Park%0A187%20Kew%20Road%0ARichmond%0ASurrey%0ATW9%202AZ%0AEngland",
      "latitude": 51.4687957,
      "longitude": -0.2952569,
      "formatted_address": "187 Kew Rd, Richmond TW9 2AZ, UK",
      "place_id": "ChIJYyPrTjIMdkgRYBqBQgaXFcE"
    },
    {
      "name": "Havant",
      "url": "https://www.englandrugby.com/fixtures-and-results/search-results?team=9690",
      "image_url": "https://images.englandrugby.com/club_images/9690.png",
      "address": "Hooks Lane Ground, Fraser Road, Bedhampton, Havant, Hampshire, PO9 3EJ, United Kingdom",
      "postcode": "PO9 3EJ",
      "maps_url": "https://www.google.com/maps/search/?api=1&query=Hooks%20Lane%20Ground%0AFraser%20Road%0ABedhampton%0AHavant%0AHampshire%0APO9%203EJ%0AUnited%20Kingdom",
      "latitude": 50.8564366,
      "longitude": -0.9969572,
      "formatted_address": "Fraser Rd, Bedhampton, Havant PO9, UK",
      "place_id": "EiVGcmFzZXIgUmQsIEJlZGhhbXB0b24sIEhhdmFudCBQTzksIFVLIi4qLAoUChIJNUquTsdEdEgRL2PF30pzLQsSFAoSCZX_MoOVRHRIEVm7nuqBEq6j"
    },
    {
      "name": "Sevenoaks",
      "url": "https://www.englandrugby.com/fixtures-and-results/search-results?team=19006",
      "image_url": "https://images.englandrugby.com/club_images/19006.png",
      "address": "Knole Paddock Plymouth Drive Sevenoaks KENT TN13 3RP UNITED KINGDOM ",
      "postcode": "TN13 3RP",
      "maps_url": "https://www.google.com/maps/search/?api=1&query=Knole%20Paddock%20Plymouth%20Drive%20Sevenoaks%20KENT%20TN13%203RP%20UNITED%20KINGDOM%20",
      "latitude": 51.2739863,
      "longitude": 0.199947,
      "formatted_address": "75FX+HX Knole Paddock, Sevenoaks TN13 3RP, UK",
      "place_id": "ChIJ1T07Xb9N30cRG9rQvlDNYRc"
    },
    {
      "name": "Henley",
      "url": "https://www.englandrugby.com/fixtures-and-results/search-results?team=9984",
      "image_url": "https://images.englandrugby.com/club_images/9984.png",
      "address": "Dry Leas, Marlow Road, Henley-on-thames, Oxfordshire, RG9 2JA, United Kingdom",
      "postcode": "RG9 2JA",
      "maps_url": "https://www.google.com/maps/search/?api=1&query=Dry%20Leas%0AMarlow%20Road%0AHenley-on-thames%0AOxfordshire%0ARG9%202JA%0AUnited%20Kingdom",
      "latitude": 51.5430685,
      "longitude": -0.9070623999999999,
      "formatted_address": "Henley-on-Thames RG9 2JN, UK",
      "place_id": "ChIJ0aq8eACPdkgRWIyVT7XyK7U"
    },
    {
      "name": "Oxford Harlequins",
      "url": "https://www.englandrugby.com/fixtures-and-results/search-results?team=16431",
      "image_url": "https://images.englandrugby.com/club_images/16431.png",
      "address": "Oxford Road, Horspath, Oxford, Oxfordshire, OX4 2RR, United Kingdom",
      "postcode": "OX4 2RR",
      "maps_url": "https://www.google.com/maps/search/?api=1&query=Oxford%20Road%0AHorspath%0AOxford%0AOxfordshire%0AOX4%202RR%0AUnited%20Kingdom",
      "latitude": 51.7364248,
      "longitude": -1.1838345,
      "formatted_address": "Oxford Rd, Oxford OX4 2RR, UK",
      "place_id": "Eh1PeGZvcmQgUmQsIE94Zm9yZCBPWDQgMlJSLCBVSyIuKiwKFAoSCZUdB0W8wXZIERF8PUDaoX04EhQKEgmX3I6oo8F2SBGyTQBSMDxuIQ"
    }
  ],
  "team_count": 14,
  "success_count": 14
}