{
  "league_name": "Regional 2 North",
  "league_url": "https://www.englandrugby.com/fixtures-and-results/search-results?competition=1623&division=66488",
  "teams": [
    {
      "name": "Northern",
      "url": "https://www.englandrugby.com/fixtures-and-results/search-results?team=14948",
      "image_url": "https://images.englandrugby.com/club_images/14948.png",
      "address": "Mccracken Park, Great North Road, Newcastle Upon Tyne, Tyne And Wear, NE3 2DT, United Kingdom",
      "postcode": "NE3 2DT",
      "maps_url": "https://www.google.com/maps/search/?api=1&query=Mccracken%20Park%0AGreat%20North%20Road%0ANewcastle%20Upon%20Tyne%0ATyne%20And%20Wear%0ANE3%202DT%0AUnited%20Kingdom",
      "latitude": 55.0095608,
      "longitude": -1.6203962,
      "formatted_address": "Great N Rd, Newcastle upon Tyne, UK",
      "place_id": "ChIJx1sVWLN2fkgR8GNLWT1fYeU"
    },
    {
      "name": "Consett",
      "url": "https://www.englandrugby.com/fixtures-and-results/search-results?team=5587",
      "image_url": "https://images.englandrugby.com/club_images/5587.png",
      "address": "The Demi Albert Road Consett COUNTY DURHAM DH8 5QU UNITED KINGDOM ",
      "postcode": "DH8 5QU",
      "maps_url": "https://www.google.com/maps/search/?api=1&query=The%20Demi%20Albert%20Road%20Consett%20COUNTY%20DURHAM%20DH8%205QU%20UNITED%20KINGDOM%20",
      "latitude": 54.8522222,
      "longitude": -1.8347222,
      "formatted_address": "45 Albert Rd, Consett DH8 5QU, UK",
      "place_id": "ChIJswHq4PjTfUgRjytam34xk3M"
    },
    {
      "name": "Percy Park",
      "url": "https://www.englandrugby.com/fixtures-and-results/search-results?team=16747",
      "image_url": "https://images.englandrugby.com/club_images/16747.png",
      "address": "The Club House, Preston Avenue, North Shields, Tyne  Wear, NE30 2BE, United Kingdom",
      "postcode": "NE30 2BE",
      "maps_url": "https://www.google.com/maps/search/?api=1&query=The%20Club%20House%0APreston%20Avenue%0ANorth%20Shields%0ATyne%20%20Wear%0ANE30%202BE%0AUnited%20Kingdom",
      "latitude": 55.0163748,
      "longitude": -1.4475257,
      "formatted_address": "Preston Ave, North Shields NE30, UK",
      "place_id": "EiNQcmVzdG9uIEF2ZSwgTm9ydGggU2hpZWxkcyBORTMwLCBVSyIuKiwKFAoSCb1IAmPtbn5IERjcvw10ssw6EhQKEgnhWeQNEW5-SBECSBtK8gj6Tg"
    },
    {
      "name": "West Hartlepool",
      "url": "https://www.englandrugby.com/fixtures-and-results/search-results?team=24767",
      "image_url": "https://images.englandrugby.com/club_images/24767.png",
      "address": "Brinkburn Catcote Road Hartlepool COUNTY DURHAM TS25 4HA",
      "postcode": "TS25 4HA",
      "maps_url": "https://www.google.com/maps/search/?api=1&query=Brinkburn%20Catcote%20Road%20Hartlepool%20COUNTY%20DURHAM%20TS25%204HA",
      "latitude": 54.6755131,
      "longitude": -1.23016,
      "formatted_address": "Blakelock Rd, Hartlepool TS25 5PF, UK",
      "place_id": "ChIJOzlu3XbzfkgRATJpqISZ3og"
    },
    {
      "name": "Sunderland",
      "url": "https://www.englandrugby.com/fixtures-and-results/search-results?team=21339",
      "image_url": "https://images.englandrugby.com/club_images/21339.png",
      "address": "Ashbrooke Sports Club, Ashbrooke Road, Sunderland, SR2 7HH, United Kingdom",
      "postcode": "SR2 7HH",
      "maps_url": "https://www.google.com/maps/search/?api=1&query=Ashbrooke%20Sports%20Club%0AAshbrooke%20Road%0ASunderland%0ASR2%207HH%0AUnited%20Kingdom",
      "latitude": 54.8948443,
      "longitude": -1.3856857,
      "formatted_address": "W Lawn, Sunderland SR2 7HH, UK",
      "place_id": "ChIJhxOEVJpmfkgR3rewqaHa_h8"
    },
    {
      "name": "Keswick",
      "url": "https://www.englandrugby.com/fixtures-and-results/search-results?team=11329",
      "image_url": "https://images.englandrugby.com/club_images/11329.png",
      "address": "Davidson Park, Crow Park Road, Keswick, Cumbria, CA12 5EG, United Kingdom",
      "postcode": "CA12 5EG",
      "maps_url": "https://www.google.com/maps/search/?api=1&query=Davidson%20Park%0ACrow%20Park%20Road%0AKeswick%0ACumbria%0ACA12%205EG%0AUnited%20Kingdom",
      "latitude": 54.6003969,
      "longitude": -3.1433348,
      "formatted_address": "Crow Park Rd, Keswick CA12 5EG, UK",
      "place_id": "EiJDcm93IFBhcmsgUmQsIEtlc3dpY2sgQ0ExMiA1RUcsIFVLIi4qLAoUChIJwYor4WTbfEgRvaiYahBBz1MSFAoSCXe3aDll23xIEVU_g0NhuPqb"
    },
    {
      "name": "Morpeth",
      "url": "https://www.englandrugby.com/fixtures-and-results/search-results?team=14137",
      "image_url": "https://images.englandrugby.com/club_images/14137.png",
      "address": "Grange House Field, Mitford Road, Morpeth, Northumberland , NE61 1RJ, United Kingdom",
      "postcode": "NE61 1RJ",
      "maps_url": "https://www.google.com/maps/search/?api=1&query=Grange%20House%20Field%0AMitford%20Road%0AMorpeth%0ANorthumberland%20%0ANE61%201RJ%0AUnited%20Kingdom",
      "latitude": 55.1693273,
      "longitude": -1.7010152,
      "formatted_address": "Mitford Rd, Morpeth NE61 1RJ, UK",
      "place_id": "EiBNaXRmb3JkIFJkLCBNb3JwZXRoIE5FNjEgMVJKLCBVSyIuKiwKFAoSCV_m3eFXCn5IEZkaxKGqOzacEhQKEgkH7aoJ-Ap-SBFNFUM6idQoLA"
    },
    {
      "name": "Upper Eden",
      "url": "https://www.englandrugby.com/fixtures-and-results/search-results?team=23815",
      "image_url": "https://images.englandrugby.com/club_images/23815.png",
      "address": "Pennine Park, Westgarth Rd, Kirkby Stephen, Cumbria, CA17 4TF, United Kingdom",
      "postcode": "CA17 4TF",
      "maps_url": "https://www.google.com/maps/search/?api=1&query=Pennine%20Park%0AWestgarth%20Rd%0AKirkby%20Stephen%0ACumbria%0ACA17%204TF%0AUnited%20Kingdom",
      "latitude": 54.4705891,
      "longitude": -2.3521813,
      "formatted_address": "Westgarth Rd, Kirkby Stephen CA17 4TF, UK",
      "place_id": "EilXZXN0Z2FydGggUmQsIEtpcmtieSBTdGVwaGVuIENBMTcgNFRGLCBVSyIuKiwKFAoSCQ8_ZWbMXHxIEdu3vBr1hxeXEhQKEglp9npjzFx8SBFvOeZ8XKRlkA"
    },
    {
      "name": "Guisborough",
      "url": "https://www.englandrugby.com/fixtures-and-results/search-results?team=9113",
      "image_url": "https://images.englandrugby.com/club_images/9113.png",
      "address": "Guisborough Rugb Club, The Clubhouse, Belmangate, Guisborough, Nyork, TS14 7BB, England",
      "postcode": "TS14 7BB",
      "maps_url": "https://www.google.com/maps/search/?api=1&query=Guisborough%20Rugb%20Club%0AThe%20Clubhouse%0ABelmangate%0AGuisborough%0ANyork%0ATS14%207BB%0AEngland",
      "latitude": 54.5310012,
      "longitude": -1.0487119,
      "formatted_address": "Rugby Club, Belmangate, Guisborough TS14 7BB, UK",
      "place_id": "ChIJX1RYAvHlfkgR1wPfG7xrbkw"
    },
    {
      "name": "Durham City",
      "url": "https://www.englandrugby.com/fixtures-and-results/search-results?team=6950",
      "image_url": "https://images.englandrugby.com/club_images/6950.png",
      "address": "Durham City RFC, Hollow Drift, Green Lane, Durham, COUNTY DURHAM, DH1 3JU, UNITED KINGDOM, ",
      "postcode": "DH1 3JU",
      "maps_url": "https://www.google.com/maps/search/?api=1&query=Durham%20City%20RFC%0AHollow%20Drift%0AGreen%20Lane%0ADurham%0ACOUNTY%20DURHAM%0ADH1%203JU%0AUNITED%20KINGDOM%0A",
      "latitude": 54.7729436,
      "longitude": -1.5625413,
      "formatted_address": "Hollow Drift, Green Ln, Durham DH1 3JU, UK",
      "place_id": "ChIJDfYpvX2HfkgRitDfLkzConc"
    },
    {
      "name": "Aspatria",
      "url": "https://www.englandrugby.com/fixtures-and-results/search-results?team=979",
      "image_url": "https://images.englandrugby.com/club_images/979.png",
      "address": "Bower Park Station Road Aspatria Wigton CUMBRIA CA7 2AJ UNITED KINGDOM ",
      "postcode": "CA7 2AJ",
      "maps_url": "https://www.google.com/maps/search/?api=1&query=Bower%20Park%20Station%20Road%20Aspatria%20Wigton%20CUMBRIA%20CA7%202AJ%20UNITED%20KINGDOM%20",
      "latitude": 54.760906,
      "longitude": -3.3291397,
      "formatted_address": "Holly Bank, Meadow Cl, Aspatria, Wigton CA7 3JL, UK",
      "place_id": "ChIJz66OJQApfUgRWoCuCdIyR-M"
    },
    {
      "name": "Wigton",
      "url": "https://www.englandrugby.com/fixtures-and-results/search-results?team=25403",
      "image_url": "https://images.englandrugby.com/club_images/25403.png",
      "address": "Wigton Rugby Club, Lowmoor Road, Wigton, Cumbria, CA7 9QT, United Kingdom",
      "postcode": "CA7 9QT",
      "maps_url": "https://www.google.com/maps/search/?api=1&query=Wigton%20Rugby%20Club%0ALowmoor%20Road%0AWigton%0ACumbria%0ACA7%209QT%0AUnited%20Kingdom",
      "latitude": 54.8209688,
      "longitude": -3.145051,
      "formatted_address": "Lowmoor Rd, Wigton CA7 9QT, UK",
      "place_id": "ChIJ46PP_U0hfUgRZCMCj7WQaZc"
    }
  ],
  "team_count": 12,
  "success_count": 12
}