{
  "league_name": "Regional 2 North West",
  "league_url": "https://www.englandrugby.com/fixtures-and-results/search-results?competition=1623&division=66490",
  "teams": [
    {
      "name": "North Ribblesdale",
      "url": "https://www.englandrugby.com/fixtures-and-results/search-results?team=14766",
      "image_url": "https://images.englandrugby.com/club_images/14766.png",
      "address": "Grove Park, Lower Greenfoot, Settle, North Yorkshire, BD24 9RB, United Kingdom",
      "postcode": "BD24 9RB",
      "maps_url": "https://www.google.com/maps/search/?api=1&query=Grove%20Park%0ALower%20Greenfoot%0ASettle%0ANorth%20Yorkshire%0ABD24%209RB%0AUnited%20Kingdom",
      "latitude": 54.0638158,
      "longitude": -2.2784817,
      "formatted_address": "Grove Park House, 17 Ingfield Ln, Settle BD24 9BA, UK",
      "place_id": "ChIJEXTvoth3fEgRFkAKR1eAxF0"
    },
    {
      "name": "Sandbach",
      "url": "https://www.englandrugby.com/fixtures-and-results/search-results?team=18677",
      "image_url": "https://images.englandrugby.com/club_images/18677.png",
      "address": "Bradwall Road Sandbach CHESHIRE CW11 1RA UNITED KINGDOM ",
      "postcode": "CW11 1RA",
      "maps_url": "https://www.google.com/maps/search/?api=1&query=Bradwall%20Road%20Sandbach%20CHESHIRE%20CW11%201RA%20UNITED%20KINGDOM%20",
      "latitude": 53.1551931,
      "longitude": -2.3668874,
      "formatted_address": "Bradwall Rd, Sandbach CW11 1RA, UK",
      "place_id": "EiJCcmFkd2FsbCBSZCwgU2FuZGJhY2ggQ1cxMSAxUkEsIFVLIi4qLAoUChIJNwzlx6VZekgRP2l9YO117NQSFAoSCYtE9WifWXpIEaafRTcLgYYp"
    },
    {
      "name": "Vale of Lune",
      "url": "https://www.englandrugby.com/fixtures-and-results/search-results?team=23900",
      "image_url": "https://images.englandrugby.com/club_images/23900.png",
      "address": "Vale Of Lune Rufc, Powderhouse Lane, Lancaster., Lancashire, LA1 2TT, United Kingdom",
      "postcode": "LA1 2TT",
      "maps_url": "https://www.google.com/maps/search/?api=1&query=Vale%20Of%20Lune%20Rufc%0APowderhouse%20Lane%0ALancaster.%0ALancashire%0ALA1%202TT%0AUnited%20Kingdom",
      "latitude": 54.06193469999999,
      "longitude": -2.8200337,
      "formatted_address": "Powder House Ln, Lancaster LA1 2TT, UK",
      "place_id": "ChIJB1Vp5I2dfEgRuyLkm4vYRqE"
    },
    {
      "name": "Douglas (I.O.M.)",
      "url": "https://www.englandrugby.com/fixtures-and-results/search-results?team=6674",
      "image_url": "https://images.englandrugby.com/club_images/6674.png",
      "address": "The Clubhouse, Port-e-chee, Im2 2ra, Douglas, Isle Of Man, IM2 2RA, Isle Of Man",
      "postcode": "IM2 2RA",
      "maps_url": "https://www.google.com/maps/search/?api=1&query=The%20Clubhouse%0APort-e-chee%0AIm2%202ra%0ADouglas%0AIsle%20Of%20Man%0AIM2%202RA%0AIsle%20Of%20Man",
      "latitude": 54.1653948,
      "longitude": -4.4877263,
      "formatted_address": "Port-E-Chee Ave, Douglas, Isle of Man IM2, Isle of Man",
      "place_id": "ChIJHc0s5jmFY0gRrkjB5EzfDpQ"
    },
    {
      "name": "Widnes",
      "url": "https://www.englandrugby.com/fixtures-and-results/search-results?team=25369",
      "image_url": "https://images.englandrugby.com/club_images/25369.png",
      "address": "Heath Road, Widnes. LANCASHIRE WA8 7NU UNITED KINGDOM ",
      "postcode": "WA8 7NU",
      "maps_url": "https://www.google.com/maps/search/?api=1&query=Heath%20Road%2C%20Widnes.%20LANCASHIRE%20WA8%207NU%20UNITED%20KINGDOM%20",
      "latitude": 53.3735218,
      "longitude": -2.7544332,
      "formatted_address": "Heath Rd, Widnes WA8 7NU, UK",
      "place_id": "EhxIZWF0aCBSZCwgV2lkbmVzIFdBOCA3TlUsIFVLIi4qLAoUChIJKbXOApMde0gRcspDiR6p_PESFAoSCdXbiT2THXtIEaW2JHOZDRjY"
    },
    {
      "name": "Burnage",
      "url": "https://www.englandrugby.com/fixtures-and-results/search-results?team=3684",
      "image_url": "https://images.englandrugby.com/club_images/3684.png",
      "address": "Varley Park, Battersea Road, Stockport, Chesh, SK4 3EA, United Kingdom",
      "postcode": "SK4 3EA",
      "maps_url": "https://www.google.com/maps/search/?api=1&query=Varley%20Park%0ABattersea%20Road%0AStockport%0AChesh%0ASK4%203EA%0AUnited%20Kingdom",
      "latitude": 53.4078995,
      "longitude": -2.2035569,
      "formatted_address": "Battersea Rd, Heaton Mersey, Stockport SK4 3EA, UK",
      "place_id": "EjJCYXR0ZXJzZWEgUmQsIEhlYXRvbiBNZXJzZXksIFN0b2NrcG9ydCBTSzQgM0VBLCBVSyIuKiwKFAoSCY28TScCs3tIEaAJv2ya6oJhEhQKEgmrNaXUA7N7SBHi3oycu6OrmQ"
    },
    {
      "name": "Winnington Park",
      "url": "https://www.englandrugby.com/fixtures-and-results/search-results?team=25649",
      "image_url": "https://images.englandrugby.com/club_images/25649.png",
      "address": "Winnington Park Rfc, Burrows Hill, Hartford, Northwich, Cheshire, CW8 3AA, United Kingdom",
      "postcode": "CW8 3AA",
      "maps_url": "https://www.google.com/maps/search/?api=1&query=Winnington%20Park%20Rfc%0ABurrows%20Hill%0AHartford%0ANorthwich%0ACheshire%0ACW8%203AA%0AUnited%20Kingdom",
      "latitude": 53.25396079999999,
      "longitude": -2.5377104,
      "formatted_address": "Burrows Hill, Hartford, Northwich CW8 3AA, UK",
      "place_id": "ChIJ9WK6mWn5ekgR5TTyaidtoG0"
    },
    {
      "name": "Northwich",
      "url": "https://www.englandrugby.com/fixtures-and-results/search-results?team=15005",
      "image_url": "https://images.englandrugby.com/club_images/15005.png",
      "address": "Moss Farm Leisure Complex, Moss Farm, Winnington, Northwich, Cheshire, CW8 4BG, United Kingdom",
      "postcode": "CW8 4BG",
      "maps_url": "https://www.google.com/maps/search/?api=1&query=Moss%20Farm%20Leisure%20Complex%0AMoss%20Farm%2C%20Winnington%0ANorthwich%0ACheshire%0ACW8%204BG%0AUnited%20Kingdom",
      "latitude": 53.2566645,
      "longitude": -2.5326532,
      "formatted_address": "Moss Ln, Northwich CW8 4BG, UK",
      "place_id": "ChIJu2e5yT_5ekgRIjwYTbLQKLc"
    },
    {
      "name": "Firwood Waterloo",
      "url": "https://www.englandrugby.com/fixtures-and-results/search-results?team=8162",
      "image_url": "https://images.englandrugby.com/club_images/8162.png",
      "address": "The Memorial Ground, St Anthony's Road, Blundellsands, Merseyside, L23 8TW, England",
      "postcode": "L23 8TW",
      "maps_url": "https://www.google.com/maps/search/?api=1&query=The%20Memorial%20Ground%0ASt%20Anthony%27s%20Road%0ABlundellsands%0AMerseyside%0AL23%208TW%0AEngland",
      "latitude": 53.4908423,
      "longitude": -3.0427041,
      "formatted_address": "St Anthony's Rd, Crosby, Liverpool L23, UK",
      "place_id": "ChIJH6AVv_Eke0gRHRX-oEnvN9o"
    },
    {
      "name": "Birkenhead Park",
      "url": "https://www.englandrugby.com/fixtures-and-results/search-results?team=96825",
      "image_url": "https://images.englandrugby.com/club_images/96825.png",
      "address": "141 Birkenhead Park R. U. F.c. (rugby Union), The Upper Park, Park Road North, Birkenhead, Merseyside, CH41 8AA, United Kingdom",
      "postcode": "CH41 8AA",
      "maps_url": "https://www.google.com/maps/search/?api=1&query=141%20Birkenhead%20Park%20R.%20U.%20F.c.%20%28rugby%20Union%29%0AThe%20Upper%20Park%0APark%20Road%20North%0ABirkenhead%0AMerseyside%0ACH41%208AA%0AUnited%20Kingdom",
      "latitude": 53.3942892,
      "longitude": -3.0436255,
      "formatted_address": "Birkenhead Park, Park Dr, Birkenhead CH41 4HY, UK",
      "place_id": "ChIJFS3iIQIne0gRnJriMRwIftQ"
    },
    {
      "name": "West Park (St Helens)",
      "url": "https://www.englandrugby.com/fixtures-and-results/search-results?team=24865",
      "image_url": "https://images.englandrugby.com/club_images/24865.png",
      "address": "West Park RFC Red Rocks Prescot Road St. Helens MERSEYSIDE WA10 3AG UNITED KINGDOM ",
      "postcode": "WA10 3AG",
      "maps_url": "https://www.google.com/maps/search/?api=1&query=West%20Park%20RFC%20Red%20Rocks%20Prescot%20Road%20St.%20Helens%20MERSEYSIDE%20WA10%203AG%20UNITED%20KINGDOM%20",
      "latitude": 53.4419034,
      "longitude": -2.7716383,
      "formatted_address": "Club House, Prescot Rd, St Helens, Saint Helens WA10 3AG, UK",
      "place_id": "ChIJlxnGR3Uce0gRoSB4hURvVyg"
    },
    {
      "name": "Altrincham Kersal",
      "url": "https://www.englandrugby.com/fixtures-and-results/search-results?team=536",
      "image_url": "https://images.englandrugby.com/club_images/536.png",
      "address": "Stelfox Avenue, Timperley, Altrincham, Cheshire, WA15 6UL, United Kingdom",
      "postcode": "WA15 6UL",
      "maps_url": "https://www.google.com/maps/search/?api=1&query=Stelfox%20Avenue%0ATimperley%0AAltrincham%0ACheshire%0AWA15%206UL%0AUnited%20Kingdom",
      "latitude": 53.400416,
      "longitude": -2.312608,
      "formatted_address": "Stelfox Ave, Timperley, Altrincham WA15 6UL, UK",
      "place_id": "Ei9TdGVsZm94IEF2ZSwgVGltcGVybGV5LCBBbHRyaW5jaGFtIFdBMTUgNlVMLCBVSyIuKiwKFAoSCeOAx8nirHtIEcq_mDJgnUJSEhQKEgmRoXfO4qx7SBFL9sDrEVTDAw"
    }
  ],
  "team_count": 12,
  "success_count": 12
}