{
  "league_name": "Regional 1 Tribute Ale South West",
  "league_url": "https://www.englandrugby.com/fixtures-and-results/search-results?competition=1699&division=66457",
  "teams": [
    {
      "name": "Topsham",
      "url": "https://www.englandrugby.com/fixtures-and-results/search-results?team=22933",
      "image_url": "https://images.englandrugby.com/club_images/22933.png",
      "address": "Topsham Rfc, Bonfire Field, Exeter Road, Exeter, Devon, EX3 0LY, United Kingdom",
      "postcode": "EX3 0LY",
      "maps_url": "https://www.google.com/maps/search/?api=1&query=Topsham%20Rfc%0ABonfire%20Field%0AExeter%20Road%0AExeter%0ADevon%0AEX3%200LY%0AUnited%20Kingdom",
      "latitude": 50.6887576,
      "longitude": -3.4703749,
      "formatted_address": "Bonfire Field, Exeter Rd, Topsham, Exeter EX3 0LY, UK",
      "place_id": "ChIJ3ayNkT-hbUgR9Rq5fZc2n-I"
    },
    {
      "name": "Devonport Services",
      "url": "https://www.englandrugby.com/fixtures-and-results/search-results?team=6405",
      "image_url": "https://images.englandrugby.com/club_images/6405.png",
      "address": "The Rectory Field 2nd Avenue Plymouth DEVON PL1 5QD UNITED KINGDOM",
      "postcode": "PL1 5QD",
      "maps_url": "https://www.google.com/maps/search/?api=1&query=The%20Rectory%20Field%202nd%20Avenue%20Plymouth%20DEVON%20PL1%205QD%20UNITED%20KINGDOM",
      "latitude": 50.3724205,
      "longitude": -4.1648611,
      "formatted_address": "Second Ave, Stoke, Plymouth PL1 5QD, UK",
      "place_id": "EidTZWNvbmQgQXZlLCBTdG9rZSwgUGx5bW91dGggUEwxIDVRRCwgVUsiLiosChQKEgmBNlMpapNsSBEzHnPEo1VnDhIUChIJSV1sLGqTbEgRwfj_G4v5-OI"
    },
    {
      "name": "Brixham",
      "url": "https://www.englandrugby.com/fixtures-and-results/search-results?team=3314",
      "image_url": "https://images.englandrugby.com/club_images/3314.png",
      "address": "Brixham Rugby Club , Astley Park, Rea Barn Road, Brixham, Devon, TQ5 9ED, United Kingdom",
      "postcode": "TQ5 9ED",
      "maps_url": "https://www.google.com/maps/search/?api=1&query=Brixham%20Rugby%20Club%20%0AAstley%20Park%0ARea%20Barn%20Road%0ABrixham%0ADevon%0ATQ5%209ED%0AUnited%20Kingdom",
      "latitude": 50.39031199999999,
      "longitude": -3.508633,
      "formatted_address": "Astley Park, Brixham TQ5 9ED, UK",
      "place_id": "ChIJfabORNgQbUgRiwW9eCYi_FU"
    },
    {
      "name": "Lydney",
      "url": "https://www.englandrugby.com/fixtures-and-results/search-results?team=12992",
      "image_url": "https://images.englandrugby.com/club_images/12992.png",
      "address": "Lydney RFC Regentsholme Regent Street Lydney GLOUCESTERSHIRE GL15 5RN UNITED KINGDOM ",
      "postcode": "GL15 5RN",
      "maps_url": "https://www.google.com/maps/search/?api=1&query=Lydney%20RFC%20Regentsholme%20Regent%20Street%20Lydney%20GLOUCESTERSHIRE%20GL15%205RN%20UNITED%20KINGDOM%20",
      "latitude": 51.7250156,
      "longitude": -2.528639,
      "formatted_address": "Regent Street, Lydney, GL15 5RN, Lydney GL15 5RN, UK",
      "place_id": "ChIJ1RVtP7G8cUgRuNli65wAIbs"
    },
    {
      "name": "St Austell",
      "url": "https://www.englandrugby.com/fixtures-and-results/search-results?team=20157",
      "image_url": "https://images.englandrugby.com/club_images/20157.png",
      "address": "St. Austell R.f.c., Tregorrick Park, Tregorrick Lane, St.austell, Cornw, PL26 7FH, United Kingdom",
      "postcode": "PL26 7FH",
      "maps_url": "https://www.google.com/maps/search/?api=1&query=St.%20Austell%20R.f.c.%0ATregorrick%20Park%0ATregorrick%20Lane%0ASt.austell%0ACornw%0APL26%207FH%0AUnited%20Kingdom",
      "latitude": 50.3279304,
      "longitude": -4.7771864,
      "formatted_address": "Tregorrick Rd, Saint Austell PL26 7FH, UK",
      "place_id": "ChIJO_iqrDZpa0gRbjN1mxTpk6c"
    },
    {
      "name": "Exmouth",
      "url": "https://www.englandrugby.com/fixtures-and-results/search-results?team=7823",
      "image_url": "https://images.englandrugby.com/club_images/7823.png",
      "address": "Exmouth R.F.C. Imperial Recreation Ground The Royal Avenue Exmouth DEVON EX8 1DG UNITED KINGDOM ",
      "postcode": "EX8 1DG",
      "maps_url": "https://www.google.com/maps/search/?api=1&query=Exmouth%20R.F.C.%20Imperial%20Recreation%20Ground%20The%20Royal%20Avenue%20Exmouth%20DEVON%20EX8%201DG%20UNITED%20KINGDOM%20",
      "latitude": 50.6203194,
      "longitude": -3.4178059,
      "formatted_address": "Exmouth EX8 1DG, UK",
      "place_id": "ChIJQ_Jnv5kKbUgR_7E6DbE5Npg"
    },
    {
      "name": "Launceston",
      "url": "https://www.englandrugby.com/fixtures-and-results/search-results?team=11893",
      "image_url": "https://images.englandrugby.com/club_images/11893.png",
      "address": "Polson Bridge, Launceston, Cornwall, PL15 9QT, United Kingdom",
      "postcode": "PL15 9QT",
      "maps_url": "https://www.google.com/maps/search/?api=1&query=Polson%20Bridge%0ALaunceston%0ACornwall%0APL15%209QT%0AUnited%20Kingdom",
      "latitude": 50.638856, 
      "longitude": -4.328954,
      "formatted_address": "Polson Bridge, Launceston PL15 9QU, UK",
      "place_id": "ChIJaVFKp6pjbEgRq1LWdbx2rOs"
    },
    {
      "name": "Chew Valley",
      "url": "https://www.englandrugby.com/fixtures-and-results/search-results?team=4734",
      "image_url": "https://images.englandrugby.com/club_images/4734.png",
      "address": "Lobbingtons, Chew Lane, Chew Stoke, Bristol, Bristol, BS40 8UE, United Kingdom",
      "postcode": "BS40 8UE",
      "maps_url": "https://www.google.com/maps/search/?api=1&query=Lobbingtons%0AChew%20Lane%0AChew%20Stoke%0ABristol%0ABristol%0ABS40%208UE%0AUnited%20Kingdom",
      "latitude": 51.3567185,
      "longitude": -2.6283439,
      "formatted_address": "Chew Ln, Chew Stoke, Bristol BS40 8UE, UK",
      "place_id": "EilDaGV3IExuLCBDaGV3IFN0b2tlLCBCcmlzdG9sIEJTNDAgOFVFLCBVSyIuKiwKFAoSCW9YzFuti3FIEfZ32N_ushKwEhQKEgmZH5eZU4pxSBE5Zp0aNYSHWg"
    },
    {
      "name": "Sidmouth",
      "url": "https://www.englandrugby.com/fixtures-and-results/search-results?team=19335",
      "image_url": "https://images.englandrugby.com/club_images/19335.png",
      "address": "Sidmouth Rfc, Heydons Lane, Sidmouth, Devon, EX10 8NJ, United Kingdom",
      "postcode": "EX10 8NJ",
      "maps_url": "https://www.google.com/maps/search/?api=1&query=Sidmouth%20Rfc%0AHeydons%20Lane%0ASidmouth%0ADevon%0AEX10%208NJ%0AUnited%20Kingdom",
      "latitude": 50.6803776,
      "longitude": -3.2408416,
      "formatted_address": "Heydons Ln, Sidmouth EX10 8NJ, UK",
      "place_id": "EiFIZXlkb25zIExuLCBTaWRtb3V0aCBFWDEwIDhOSiwgVUsiLiosChQKEgnZVMln_JxtSBFtH-9UvOPsKRIUChIJhzS-Y_ycbUgRwqJoIR-OmC8"
    },
    {
      "name": "Royal Wootton Bassett",
      "url": "https://www.englandrugby.com/fixtures-and-results/search-results?team=18228",
      "image_url": "https://images.englandrugby.com/club_images/18228.png",
      "address": "Royal Wootton Bassett RFC Ballards Ash Sports Ground Malmesbury Road Royal Wootton Bassett WILTSHIRE SN4 8DS UNITED KINGDOM",
      "postcode": "SN4 8DS",
      "maps_url": "https://www.google.com/maps/search/?api=1&query=Royal%20Wootton%20Bassett%20RFC%20Ballards%20Ash%20Sports%20Ground%20Malmesbury%20Road%20Royal%20Wootton%20Bassett%20WILTSHIRE%20SN4%208DS%20UNITED%20KINGDOM",
      "latitude": 51.5557965,
      "longitude": -1.900387,
      "formatted_address": "Brinkworth Rd, Royal Wootton Bassett, Swindon SN4 8DS, UK",
      "place_id": "ChIJB3iLgtJBcUgRfpCqC_v8wYg"
    },
    {
      "name": "Marlborough",
      "url": "https://www.englandrugby.com/fixtures-and-results/search-results?team=13418",
      "image_url": "https://images.englandrugby.com/club_images/13418.png",
      "address": "The Clubhouse, The Common, Frees Avenue, Marlborough, Wiltshire, SN8 1DL, United Kingdom",
      "postcode": "SN8 1DL",
      "maps_url": "https://www.google.com/maps/search/?api=1&query=The%20Clubhouse%0AThe%20Common%0AFrees%20Avenue%0AMarlborough%0AWiltshire%0ASN8%201DL%0AUnited%20Kingdom",
      "latitude": 51.42690340000001,
      "longitude": -1.7339519,
      "formatted_address": "The Common, Free's Ave, Marlborough SN8, UK",
      "place_id": "ChIJC3-bzuxbcUgRxIKTmndPsmY"
    },
    {
      "name": "Matson",
      "url": "https://www.englandrugby.com/fixtures-and-results/search-results?team=13534",
      "image_url": "https://images.englandrugby.com/club_images/13534.png",
      "address": "Matson Rfc, Redwell Road, Matson Rugby Club House, Matson, Gloucestershire, GL4 6JG, United Kingdom",
      "postcode": "GL4 6JG",
      "maps_url": "https://www.google.com/maps/search/?api=1&query=Matson%20Rfc%0ARedwell%20Road%0AMatson%20Rugby%20Club%20House%0AMatson%0AGloucestershire%0AGL4%206JG%0AUnited%20Kingdom",
      "latitude": 51.8334045,
      "longitude": -2.2173059,
      "formatted_address": "Red Well Rd, Matson, Gloucester GL4 6JG, UK",
      "place_id": "ChIJBZaGuvcFcUgRLVeKNFc3Ves"
    }
  ],
  "team_count": 12,
  "success_count": 12
}