{
  "league_name": "Regional 2 South East",
  "league_url": "https://www.englandrugby.com/fixtures-and-results/search-results?competition=261&division=66528",
  "teams": [
    {
      "name": "Brighton",
      "url": "https://www.englandrugby.com/fixtures-and-results/search-results?team=3206",
      "image_url": "https://images.englandrugby.com/club_images/3206.png",
      "address": "Waterhall Playing Fields Mill Road, Patcham Brighton BN1 8YN UNITED KINGDOM ",
      "postcode": "BN1 8YN",
      "maps_url": "https://www.google.com/maps/search/?api=1&query=Waterhall%20Playing%20Fields%20Mill%20Road%2C%20Patcham%20Brighton%20BN1%208YN%20UNITED%20KINGDOM%20",
      "latitude": 50.8674029,
      "longitude": -0.1598492,
      "formatted_address": "Waterhall Rd, Brighton BN1, UK",
      "place_id": "Eh5XYXRlcmhhbGwgUmQsIEJyaWdodG9uIEJOMSwgVUsiLiosChQKEgk1uhb26Y91SBEGGgc3DVbNGxIUChIJZ0Ep9gmFdUgR-Q59cnqvxpw"
    },
    {
      "name": "Sidcup",
      "url": "https://www.englandrugby.com/fixtures-and-results/search-results?team=19314",
      "image_url": "https://images.englandrugby.com/club_images/19314.png",
      "address": "Crescent Farm Sydney Road SIDCUP KENT DA14 6RA UNITED KINGDOM ",
      "postcode": "DA14 6RA",
      "maps_url": "https://www.google.com/maps/search/?api=1&query=Crescent%20Farm%20Sydney%20Road%20SIDCUP%20KENT%20DA14%206RA%20UNITED%20KINGDOM%20",
      "latitude": 51.426294,
      "longitude": 0.0912927,
      "formatted_address": "Sydney Rd, Sidcup DA14 6RA, UK",
      "place_id": "Eh5TeWRuZXkgUmQsIFNpZGN1cCBEQTE0IDZSQSwgVUsiLiosChQKEgkNA_ow_6vYRxEnaJiNF1FAWhIUChIJyyT6zPir2EcRMl0HiySemIY"
    },
    {
      "name": "Beckenham",
      "url": "https://www.englandrugby.com/fixtures-and-results/search-results?team=1785",
      "image_url": "https://images.englandrugby.com/club_images/1785.png",
      "address": "Balmoral Avenue Elmers End Beckenham KENT BR3 3RD UNITED KINGDOM ",
      "postcode": "BR3 3RD",
      "maps_url": "https://www.google.com/maps/search/?api=1&query=Balmoral%20Avenue%20Elmers%20End%20Beckenham%20KENT%20BR3%203RD%20UNITED%20KINGDOM%20",
      "latitude": 51.3979564,
      "longitude": -0.0395429,
      "formatted_address": "Balmoral Ave, Beckenham BR3 3RD, UK",
      "place_id": "EiNCYWxtb3JhbCBBdmUsIEJlY2tlbmhhbSBCUjMgM1JELCBVSyIuKiwKFAoSCU-NWtSoAXZIEUIN2sVymWpPEhQKEgnlDI4mrwF2SBGFkNTmh8ZnQw"
    },
    {
      "name": "Horsham",
      "url": "https://www.englandrugby.com/fixtures-and-results/search-results?team=10447",
      "image_url": "https://images.englandrugby.com/club_images/10447.png",
      "address": "Horsham RUFC PO Box 114 Hammerpond Road Horsham WEST SUSSEX RH13 6YE UNITED KINGDOM ",
      "postcode": "RH13 6YE",
      "maps_url": "https://www.google.com/maps/search/?api=1&query=Horsham%20RUFC%20PO%20Box%20114%20Hammerpond%20Road%20Horsham%20WEST%20SUSSEX%20RH13%206YE%20UNITED%20KINGDOM%20",
      "latitude": 51.0559486,
      "longitude": -0.2930759,
      "formatted_address": "Hammerpond Rd, Horsham RH13 6PJ, UK",
      "place_id": "ChIJpaDjt47sdUgR4K-ZrUpvkN8"
    },
    {
      "name": "Sutton & Epsom",
      "url": "https://www.englandrugby.com/fixtures-and-results/search-results?team=21414",
      "image_url": "https://images.englandrugby.com/club_images/21414.png",
      "address": "Cuddington Court Rugby Lane Cheam SURREY SM2 7NF UNITED KINGDOM ",
      "postcode": "SM2 7NF",
      "maps_url": "https://www.google.com/maps/search/?api=1&query=Cuddington%20Court%20Rugby%20Lane%20Cheam%20SURREY%20SM2%207NF%20UNITED%20KINGDOM%20",
      "latitude": 51.349432,
      "longitude": -0.2225745,
      "formatted_address": "Rugby Ln, Ewell, Sutton SM2 7NF, UK",
      "place_id": "EiNSdWdieSBMbiwgRXdlbGwsIFN1dHRvbiBTTTIgN05GLCBVSyIuKiwKFAoSCatlZIcoCHZIEVn0KFsz2-HJEhQKEgmHEE1-KAh2SBFnracG6KOGFw"
    },
    {
      "name": "Old Colfeians",
      "url": "https://www.englandrugby.com/fixtures-and-results/search-results?team=15538",
      "image_url": "https://images.englandrugby.com/club_images/15538.png",
      "address": "Horn Park, Eltham Road, London, Kent, SE12 8UE, United Kingdom",
      "postcode": "SE12 8UE",
      "maps_url": "https://www.google.com/maps/search/?api=1&query=Horn%20Park%0AEltham%20Road%0ALondon%0AKent%0ASE12%208UE%0AUnited%20Kingdom",
      "latitude": 51.454731,
      "longitude": 0.0190391,
      "formatted_address": "Eltham Rd, London SE12 8UE, UK",
      "place_id": "Eh5FbHRoYW0gUmQsIExvbmRvbiBTRTEyIDhVRSwgVUsiLiosChQKEgkrdtJ_v6nYRxH6n6v1Pb5ebhIUChIJYb7zrsGp2EcRdTdud5YQiPM"
    },
    {
      "name": "Gravesend",
      "url": "https://www.englandrugby.com/fixtures-and-results/search-results?team=8880",
      "image_url": "https://images.englandrugby.com/club_images/8880.png",
      "address": "Rectory Field, Donald Biggs Drive, Milton Road, Gravesend, Kent, DA12 2TL, United Kingdom",
      "postcode": "DA12 2TL",
      "maps_url": "https://www.google.com/maps/search/?api=1&query=Rectory%20Field%0ADonald%20Biggs%20Drive%0AMilton%20Road%0AGravesend%0AKent%0ADA12%202TL%0AUnited%20Kingdom",
      "latitude": 51.437358,
      "longitude": 0.3805549,
      "formatted_address": "Donald Biggs Dr, Gravesend DA12 2TL, UK",
      "place_id": "EidEb25hbGQgQmlnZ3MgRHIsIEdyYXZlc2VuZCBEQTEyIDJUTCwgVUsiLiosChQKEglN7Wpp_MnYRxFHuFVwXATh7BIUChIJ1QuJa_zJ2EcRdAOP9EDMdP4"
    },
    {
      "name": "Battersea Ironsides",
      "url": "https://www.englandrugby.com/fixtures-and-results/search-results?team=1641",
      "image_url": "https://images.englandrugby.com/club_images/1641.png",
      "address": "Openview off Burntwood Lane Wandsworth London SW17 0AW UNITED KINGDOM ",
      "postcode": "SW17 0AW",
      "maps_url": "https://www.google.com/maps/search/?api=1&query=Openview%20off%20Burntwood%20Lane%20Wandsworth%20London%20SW17%200AW%20UNITED%20KINGDOM%20",
      "latitude": 51.439594,
      "longitude": -0.178,
      "formatted_address": "Openview, London SW17 0AL, UK",
      "place_id": "ChIJBYnf8foFdkgRMrS2QUc-O84"
    },
    {
      "name": "Canterbury II",
      "url": "https://www.englandrugby.com/fixtures-and-results/search-results?team=4124",
      "image_url": "https://images.englandrugby.com/club_images/4124.png",
      "address": "The Marine Travel Ground, Merton Lane (north), Nackington Road, Canterbury, Kent, CT4 7DZ, United Kingdom",
      "postcode": "CT4 7DZ",
      "maps_url": "https://www.google.com/maps/search/?api=1&query=The%20Marine%20Travel%20Ground%0AMerton%20Lane%20%28north%29%0ANackington%20Road%0ACanterbury%0AKent%0ACT4%207DZ%0AUnited%20Kingdom",
      "latitude": 51.27569039999999,
      "longitude": 1.0859745,
      "formatted_address": "30 St George's Pl, Canterbury CT1 1UT, UK",
      "place_id": "ChIJPzkDOjXK3kcRH16u5dGKl_8"
    },
    {
      "name": "Bromley",
      "url": "https://www.englandrugby.com/fixtures-and-results/search-results?team=3410",
      "image_url": "https://images.englandrugby.com/club_images/3410.png",
      "address": "Bromley Rfc, Warman Sports Club, Barnet Wood Road, Hayes, Kent, BR2 7AA, United Kingdom",
      "postcode": "BR2 7AA",
      "maps_url": "https://www.google.com/maps/search/?api=1&query=Bromley%20Rfc%0AWarman%20Sports%20Club%0ABarnet%20Wood%20Road%0AHayes%0AKent%0ABR2%207AA%0AUnited%20Kingdom",
      "latitude": 51.3714999,
      "longitude": 0.0313819,
      "formatted_address": "Barnet Wood Rd, Bromley BR2, UK",
      "place_id": "ChIJP-TAEOmq2EcRCKwMKqlnjag"
    },
    {
      "name": "Dartfordians",
      "url": "https://www.englandrugby.com/fixtures-and-results/search-results?team=6166",
      "image_url": "https://images.englandrugby.com/club_images/6166.png",
      "address": "War Memorial Club House Bourne Road Bexley KENT DA5 1LW UNITED KINGDOM ",
      "postcode": "DA5 1LW",
      "maps_url": "https://www.google.com/maps/search/?api=1&query=War%20Memorial%20Club%20House%20Bourne%20Road%20Bexley%20KENT%20DA5%201LW%20UNITED%20KINGDOM%20",
      "latitude": 51.4434645,
      "longitude": 0.1514732,
      "formatted_address": "Bourne Rd, Bexley DA5 1LW, UK",
      "place_id": "Eh1Cb3VybmUgUmQsIEJleGxleSBEQTUgMUxXLCBVSyIuKiwKFAoSCfUZc3xrrthHEWFoQZF0XoyUEhQKEgl5f6x6Za7YRxE6_y7_ekIlNQ"
    },
    {
      "name": "Old Reigatian",
      "url": "https://www.englandrugby.com/fixtures-and-results/search-results?team=15944",
      "image_url": "https://images.englandrugby.com/club_images/15944.png",
      "address": "Geoffrey Knight Fields, Park Lane, Reigate, Surrey, RH2 8JX, United Kingdom",
      "postcode": "RH2 8JX",
      "maps_url": "https://www.google.com/maps/search/?api=1&query=Geoffrey%20Knight%20Fields%0APark%20Lane%0AReigate%0ASurrey%0ARH2%208JX%0AUnited%20Kingdom",
      "latitude": 51.2330149,
      "longitude": -0.2158506,
      "formatted_address": "Park Ln, Reigate RH2 8JX, UK",
      "place_id": "EhxQYXJrIExuLCBSZWlnYXRlIFJIMiA4SlgsIFVLIi4qLAoUChIJ0xytsejkdUgRovopstDpYTkSFAoSCdeZLYPp5HVIEcxO1nKSB8NX"
    }
  ],
  "team_count": 12,
  "success_count": 12
}