{
  "league_name": "Regional 2 Thames",
  "league_url": "https://www.englandrugby.com/fixtures-and-results/search-results?competition=261&division=66529",
  "teams": [
    {
      "name": "Brunel University",
      "url": "https://www.englandrugby.com/fixtures-and-results/search-results?team=3523",
      "image_url": "https://images.englandrugby.com/club_images/3523.png",
      "address": "Union of Brunel Students Brunel University Brunel University Uxbridge MIDDLESEX UB8 3PH UNITED KINGDOM ",
      "postcode": "UB8 3PH",
      "maps_url": "https://www.google.com/maps/search/?api=1&query=Union%20of%20Brunel%20Students%20Brunel%20University%20Brunel%20University%20Uxbridge%20MIDDLESEX%20UB8%203PH%20UNITED%20KINGDOM%20",
      "latitude": 51.5332266,
      "longitude": -0.4739985,
      "formatted_address": "Kingston Ln, Uxbridge UB8 3PH, UK",
      "place_id": "ChIJCa467gpudkgR8yPrs80kseQ"
    },
    {
      "name": "Beaconsfield",
      "url": "https://www.englandrugby.com/fixtures-and-results/search-results?team=1701",
      "image_url": "https://images.englandrugby.com/club_images/1701.png",
      "address": "Oak Lodge, Windsor End, Beaconsfield, Buckinghamshire, HP9 2SQ, United Kingdom",
      "postcode": "HP9 2SQ",
      "maps_url": "https://www.google.com/maps/search/?api=1&query=Oak%20Lodge%0AWindsor%20End%0ABeaconsfield%0ABuckinghamshire%0AHP9%202SQ%0AUnited%20Kingdom",
      "latitude": 51.59690149999999,
      "longitude": -0.6328739,
      "formatted_address": "Oak Lodge, Windsor End, Beaconsfield HP9 2SQ, UK",
      "place_id": "ChIJXd9BUCdkdkgRo_UB-T3uFB8"
    },
    {
      "name": "Belsize Park",
      "url": "https://www.englandrugby.com/fixtures-and-results/search-results?team=1941",
      "image_url": "https://images.englandrugby.com/club_images/1941.png",
      "address": "Coram's Fields, 93 Guilford Street, London, WC1N 1DN, United Kingdom",
      "postcode": "WC1N 1DN",
      "maps_url": "https://www.google.com/maps/search/?api=1&query=Coram%27s%20Fields%0A93%20Guilford%20Street%0ALondon%0AWC1N%201DN%0AUnited%20Kingdom",
      "latitude": 51.5237186,
      "longitude": -0.1192175,
      "formatted_address": "Coram's Fields, 93 Guilford St, London WC1N 1DN, UK",
      "place_id": "ChIJW2OXnjcbdkgRUx73LlA27p4"
    },
    {
      "name": "Old Priorians",
      "url": "https://www.englandrugby.com/fixtures-and-results/search-results?team=15922",
      "image_url": "https://images.englandrugby.com/club_images/15922.png",
      "address": "Old Priorians RFC Perivale Lane Greenford London MIDDLESEX UB6 8TL ENGLAND ",
      "postcode": "UB6 8TL",
      "maps_url": "https://www.google.com/maps/search/?api=1&query=Old%20Priorians%20RFC%20Perivale%20Lane%20Greenford%20London%20MIDDLESEX%20UB6%208TL%20ENGLAND%20",
      "latitude": 51.5314321,
      "longitude": -0.3274979,
      "formatted_address": "Perivale Ln, Perivale, Greenford UB6 8TL, UK",
      "place_id": "ChIJo_1rkWESdkgRKvxLWPrEhVI"
    },
    {
      "name": "Teddington",
      "url": "https://www.englandrugby.com/fixtures-and-results/search-results?team=21732",
      "image_url": "https://images.englandrugby.com/club_images/21732.png",
      "address": "Teddington Rfc , Bushy Park, Teddington, Middlesex, TW11 0EA, United Kingdom",
      "postcode": "TW11 0EA",
      "maps_url": "https://www.google.com/maps/search/?api=1&query=Teddington%20Rfc%20%0ABushy%20Park%0ATeddington%0AMiddlesex%0ATW11%200EA%0AUnited%20Kingdom",
      "latitude": 51.416531,
      "longitude": -0.3398173,
      "formatted_address": "Bushy Park, United Kingdom",
      "place_id": "ChIJcQq5rXQLdkgRGJdFbyVwlo4"
    },
    {
      "name": "Harpenden",
      "url": "https://www.englandrugby.com/fixtures-and-results/search-results?team=9448",
      "image_url": "https://images.englandrugby.com/club_images/9448.png",
      "address": "Redbourn Lane, Harpenden, AL5 2BA, United Kingdom",
      "postcode": "AL5 2BA",
      "maps_url": "https://www.google.com/maps/search/?api=1&query=Redbourn%20Lane%0AHarpenden%0AAL5%202BA%0AUnited%20Kingdom",
      "latitude": 51.8026031,
      "longitude": -0.3776989,
      "formatted_address": "Redbourn Ln, Harpenden AL5 2BA, UK",
      "place_id": "EiJSZWRib3VybiBMbiwgSGFycGVuZGVuIEFMNSAyQkEsIFVLIi4qLAoUChIJLebAE4U4dkgRSxDwJVlhDlYSFAoSCZ1dIE6EOHZIET_ivwQ28e9T"
    },
    {
      "name": "Aylesbury Men I",
      "url": "https://www.englandrugby.com/fixtures-and-results/search-results?team=1123",
      "image_url": "https://images.englandrugby.com/club_images/1123.png",
      "address": "Ostler's Field, Brook End, Weston Turville, Aylesbury, Buckinghamshire, HP22 5RN, United Kingdom",
      "postcode": "HP22 5RN",
      "maps_url": "https://www.google.com/maps/search/?api=1&query=Ostler%27s%20Field%0ABrook%20End%0AWeston%20Turville%0AAylesbury%0ABuckinghamshire%0AHP22%205RN%0AUnited%20Kingdom",
      "latitude": 51.792312,
      "longitude": -0.7537425,
      "formatted_address": "Brook End, Weston Turville, Aylesbury HP22, UK",
      "place_id": "Ei5Ccm9vayBFbmQsIFdlc3RvbiBUdXJ2aWxsZSwgQXlsZXNidXJ5IEhQMjIsIFVLIi4qLAoUChIJW-uXIppYdkgRZ-Ugg7pzbQMSFAoSCUcNWfZ9WHZIEVwwmR0JIy4H"
    },
    {
      "name": "Marlow",
      "url": "https://www.englandrugby.com/fixtures-and-results/search-results?team=13440",
      "image_url": "https://images.englandrugby.com/club_images/13440.png",
      "address": "Riverwoods Drive Marlow BUCKINGHAMSHIRE SL7 1QU UNITED KINGDOM ",
      "postcode": "SL7 1QU",
      "maps_url": "https://www.google.com/maps/search/?api=1&query=Riverwoods%20Drive%20Marlow%20BUCKINGHAMSHIRE%20SL7%201QU%20UNITED%20KINGDOM%20",
      "latitude": 51.5686389,
      "longitude": -0.7571324,
      "formatted_address": "Riverwoods Dr, Marlow SL7 1QU, UK",
      "place_id": "EiFSaXZlcndvb2RzIERyLCBNYXJsb3cgU0w3IDFRVSwgVUsiLiosChQKEgndSyJIdmJ2SBGuxHFJ8c4mBBIUChIJI_fwN3ZidkgR-kSYlHx0P6E"
    },
    {
      "name": "Grasshoppers",
      "url": "https://www.englandrugby.com/fixtures-and-results/search-results?team=8853",
      "image_url": "https://images.englandrugby.com/club_images/8853.png",
      "address": "Grasshoppers Rugby Club, Syon Lane, Isleworth, Middlesex, TW7 5PN, United Kingdom",
      "postcode": "TW7 5PN",
      "maps_url": "https://www.google.com/maps/search/?api=1&query=Grasshoppers%20Rugby%20Club%0ASyon%20Lane%0AIsleworth%0AMiddlesex%0ATW7%205PN%0AUnited%20Kingdom",
      "latitude": 51.4875358,
      "longitude": -0.3368938,
      "formatted_address": "Syon Ln, Osterley, Isleworth TW7 5PN, UK",
      "place_id": "ChIJqyiWjQkNdkgRiLiirDOOjHc"
    },
    {
      "name": "Windsor",
      "url": "https://www.englandrugby.com/fixtures-and-results/search-results?team=25603",
      "image_url": "https://images.englandrugby.com/club_images/25603.png",
      "address": "Home Park Datchet Road Windsor BERKSHIRE SL4 6HX UNITED KINGDOM ",
      "postcode": "SL4 6HX",
      "maps_url": "https://www.google.com/maps/search/?api=1&query=Home%20Park%20Datchet%20Road%20Windsor%20BERKSHIRE%20SL4%206HX%20UNITED%20KINGDOM%20",
      "latitude": 51.4900981,
      "longitude": -0.6032386000000001,
      "formatted_address": "Home Park, Datchet Rd, Windsor SL4 6HX, UK",
      "place_id": "ChIJMTOctud6dkgR-dciCKBCp_o"
    },
    {
      "name": "London Irish Wild Geese",
      "url": "https://www.englandrugby.com/fixtures-and-results/search-results?team=12579",
      "image_url": "https://images.englandrugby.com/club_images/12579.png",
      "address": "Hazelwood Drive, Green Street, Sunbury-on-thames, Middlesex, TW16 6QU, United Kingdom",
      "postcode": "TW16 6QU",
      "maps_url": "https://www.google.com/maps/search/?api=1&query=Hazelwood%20Drive%0AGreen%20Street%0ASunbury-on-thames%0AMiddlesex%0ATW16%206QU%0AUnited%20Kingdom",
      "latitude": 51.40872239999999,
      "longitude": -0.4156787,
      "formatted_address": "Green St & Hazelwood Dr, Sunbury-on-Thames TW16 6HF, UK",
      "place_id": "EjdHcmVlbiBTdCAmIEhhemVsd29vZCBEciwgU3VuYnVyeS1vbi1UaGFtZXMgVFcxNiA2SEYsIFVLImYiZAoUChIJ9bYHT_N0dkgRJwO5mnqFacISFAoSCfW2B0_zdHZIEScDuZp6hWnCGhQKEgkVtpCPjHR2SBE7NY9Fuj8ToxoUChIJU3SPlfR0dkgRMLnAp61C6AEiCg04WaQeFY2SwP8"
    },
    {
      "name": "Oxford Harlequins II",
      "url": "https://www.englandrugby.com/fixtures-and-results/search-results?team=16433",
      "image_url": "https://images.englandrugby.com/club_images/16433.png",
      "address": "Oxford Road, Horspath, Oxford, Oxfordshire, OX4 2RR, United Kingdom",
      "postcode": "OX4 2RR",
      "maps_url": "https://www.google.com/maps/search/?api=1&query=Oxford%20Road%0AHorspath%0AOxford%0AOxfordshire%0AOX4%202RR%0AUnited%20Kingdom",
      "latitude": 51.7364248,
      "longitude": -1.1838345,
      "formatted_address": "Oxford Rd, Oxford OX4 2RR, UK",
      "place_id": "Eh1PeGZvcmQgUmQsIE94Zm9yZCBPWDQgMlJSLCBVSyIuKiwKFAoSCZUdB0W8wXZIERF8PUDaoX04EhQKEgmX3I6oo8F2SBGyTQBSMDxuIQ"
    }
  ],
  "team_count": 12,
  "success_count": 12
}