{
  "league_name": "Regional 2 North East",
  "league_url": "https://www.englandrugby.com/fixtures-and-results/search-results?competition=1623&division=66489",
  "teams": [
    {
      "name": "Scarborough",
      "url": "https://www.englandrugby.com/fixtures-and-results/search-results?team=18780",
      "image_url": "https://images.englandrugby.com/club_images/18780.png",
      "address": "The J M Guthrie Clubhouse, Silver Royd, Scalby, Scarborough, North Yorkshire, YO13 0NL, United Kingdom",
      "postcode": "YO13 0NL",
      "maps_url": "https://www.google.com/maps/search/?api=1&query=The%20J%20M%20Guthrie%20Clubhouse%0ASilver%20Royd%0AScalby%0AScarborough%0ANorth%20Yorkshire%0AYO13%200NL%0AUnited%20Kingdom",
      "latitude": 54.3098235,
      "longitude": -0.4451997,
      "formatted_address": "Silver Royd, 569 Scalby Rd, Scalby, Scarborough YO13 0NL, UK",
      "place_id": "ChIJj9CZGfM4f0gRcJxq_MPwm2A"
    },
    {
      "name": "Pocklington",
      "url": "https://www.englandrugby.com/fixtures-and-results/search-results?team=17000",
      "image_url": "https://images.englandrugby.com/club_images/17000.png",
      "address": "Pocklington R.u.f.c., Feathers Field, Percy Road, Pocklington, East Yorkshire, YO42 2QB, United Kingdom",
      "postcode": "YO42 2QB",
      "maps_url": "https://www.google.com/maps/search/?api=1&query=Pocklington%20R.u.f.c.%0AFeathers%20Field%0APercy%20Road%0APocklington%0AEast%20Yorkshire%0AYO42%202QB%0AUnited%20Kingdom",
      "latitude": 53.9307524,
      "longitude": -0.7741577,
      "formatted_address": "Feathers Field, Burnby Ln, Pocklington, York YO42 2QB, UK",
      "place_id": "ChIJF-lzXnXXeEgRFeCoJHKKYoc"
    },
    {
      "name": "Morley",
      "url": "https://www.englandrugby.com/fixtures-and-results/search-results?team=14116",
      "image_url": "https://images.englandrugby.com/club_images/14116.png",
      "address": "Morley RFC Scatcherd Lane Morley WEST YORKSHIRE LS27 0JJ UNITED KINGDOM ",
      "postcode": "LS27 0JJ",
      "maps_url": "https://www.google.com/maps/search/?api=1&query=Morley%20RFC%20Scatcherd%20Lane%20Morley%20WEST%20YORKSHIRE%20LS27%200JJ%20UNITED%20KINGDOM%20",
      "latitude": 53.7428411,
      "longitude": -1.6122916,
      "formatted_address": "Scatcherd Ln, Morley, Leeds LS27 0JJ, UK",
      "place_id": "ChIJe0evSs9feUgRJ2YObdn3BTU"
    },
    {
      "name": "Old Brodleians",
      "url": "https://www.englandrugby.com/fixtures-and-results/search-results?team=15485",
      "image_url": "https://images.englandrugby.com/club_images/15485.png",
      "address": "Woodhead Denholme Gate Road, Hipperholme Denholme Gate Road, Hipperholme Halifax WEST YORKSHIRE HX3 8JU UNITED KINGDOM ",
      "postcode": "HX3 8JU",
      "maps_url": "https://www.google.com/maps/search/?api=1&query=Woodhead%20Denholme%20Gate%20Road%2C%20Hipperholme%20Denholme%20Gate%20Road%2C%20Hipperholme%20Halifax%20WEST%20YORKSHIRE%20HX3%208JU%20UNITED%20KINGDOM%20",
      "latitude": 53.7314494,
      "longitude": -1.8159732,
      "formatted_address": "Denholme Gate Rd, Halifax HX3, UK",
      "place_id": "ChIJjTeHvJzne0gRGIZGZAIegQk"
    },
    {
      "name": "Wetherby",
      "url": "https://www.englandrugby.com/fixtures-and-results/search-results?team=25068",
      "image_url": "https://images.englandrugby.com/club_images/25068.png",
      "address": "Wetherby R.u.f.c., Grange Park Sports Club, Grange Park, Wetherby, West Yorkshire, LS22 5NB, United Kingdom",
      "postcode": "LS22 5NB",
      "maps_url": "https://www.google.com/maps/search/?api=1&query=Wetherby%20R.u.f.c.%0AGrange%20Park%20Sports%20Club%0AGrange%20Park%0AWetherby%0AWest%20Yorkshire%0ALS22%205NB%0AUnited%20Kingdom",
      "latitude": 53.9194212,
      "longitude": -1.3813646,
      "formatted_address": "Old Boston Rd, Wetherby LS22 5NB, UK",
      "place_id": "ChIJV_r6QGlPeUgR-g5Sm08h1XE"
    },
    {
      "name": "Selby",
      "url": "https://www.englandrugby.com/fixtures-and-results/search-results?team=18969",
      "image_url": "https://images.englandrugby.com/club_images/18969.png",
      "address": "Selby RUFC Sandhill Lane Leeds Road Selby YO8 4JP UNITED KINGDOM ",
      "postcode": "YO8 4JP",
      "maps_url": "https://www.google.com/maps/search/?api=1&query=Selby%20RUFC%20Sandhill%20Lane%20Leeds%20Road%20Selby%20YO8%204JP%20UNITED%20KINGDOM%20",
      "latitude": 53.7773281,
      "longitude": -1.0997986,
      "formatted_address": "Sandhill Ln, Selby YO8 4JP, UK",
      "place_id": "ChIJ_RKifks8eUgR7ZnoZcRWgnE"
    },
    {
      "name": "Bradford Salem",
      "url": "https://www.englandrugby.com/fixtures-and-results/search-results?team=2932",
      "image_url": "https://images.englandrugby.com/club_images/2932.png",
      "address": "Bradford Salem Rfc, Shay Lane, Heaton, Bradford, West Yorkshire, BD9 6SL, United Kingdom",
      "postcode": "BD9 6SL",
      "maps_url": "https://www.google.com/maps/search/?api=1&query=Bradford%20Salem%20Rfc%0AShay%20Lane%0AHeaton%0ABradford%0AWest%20Yorkshire%0ABD9%206SL%0AUnited%20Kingdom",
      "latitude": 53.817876,
      "longitude": -1.7962271,
      "formatted_address": "1 Shay Ln, Bradford BD9 6SL, UK",
      "place_id": "ChIJ2_GnNiPke0gRpFGSSZrNcFc"
    },
    {
      "name": "Malton and Norton",
      "url": "https://www.englandrugby.com/fixtures-and-results/search-results?team=13184",
      "image_url": "https://images.englandrugby.com/club_images/13184.png",
      "address": "THE GANNOCK OLD MALTON ROAD MALTON NORTH YORKSHIRE YO17 7EY UNITED KINGDOM ",
      "postcode": "YO17 7EY",
      "maps_url": "https://www.google.com/maps/search/?api=1&query=THE%20GANNOCK%20OLD%20MALTON%20ROAD%20MALTON%20NORTH%20YORKSHIRE%20YO17%207EY%20UNITED%20KINGDOM%20",
      "latitude": 54.1409446,
      "longitude": -0.7833116000000001,
      "formatted_address": "Old Malton, Malton YO17, UK",
      "place_id": "ChIJ3VClYKQrf0gRRMbqgcz9JZg"
    },
    {
      "name": "Moortown",
      "url": "https://www.englandrugby.com/fixtures-and-results/search-results?team=14078",
      "image_url": "https://images.englandrugby.com/club_images/14078.png",
      "address": "Moortown R.u.f.c., Moss Valley, King Lane, Alwoodley, Leeds, West Yorkshire, LS17 7NT, United Kingdom",
      "postcode": "LS17 7NT",
      "maps_url": "https://www.google.com/maps/search/?api=1&query=Moortown%20R.u.f.c.%0AMoss%20Valley%0AKing%20Lane%0AAlwoodley%0ALeeds%0AWest%20Yorkshire%0ALS17%207NT%0AUnited%20Kingdom",
      "latitude": 53.8567919,
      "longitude": -1.5546672,
      "formatted_address": "Moss Valley, Leeds LS17 7NT, UK",
      "place_id": "ChIJ4XLM9n9ZeUgRhc8GNPeNayI"
    },
    {
      "name": "Pontefract",
      "url": "https://www.englandrugby.com/fixtures-and-results/search-results?team=17027",
      "image_url": "https://images.englandrugby.com/club_images/17027.png",
      "address": "Pontefract R.u.f.c., Moor Lane, Carleton, Pontefract, West Yorkshire, WF8 3RX, United Kingdom",
      "postcode": "WF8 3RX",
      "maps_url": "https://www.google.com/maps/search/?api=1&query=Pontefract%20R.u.f.c.%0AMoor%20Lane%0ACarleton%0APontefract%0AWest%20Yorkshire%0AWF8%203RX%0AUnited%20Kingdom",
      "latitude": 53.674164,
      "longitude": -1.2931121,
      "formatted_address": "Moor Ln, Carleton, Pontefract WF8 3RX, UK",
      "place_id": "ChIJg33rzFtseUgRLZJe7dq-Wu0"
    },
    {
      "name": "Old Crossleyans",
      "url": "https://www.englandrugby.com/fixtures-and-results/search-results?team=15619",
      "image_url": "https://images.englandrugby.com/club_images/15619.png",
      "address": "Standeven House Broomfield Avenue, Savile Park Halifax WEST YORKSHIRE HX3 0JE UNITED KINGDOM ",
      "postcode": "HX3 0JE",
      "maps_url": "https://www.google.com/maps/search/?api=1&query=Standeven%20House%20Broomfield%20Avenue%2C%20Savile%20Park%20Halifax%20WEST%20YORKSHIRE%20HX3%200JE%20UNITED%20KINGDOM%20",
      "latitude": 53.7049157,
      "longitude": -1.8717321,
      "formatted_address": "Standeven House, Broomfield Ave, Halifax HX3 0JE, UK",
      "place_id": "ChIJmaJXPLfCe0gRQmzzITyaQXs"
    },
    {
      "name": "Doncaster Phoenix",
      "url": "https://www.englandrugby.com/fixtures-and-results/search-results?team=6561",
      "image_url": "https://images.englandrugby.com/club_images/6561.png",
      "address": "Castle Park Armthorpe Road Doncaster SOUTH YORKSHIRE DN2 5QB UNITED KINGDOM ",
      "postcode": "DN2 5QB",
      "maps_url": "https://www.google.com/maps/search/?api=1&query=Castle%20Park%20Armthorpe%20Road%20Doncaster%20SOUTH%20YORKSHIRE%20DN2%205QB%20UNITED%20KINGDOM%20",
      "latitude": 53.5343563,
      "longitude": -1.0779833,
      "formatted_address": "Armthorpe Rd, Doncaster DN2 5QB, UK",
      "place_id": "ChIJq6rqgUkOeUgRXUnhXVTSe0Y"
    }
  ],
  "team_count": 12,
  "success_count": 12
}