{
  "league_name": "Regional 1 South Central",
  "league_url": "https://www.englandrugby.com/fixtures-and-results/search-results?competition=261&division=66524",
  "teams": [
    {
      "name": "Jersey Rugby Football Club",
      "url": "https://www.englandrugby.com/fixtures-and-results/search-results?team=11098",
      "image_url": "https://images.englandrugby.com/club_images/11098.png",
      "address": "Jersey Rugby Football Club, Rue Des Landes, St Peter, JE3 7BG, Jersey",
      "postcode": "JE3 7BG",
      "maps_url": "https://www.google.com/maps/search/?api=1&query=Jersey%20Rugby%20Football%20Club%0ARue%20Des%20Landes%0ASt%20Peter%0AJE3%207BG%0AJersey",
      "latitude": 49.2053209,
      "longitude": -2.1821997,
      "formatted_address": "La Rue des Landes St Peter's, Jersey JE3 7BG, Jersey",
      "place_id": "ChIJk5sd-ZetDUgRqenStz5Exy8"
    },
    {
      "name": "Tunbridge Wells",
      "url": "https://www.englandrugby.com/fixtures-and-results/search-results?team=23285",
      "image_url": "https://images.englandrugby.com/club_images/23285.png",
      "address": "St. Marks Recreation Ground, Frant Road, Tunbridge Wells, Kent, TN2 5LS, United Kingdom",
      "postcode": "TN2 5LS",
      "maps_url": "https://www.google.com/maps/search/?api=1&query=St.%20Marks%20Recreation%20Ground%0AFrant%20Road%0ATunbridge%20Wells%0AKent%0ATN2%205LS%0AUnited%20Kingdom",
      "latitude": 51.1131734,
      "longitude": 0.2616015,
      "formatted_address": "St. Marks Recreation Ground, Tunbridge Wells TN2 5LS, UK",
      "place_id": "ChIJl0JZjxZE30cRULycqNllIqA"
    },
    {
      "name": "CS Stags 1863",
      "url": "https://www.englandrugby.com/fixtures-and-results/search-results?team=5987",
      "image_url": "https://images.englandrugby.com/club_images/5987.png",
      "address": "King's House School Sports Ground, Dukes Meadows, Riverside Drive, London, Middlesex, W4 2SH, United Kingdom",
      "postcode": "W4 2SH",
      "maps_url": "https://www.google.com/maps/search/?api=1&query=King%27s%20House%20School%20Sports%20Ground%0ADukes%20Meadows%0ARiverside%20Drive%0ALondon%0AMiddlesex%0AW4%202SH%0AUnited%20Kingdom",
      "latitude": 51.472398,
      "longitude": -0.2634714,
      "formatted_address": "Dan Mason Dr, Chiswick, London W4 2SH, UK",
      "place_id": "ChIJ57ACrWEOdkgRajz4Kz-BExA"
    },
    {
      "name": "Old Alleynians",
      "url": "https://www.englandrugby.com/fixtures-and-results/search-results?team=15398",
      "image_url": "https://images.englandrugby.com/club_images/15398.png",
      "address": "Alleynian Rugby, The Old Alleynian Sports Club, Dulwich Common, London, Greater London, SE21 7HA, United Kingdom",
      "postcode": "SE21 7HA",
      "maps_url": "https://www.google.com/maps/search/?api=1&query=Alleynian%20Rugby%0AThe%20Old%20Alleynian%20Sports%20Club%0ADulwich%20Common%0ALondon%0AGreater%20London%0ASE21%207HA%0AUnited%20Kingdom",
      "latitude": 51.4408836,
      "longitude": -0.0749287,
      "formatted_address": "Dulwich Common, London SE21 7HA, UK",
      "place_id": "ChIJYc3Rq-gDdkgR9mvSuVF5Qf8"
    },
    {
      "name": "Bracknell",
      "url": "https://www.englandrugby.com/fixtures-and-results/search-results?team=2889",
      "image_url": "https://images.englandrugby.com/club_images/2889.png",
      "address": "Bracknell Rfc, Lily Hill Park, Lily Hill Drive, Bracknell, Berkshire, RG12 2UG, United Kingdom",
      "postcode": "RG12 2UG",
      "maps_url": "https://www.google.com/maps/search/?api=1&query=Bracknell%20Rfc%0ALily%20Hill%20Park%0ALily%20Hill%20Drive%0ABracknell%0ABerkshire%0ARG12%202UG%0AUnited%20Kingdom",
      "latitude": 51.4135478,
      "longitude": -0.7301215999999999,
      "formatted_address": "Lily Hl Pk, Lily Hl Dr, Bracknell RG12 2UG, UK",
      "place_id": "ChIJq41msmx-dkgRqVYgdUzeWMc"
    },
    {
      "name": "Farnham",
      "url": "https://www.englandrugby.com/fixtures-and-results/search-results?team=7986",
      "image_url": "https://images.englandrugby.com/club_images/7986.png",
      "address": "Farnham Rufc, Wilkinson Way, Monkton Lane, Farnham, Surrey , GU9 9ND, United Kingdom",
      "postcode": "GU9 9ND",
      "maps_url": "https://www.google.com/maps/search/?api=1&query=Farnham%20Rufc%0AWilkinson%20Way%0AMonkton%20Lane%0AFarnham%0ASurrey%20%0AGU9%209ND%0AUnited%20Kingdom",
      "latitude": 51.2269266,
      "longitude": -0.7751568,
      "formatted_address": "Monkton Ln, Farnham GU9 9ND, UK",
      "place_id": "ChIJOX2MYOYsdEgRAGCvqmR6Kw4"
    },
    {
      "name": "Worthing",
      "url": "https://www.englandrugby.com/fixtures-and-results/search-results?team=26122",
      "image_url": "https://images.englandrugby.com/club_images/26122.png",
      "address": "The Rugby Park Roundstone Lane Angmering WEST SUSSEX BN16 4AX UNITED KINGDOM ",
      "postcode": "BN16 4AX",
      "maps_url": "https://www.google.com/maps/search/?api=1&query=The%20Rugby%20Park%20Roundstone%20Lane%20Angmering%20WEST%20SUSSEX%20BN16%204AX%20UNITED%20KINGDOM%20",
      "latitude": 50.8192443,
      "longitude": -0.4765666,
      "formatted_address": "Roundstone Ln, Angmering, Littlehampton BN16 4AX, UK",
      "place_id": "EjRSb3VuZHN0b25lIExuLCBBbmdtZXJpbmcsIExpdHRsZWhhbXB0b24gQk4xNiA0QVgsIFVLIi4qLAoUChIJSVe8a5akdUgRi_U-13pQdDISFAoSCZWTwr-WpHVIEdymN2LjxbVk"
    },
    {
      "name": "Maidenhead",
      "url": "https://www.englandrugby.com/fixtures-and-results/search-results?team=13105",
      "image_url": "https://images.englandrugby.com/club_images/13105.png",
      "address": "Braywick Park Braywick Road Maidenhead BERKSHIRE SL6 1BN UNITED KINGDOM ",
      "postcode": "SL6 1BN",
      "maps_url": "https://www.google.com/maps/search/?api=1&query=Braywick%20Park%20Braywick%20Road%20Maidenhead%20BERKSHIRE%20SL6%201BN%20UNITED%20KINGDOM%20",
      "latitude": 51.5122075,
      "longitude": -0.7164345999999999,
      "formatted_address": "Braywick Rd, Maidenhead SL6 1BN, UK",
      "place_id": "ChIJz_nEqCx9dkgR9_BrawVGUyo"
    },
    {
      "name": "Wimbledon",
      "url": "https://www.englandrugby.com/fixtures-and-results/search-results?team=25512",
      "image_url": "https://images.englandrugby.com/club_images/25512.png",
      "address": "Wimbledon Rugby Football Club Limited, Beverley Meads, Barham Road, Wimbledon, Surrey, SW20 0ET, United Kingdom",
      "postcode": "SW20 0ET",
      "maps_url": "https://www.google.com/maps/search/?api=1&query=Wimbledon%20Rugby%20Football%20Club%20Limited%0ABeverley%20Meads%0ABarham%20Road%0AWimbledon%0ASurrey%0ASW20%200ET%0AUnited%20Kingdom",
      "latitude": 51.4197835,
      "longitude": -0.2480312,
      "formatted_address": "Barham Rd, London SW20 0ET, UK",
      "place_id": "ChIJNR5pMiUJdkgR_-0dRrSlxE8"
    },
    {
      "name": "Camberley",
      "url": "https://www.englandrugby.com/fixtures-and-results/search-results?team=3972",
      "image_url": "https://images.englandrugby.com/club_images/3972.png",
      "address": "Watchetts Recreation Park Road Park Road Camberley SURREY GU15 2SR UNITED KINGDOM ",
      "postcode": "GU15 2SR",
      "maps_url": "https://www.google.com/maps/search/?api=1&query=Watchetts%20Recreation%20Park%20Road%20Park%20Road%20Camberley%20SURREY%20GU15%202SR%20UNITED%20KINGDOM%20",
      "latitude": 51.3245048,
      "longitude": -0.7505204,
      "formatted_address": "Camberley GU15 2YA, UK",
      "place_id": "ChIJlXL0QcvVdUgRZBydq_mQ_To"
    },
    {
      "name": "Hammersmith & Fulham",
      "url": "https://www.englandrugby.com/fixtures-and-results/search-results?team=9257",
      "image_url": "https://images.englandrugby.com/club_images/9257.png",
      "address": "Hurlingham Park Hurlingham Road Fulham SW6 3RH UNITED KINGDOM ",
      "postcode": "SW6 3RH",
      "maps_url": "https://www.google.com/maps/search/?api=1&query=Hurlingham%20Park%20Hurlingham%20Road%20Fulham%20SW6%203RH%20UNITED%20KINGDOM%20",
      "latitude": 51.4700522,
      "longitude": -0.2022048,
      "formatted_address": "Hurlingham Square, London SW6 3PR, UK",
      "place_id": "ChIJ4WSDmXcPdkgRZ-BhX22nX0E"
    }
  ],
  "team_count": 11,
  "success_count": 11
}