{
  "league_name": "Regional 2 Tribute Ale South West",
  "league_url": "https://www.englandrugby.com/fixtures-and-results/search-results?competition=1699&division=66458",
  "teams": [
    {
      "name": "Weston-super-Mare",
      "url": "https://www.englandrugby.com/fixtures-and-results/search-results?team=25046",
      "image_url": "https://images.englandrugby.com/club_images/25046.png",
      "address": "Recreation Ground, Sunnyside Road North, Weston Super Mare, Somerset, BS23 3PA, United Kingdom",
      "postcode": "BS23 3PA",
      "maps_url": "https://www.google.com/maps/search/?api=1&query=Recreation%20Ground%0ASunnyside%20Road%20North%0AWeston%20Super%20Mare%0ASomerset%0ABS23%203PA%0AUnited%20Kingdom",
      "latitude": 51.3418979,
      "longitude": -2.9702719,
      "formatted_address": "Recreation Ground, Drove Rd., Sunnyside Rd N, Weston-super-Mare BS23 3NW, UK",
      "place_id": "ChIJY3HLN9D4cUgR62JZqDtmc5g"
    },
    {
      "name": "Tiverton",
      "url": "https://www.englandrugby.com/fixtures-and-results/search-results?team=22812",
      "image_url": "https://images.englandrugby.com/club_images/22812.png",
      "address": "Tiverton Rfc, Coronation Field, Bolham Road, Tiverton, Devon, EX16 6SG, United Kingdom",
      "postcode": "EX16 6SG",
      "maps_url": "https://www.google.com/maps/search/?api=1&query=Tiverton%20Rfc%0ACoronation%20Field%0ABolham%20Road%0ATiverton%0ADevon%0AEX16%206SG%0AUnited%20Kingdom",
      "latitude": 50.910915,
      "longitude": -3.4913765,
      "formatted_address": "Tiverton Rugby Club, Bolham Rd, Tiverton EX16 6SG, UK",
      "place_id": "ChIJ0eOILeS-bUgRefcm2mDc-hU"
    },
    {
      "name": "Okehampton",
      "url": "https://www.englandrugby.com/fixtures-and-results/search-results?team=15342",
      "image_url": "https://images.englandrugby.com/club_images/15342.png",
      "address": "Showfield, Oaklands, Okehampton, Devon, EX20 1LN, United Kingdom",
      "postcode": "EX20 1LN",
      "maps_url": "https://www.google.com/maps/search/?api=1&query=Showfield%0AOaklands%0AOkehampton%0ADevon%0AEX20%201LN%0AUnited%20Kingdom",
      "latitude": 50.7408167,
      "longitude": -4.0076292,
      "formatted_address": "Oaklands Park, Hatherleigh Rd, Okehampton EX20 1LN, UK",
      "place_id": "ChIJbfA-TI9abEgRMiFb8CPWP2A"
    },
    {
      "name": "Wadebridge Camels",
      "url": "https://www.englandrugby.com/fixtures-and-results/search-results?team=24066",
      "image_url": "https://images.englandrugby.com/club_images/24066.png",
      "address": "Molesworth Field, Egloshayle, Wadebridge, Cornw, PL27 6AQ, United Kingdom",
      "postcode": "PL27 6AQ",
      "maps_url": "https://www.google.com/maps/search/?api=1&query=Molesworth%20Field%0AEgloshayle%0AWadebridge%0ACornw%0APL27%206AQ%0AUnited%20Kingdom",
      "latitude": 50.5162992,
      "longitude": -4.8381018,
      "formatted_address": "Molesworth St, Wadebridge PL27, UK",
      "place_id": "EiJNb2xlc3dvcnRoIFN0LCBXYWRlYnJpZGdlIFBMMjcsIFVLIi4qLAoUChIJpf6iKZZ2a0gR6uleJ6VWmrISFAoSCckOJ7_wt2pIEXFFS9mFPEJu"
    },
    {
      "name": "Ivybridge",
      "url": "https://www.englandrugby.com/fixtures-and-results/search-results?team=11039",
      "image_url": "https://images.englandrugby.com/club_images/11039.png",
      "address": "Ivybridge R.f.c., Cross-in-hand, Filham, Ivybridge, Devon, PL21 0LR, United Kingdom",
      "postcode": "PL21 0LR",
      "maps_url": "https://www.google.com/maps/search/?api=1&query=Ivybridge%20R.f.c.%0ACross-in-hand%0AFilham%0AIvybridge%0ADevon%0APL21%200LR%0AUnited%20Kingdom",
      "latitude": 50.3894823,
      "longitude": -3.9037041,
      "formatted_address": "Cross-in-Hand, Filham, Ivybridge PL21 0LR, UK",
      "place_id": "ChIJ3aKVU7nlbEgR3SaRGpdhzoA"
    },
    {
      "name": "Crediton",
      "url": "https://www.englandrugby.com/fixtures-and-results/search-results?team=5832",
      "image_url": "https://images.englandrugby.com/club_images/5832.png",
      "address": "Crediton R.f.c., Blagdon, Exhibition Road, Crediton, Devon, EX17 1BY, United Kingdom",
      "postcode": "EX17 1BY",
      "maps_url": "https://www.google.com/maps/search/?api=1&query=Crediton%20R.f.c.%0ABlagdon%0AExhibition%20Road%0ACrediton%0ADevon%0AEX17%201BY%0AUnited%20Kingdom",
      "latitude": 50.79249739999999,
      "longitude": -3.6462499,
      "formatted_address": "Exhibition Rd, Crediton EX17 1EP, UK",
      "place_id": "ChIJiyKYsSiwbUgRpXEG0ieGisU"
    },
    {
      "name": "Winscombe",
      "url": "https://www.englandrugby.com/fixtures-and-results/search-results?team=25674",
      "image_url": "https://images.englandrugby.com/club_images/25674.png",
      "address": "The Recreation Ground, Winscombe, Avon, BS251AZ, United Kingdom",
      "postcode": "BS251AZ",
      "maps_url": "https://www.google.com/maps/search/?api=1&query=The%20Recreation%20Ground%0AWinscombe%0AAvon%0ABS251AZ%0AUnited%20Kingdom",
      "latitude": 51.303663,
      "longitude": -2.847222,
      "formatted_address": "Winscombe BS25, UK",
      "place_id": "ChIJOysUGtb3cUgRcIXl6mZM5mg"
    },
    {
      "name": "Teignmouth",
      "url": "https://www.englandrugby.com/fixtures-and-results/search-results?team=21773",
      "image_url": "https://images.englandrugby.com/club_images/21773.png",
      "address": "Bitton Sports Ground, Bitton Park Road, Teignmouth, Devon, TQ14 9DQ, United Kingdom",
      "postcode": "TQ14 9DQ",
      "maps_url": "https://www.google.com/maps/search/?api=1&query=Bitton%20Sports%20Ground%0ABitton%20Park%20Road%0ATeignmouth%0ADevon%0ATQ14%209DQ%0AUnited%20Kingdom",
      "latitude": 50.5474828,
      "longitude": -3.5046205,
      "formatted_address": "Bitton House, Bitton Park Rd, Teignmouth TQ14 9DF, UK",
      "place_id": "ChIJrd8iyzUJbUgR5xE_yxutuow"
    },
    {
      "name": "Penzance & Newlyn",
      "url": "https://www.englandrugby.com/fixtures-and-results/search-results?team=16938",
      "image_url": "https://images.englandrugby.com/club_images/16938.png",
      "address": "Pirates Amateurs RFC Penzance &amp; Newlyn RFC Westholme Alexandra Road Penzance CORNWALL TR18 4LY ",
      "postcode": "TR18 4LY",
      "maps_url": "https://www.google.com/maps/search/?api=1&query=Pirates%20Amateurs%20RFC%20Penzance%20%26amp%3B%20Newlyn%20RFC%20Westholme%20Alexandra%20Road%20Penzance%20CORNWALL%20TR18%204LY%20",
      "latitude": 50.1136095,
      "longitude": -5.542830899999999,
      "formatted_address": "Alexandra Rd, Penzance TR18 4LY, UK",
      "place_id": "ChIJlffcEmjEakgRDCbvPLhZvHw"
    },
    {
      "name": "North Petherton",
      "url": "https://www.englandrugby.com/fixtures-and-results/search-results?team=14748",
      "image_url": "https://images.englandrugby.com/club_images/14748.png",
      "address": "North Petherton RFC Beggars Brook North Petherton SOMERSET TA6 6NW UNITED KINGDOM ",
      "postcode": "TA6 6NW",
      "maps_url": "https://www.google.com/maps/search/?api=1&query=North%20Petherton%20RFC%20Beggars%20Brook%20North%20Petherton%20SOMERSET%20TA6%206NW%20UNITED%20KINGDOM%20",
      "latitude": 51.0824613,
      "longitude": -3.015444,
      "formatted_address": "Beggars Brook, Bridgwater TA6 6NW, UK",
      "place_id": "ChIJmTqqAb4JckgRv0uoVN2IiJE"
    },
    {
      "name": "Cullompton",
      "url": "https://www.englandrugby.com/fixtures-and-results/search-results?team=6003",
      "image_url": "https://images.englandrugby.com/club_images/6003.png",
      "address": "Cullompton RFC Stafford Park Knowle Lane Cullompton DEVON EX15 1PZ UNITED KINGDOM ",
      "postcode": "EX15 1PZ",
      "maps_url": "https://www.google.com/maps/search/?api=1&query=Cullompton%20RFC%20Stafford%20Park%20Knowle%20Lane%20Cullompton%20DEVON%20EX15%201PZ%20UNITED%20KINGDOM%20",
      "latitude": 50.8543156,
      "longitude": -3.4077663,
      "formatted_address": "Stafford Park, Knowle Ln, Cullompton EX15 1PZ, UK",
      "place_id": "ChIJR9oN1SOWbUgRfSlsE79xVcY"
    },
    {
      "name": "Wellington",
      "url": "https://www.englandrugby.com/fixtures-and-results/search-results?team=24630",
      "image_url": "https://images.englandrugby.com/club_images/24630.png",
      "address": "The Athletic Ground Corams Lane Wellington SOMERSET TA21 8LL UNITED KINGDOM ",
      "postcode": "TA21 8LL",
      "maps_url": "https://www.google.com/maps/search/?api=1&query=The%20Athletic%20Ground%20Corams%20Lane%20Wellington%20SOMERSET%20TA21%208LL%20UNITED%20KINGDOM%20",
      "latitude": 50.9803979,
      "longitude": -3.2412125,
      "formatted_address": "Corams Ln, Wellington TA21 8LL, UK",
      "place_id": "EiJDb3JhbXMgTG4sIFdlbGxpbmd0b24gVEEyMSA4TEwsIFVLIi4qLAoUChIJj5lELVrtbUgRV6X5KemkavcSFAoSCf07wfhY7W1IET9BwKaXRXUF"
    }
  ],
  "team_count": 12,
  "success_count": 12
}