{
  "league_name": "Raging Bull Division 3 North",
  "league_url": "https://www.englandrugby.com/fixtures-and-results/search-results?competition=183&division=7434&season=2013-2014#tables",
  "teams": [
    {
      "name": "Preston Grasshoppers 4th XV",
      "url": "https://www.englandrugby.com/fixtures-and-results/search-results?team=17183",
      "image_url": "https://images.englandrugby.com/club_images/17183.png",
      "address": "Lightfoot Green, Fulwood, Preston. LANCASHIRE PR4 0AP UNITED KINGDOM ",
      "latitude": 53.797229,
      "longitude": -2.733251,
      "formatted_address": "Preston Grasshoppers R.F.C., Lightfoot Green Lane, Fulwood, Broughton, Preston, Lancashire, England, PR4 0AP, United Kingdom",
      "place_id": 256147200
    },
    {
      "name": "BAe Warton",
      "url": "https://www.englandrugby.com/fixtures-and-results/search-results?team=1225",
      "image_url": "https://images.englandrugby.com/club_images/1225.png",
      "address": "Warton Aerodrome Preston Lancashire PR4 1AX United Kingdom",
      "latitude": 53.747127,
      "longitude": -2.887732,
      "formatted_address": "PR4 1AX, Fylde, Lancashire, England, United Kingdom",
      "place_id": 351802344
    },
    {
      "name": "Sale 3rd XV",
      "url": "https://www.englandrugby.com/fixtures-and-results/search-results?team=18562",
      "image_url": "https://images.englandrugby.com/club_images/18562.png",
      "address": "Corpacq Stadium Heywood Road Brooklands Sale Cheshire M33 3WB United Kingdom",
      "latitude": 53.416741,
      "longitude": -2.321486,
      "formatted_address": "M33 3WB, Trafford, Greater Manchester, England, United Kingdom",
      "place_id": 350247419
    },
    {
      "name": "Aldwinians 3rd XV",
      "url": "https://www.englandrugby.com/fixtures-and-results/search-results?team=428",
      "image_url": "https://images.englandrugby.com/club_images/428.png",
      "address": "Audenshaw Park, Droylsden Road, Audenshaw, GREATER MANCHESTER M34 5SN UNITED KINGDOM",
      "latitude": 53.478667,
      "longitude": -2.136956,
      "formatted_address": "M34 5SN, Tameside, Greater Manchester, England, United Kingdom",
      "place_id": 350698316
    },
    {
      "name": "Rochdale 3rd XV",
      "url": "https://www.englandrugby.com/fixtures-and-results/search-results?team=17891",
      "image_url": "https://images.englandrugby.com/club_images/17891.png",
      "address": "The Clubhouse, Moorgate Avenue, Bamford, Rochdale, OL11 5LU, England",
      "latitude": 53.615664,
      "longitude": -2.191894,
      "formatted_address": "OL11 5LU, Rochdale, Greater Manchester, England, United Kingdom",
      "place_id": 351708168
    },
    {
      "name": "Southport 2nd XV",
      "url": "https://www.englandrugby.com/fixtures-and-results/search-results?team=19779",
      "image_url": "https://images.englandrugby.com/club_images/19779.png",
      "address": "Club House Waterloo Road HIllside Southport. MERSEYSIDE PR8 4QW UNITED KINGDOM ",
      "latitude": 53.619211,
      "longitude": -3.023044,
      "formatted_address": "PR8 4QW, Sefton, Liverpool City Region, England, United Kingdom",
      "place_id": 351804936
    },
    {
      "name": "Lymm Eagles",
      "url": "https://www.englandrugby.com/fixtures-and-results/search-results?team=13012",
      "image_url": "https://images.englandrugby.com/club_images/13012.png",
      "address": "Beechwood Crouchley Lane Lymm Cheshire WA13 0AT United Kingdom",
      "latitude": 53.373041,
      "longitude": -2.474513,
      "formatted_address": "WA13 0AT, Lymm, Warrington, England, United Kingdom",
      "place_id": 352125835
    },
    {
      "name": "Burnley 2nd XV",
      "url": "https://www.englandrugby.com/fixtures-and-results/search-results?team=3737",
      "image_url": "https://images.englandrugby.com/club_images/3737.png",
      "address": "Holden Road, Reedley, Burnley. LANCASHIRE BB10 2LE UNITED KINGDOM ",
      "latitude": 53.814962,
      "longitude": -2.234602,
      "formatted_address": "BB10 2LE, Reedley Hallows, Fence, Pendle, Lancashire, England, United Kingdom",
      "place_id": 350944241
    },
    {
      "name": "Ashton-on-Mersey 2nd XV",
      "url": "https://www.englandrugby.com/fixtures-and-results/search-results?team=948",
      "image_url": "https://images.englandrugby.com/club_images/948.png",
      "address": "Banky Lane (off Carrington Lane) Ashton on Mersey Sale CHESHIRE M33 5SL UNITED KINGDOM",
      "latitude": 53.433399,
      "longitude": -2.35557,
      "formatted_address": "M33 5SL, Trafford, Greater Manchester, England, United Kingdom",
      "place_id": 350698158
    },
    {
      "name": "Bury 2nd XV",
      "url": "https://www.englandrugby.com/fixtures-and-results/search-results?team=3810",
      "image_url": "https://images.englandrugby.com/club_images/3810.png",
      "address": "Radcliffe Road Bury LANCASHIRE BL9 9JX UNITED KINGDOM ",
      "latitude": 53.583711,
      "longitude": -2.300822,
      "formatted_address": "BL9 9JX, Bury, Greater Manchester, England, United Kingdom",
      "place_id": 350991687
    },
    {
      "name": "Fylde Vandals (4th XV)",
      "url": "https://www.englandrugby.com/fixtures-and-results/search-results?team=8446",
      "image_url": "https://images.englandrugby.com/club_images/8446.png",
      "address": null,
      "latitude": 53.74437,
      "longitude": -2.987417
    },
    {
      "name": "Eccles 3rd XV",
      "url": "https://www.englandrugby.com/fixtures-and-results/search-results?team=7281",
      "image_url": "https://images.englandrugby.com/club_images/7281.png",
      "address": "Gorton Street Peel Green Eccles, Manchester. Greater Manchester M30 7LZ United Kingdom",
      "latitude": 53.477885,
      "longitude": -2.369727,
      "formatted_address": "Gorton Street, Winton, Worsley, Salford, Greater Manchester, England, M30 7EH, United Kingdom",
      "place_id": 257045139
    },
    {
      "name": "Vale of Lune 3rd XV",
      "url": "https://www.englandrugby.com/fixtures-and-results/search-results?team=23902",
      "image_url": "https://images.englandrugby.com/club_images/23902.png",
      "address": "Vale Of Lune Rufc, Powderhouse Lane, Lancaster., Lancashire, LA1 2TT, United Kingdom",
      "latitude": 54.061799,
      "longitude": -2.819812,
      "formatted_address": "LA1 2TT, England, United Kingdom",
      "place_id": 350226941
    },
    {
      "name": "Orrell 2nd XV",
      "url": "https://www.englandrugby.com/fixtures-and-results/search-results?team=16279",
      "image_url": "https://images.englandrugby.com/club_images/16279.png",
      "address": "46 Dingle Road, Upholland, Skelmersdale, Lancashire, WN8 0EW, England",
      "latitude": 53.546277,
      "longitude": -2.726942,
      "formatted_address": "WN8 0EW, Up Holland, Upholland, West Lancashire, Lancashire, England, United Kingdom",
      "place_id": 352156955
    }
  ],
  "team_count": 14
}
