{
  "league_name": "Raging Bull Division 3 North",
  "league_url": "https://www.englandrugby.com/fixtures-and-results/search-results?competition=183&division=6719&season=2012-2013#tables",
  "teams": [
    {
      "name": "Leigh 3rd XV",
      "url": "https://www.englandrugby.com/fixtures-and-results/search-results?team=12121",
      "image_url": "https://images.englandrugby.com/club_images/12121.png",
      "address": "Round Ash Park Hand Lane Pennington Leigh. LANCASHIRE WN7 3NA UNITED KINGDOM ",
      "latitude": 53.481032,
      "longitude": -2.521389,
      "formatted_address": "WN7 3NA, Wigan, Greater Manchester, England, United Kingdom",
      "place_id": 350892601
    },
    {
      "name": "Liverpool University Veterinarians",
      "url": "https://www.englandrugby.com/fixtures-and-results/search-results?team=12474",
      "image_url": "https://images.englandrugby.com/club_images/12474.png",
      "address": "Geoffrey Hughes Memorial Ground Wyncote, Mather Avenue Allerton L18 6HF UNITED KINGDOM",
      "latitude": 53.381774,
      "longitude": -2.907157,
      "formatted_address": "L18 6HF, Liverpool City Region, England, United Kingdom",
      "place_id": 350674840
    },
    {
      "name": "Preston Grasshoppers 4th XV",
      "url": "https://www.englandrugby.com/fixtures-and-results/search-results?team=17183",
      "image_url": "https://images.englandrugby.com/club_images/17183.png",
      "address": "Lightfoot Green, Fulwood, Preston. LANCASHIRE PR4 0AP UNITED KINGDOM ",
      "latitude": 53.797229,
      "longitude": -2.733251,
      "formatted_address": "Preston Grasshoppers R.F.C., Lightfoot Green Lane, Fulwood, Broughton, Preston, Lancashire, England, PR4 0AP, United Kingdom",
      "place_id": 256147200
    },
    {
      "name": "Sale 3rd XV",
      "url": "https://www.englandrugby.com/fixtures-and-results/search-results?team=18562",
      "image_url": "https://images.englandrugby.com/club_images/18562.png",
      "address": "Corpacq Stadium Heywood Road Brooklands Sale Cheshire M33 3WB United Kingdom",
      "latitude": 53.416741,
      "longitude": -2.321486,
      "formatted_address": "M33 3WB, Trafford, Greater Manchester, England, United Kingdom",
      "place_id": 350247419
    },
    {
      "name": "Southport 2nd XV",
      "url": "https://www.englandrugby.com/fixtures-and-results/search-results?team=19779",
      "image_url": "https://images.englandrugby.com/club_images/19779.png",
      "address": "Club House Waterloo Road HIllside Southport. MERSEYSIDE PR8 4QW UNITED KINGDOM ",
      "latitude": 53.619211,
      "longitude": -3.023044,
      "formatted_address": "PR8 4QW, Sefton, Liverpool City Region, England, United Kingdom",
      "place_id": 351804936
    },
    {
      "name": "Fylde Vandals (4th XV)",
      "url": "https://www.englandrugby.com/fixtures-and-results/search-results?team=8446",
      "image_url": "https://images.englandrugby.com/club_images/8446.png",
      "address": null,
      "latitude": 53.74437,
      "longitude": -2.987417
    },
    {
      "name": "Lymm Eagles",
      "url": "https://www.englandrugby.com/fixtures-and-results/search-results?team=13012",
      "image_url": "https://images.englandrugby.com/club_images/13012.png",
      "address": "Beechwood Crouchley Lane Lymm Cheshire WA13 0AT United Kingdom",
      "latitude": 53.373041,
      "longitude": -2.474513,
      "formatted_address": "WA13 0AT, Lymm, Warrington, England, United Kingdom",
      "place_id": 352125835
    },
    {
      "name": "Rochdale 3rd XV",
      "url": "https://www.englandrugby.com/fixtures-and-results/search-results?team=17891",
      "image_url": "https://images.englandrugby.com/club_images/17891.png",
      "address": "The Clubhouse, Moorgate Avenue, Bamford, Rochdale, OL11 5LU, England",
      "latitude": 53.615664,
      "longitude": -2.191894,
      "formatted_address": "OL11 5LU, Rochdale, Greater Manchester, England, United Kingdom",
      "place_id": 351708168
    },
    {
      "name": "Aldwinians 3rd XV",
      "url": "https://www.englandrugby.com/fixtures-and-results/search-results?team=428",
      "image_url": "https://images.englandrugby.com/club_images/428.png",
      "address": "Audenshaw Park, Droylsden Road, Audenshaw, GREATER MANCHESTER M34 5SN UNITED KINGDOM",
      "latitude": 53.478667,
      "longitude": -2.136956,
      "formatted_address": "M34 5SN, Tameside, Greater Manchester, England, United Kingdom",
      "place_id": 350698316
    },
    {
      "name": "Ormskirk 2nd XV",
      "url": "https://www.englandrugby.com/fixtures-and-results/search-results?team=16248",
      "image_url": "https://images.englandrugby.com/club_images/16248.png",
      "address": "Green Lane Ormskirk LANCASHIRE L39 1ND UNITED KINGDOM ",
      "latitude": 53.572895,
      "longitude": -2.887687,
      "formatted_address": "Green Lane, Ormskirk, West Lancashire, Lancashire, England, L39 1ND, United Kingdom",
      "place_id": 254521203
    },
    {
      "name": "Broughton",
      "url": "https://www.englandrugby.com/fixtures-and-results/search-results?team=3495",
      "image_url": "https://images.englandrugby.com/club_images/3495.png",
      "address": "Yew Street Salford Lancashire M7 2HL United Kingdom",
      "latitude": 53.5018,
      "longitude": -2.266697,
      "formatted_address": "M7 2HL, Salford, Greater Manchester, England, United Kingdom",
      "place_id": 350249258
    },
    {
      "name": "Oldham 3rd XV",
      "url": "https://www.englandrugby.com/fixtures-and-results/search-results?team=16155",
      "image_url": "https://images.englandrugby.com/club_images/16155.png",
      "address": "Manor Park, Byrth Road, Bardsley, Oldham, Lancashire, OL8 2TJ, United Kingdom",
      "latitude": 53.51269,
      "longitude": -2.108927,
      "formatted_address": "OL8 2TJ, Oldham, Greater Manchester, England, United Kingdom",
      "place_id": 350752536
    }
  ],
  "team_count": 12
}
