{
  "league_name": "Southern Counties South",
  "league_url": "https://www.englandrugby.com/fixtures-and-results/search-results?competition=1699&division=7232&season=2013-2014#tables",
  "teams": [
    {
      "name": "Wells",
      "url": "https://www.englandrugby.com/fixtures-and-results/search-results?team=24654",
      "image_url": "https://images.englandrugby.com/club_images/24654.png",
      "address": "Wells Rfc, Charter Way, Wells, Somerset, BA5 2FB, United Kingdom",
      "latitude": 51.2123262,
      "longitude": -2.6634944,
      "formatted_address": "BA5 2FB, Wells, Somerset, England, United Kingdom",
      "place_id": 350491558
    },
    {
      "name": "Trowbridge",
      "url": "https://www.englandrugby.com/fixtures-and-results/search-results?team=23240",
      "image_url": "https://images.englandrugby.com/club_images/23240.png",
      "address": "Paxcroft Hilperton Trowbridge WILTSHIRE BA14 6JB UNITED KINGDOM ",
      "latitude": 51.3255277,
      "longitude": -2.1780799,
      "formatted_address": "Paxcroft Mead, Trowbridge, Hilperton, Wiltshire, England, BA14 7WQ, United Kingdom",
      "place_id": 261549299
    },
    {
      "name": "Sherborne",
      "url": "https://www.englandrugby.com/fixtures-and-results/search-results?team=19189",
      "image_url": "https://images.englandrugby.com/club_images/19189.png",
      "address": "Sherborne Rfc, The Terrace Playing Fields, Gainsborough Park, Sherborne, Dorset, DT9 5NS, United Kingdom",
      "latitude": 50.93938,
      "longitude": -2.5072,
      "formatted_address": "DT9 5NS, Castleton, Dorset, England, United Kingdom",
      "place_id": 351200437
    },
    {
      "name": "Swanage & Wareham",
      "url": "https://www.englandrugby.com/fixtures-and-results/search-results?team=21497",
      "image_url": "https://images.englandrugby.com/club_images/21497.png",
      "address": "Swanage & Wareham R.F.C. Bestwall Wareham DORSET BH20 4HY UNITED KINGDOM ",
      "latitude": 50.6870467,
      "longitude": -2.1024113,
      "formatted_address": "BH20 4HY, Wareham Town, Wareham, Dorset, England, United Kingdom",
      "place_id": 350974927
    },
    {
      "name": "Wimborne",
      "url": "https://www.englandrugby.com/fixtures-and-results/search-results?team=25549",
      "image_url": "https://images.englandrugby.com/club_images/25549.png",
      "address": "Wimborne RFC Leigh Park Gordon Road Gordon Road Wimborne DORSET BH21 2AP UNITED KINGDOM ",
      "latitude": 50.79679,
      "longitude": -1.97171,
      "formatted_address": "BH21 2AP, Leigh Park, St Johns, Wimborne Minster, Dorset, England, United Kingdom",
      "place_id": 350975510
    },
    {
      "name": "North Dorset",
      "url": "https://www.englandrugby.com/fixtures-and-results/search-results?team=14694",
      "image_url": "https://images.englandrugby.com/club_images/14694.png",
      "address": "North Dorset R.F.C. Slaughtergate Longbury Hill Lane Gillingham DORSET SP8 5SY UNITED KINGDOM ",
      "latitude": 51.04585,
      "longitude": -2.3043,
      "formatted_address": "SP8 5SY, Gillingham, Dorset, England, United Kingdom",
      "place_id": 351969660
    },
    {
      "name": "Frome",
      "url": "https://www.englandrugby.com/fixtures-and-results/search-results?team=8353",
      "image_url": "https://images.englandrugby.com/club_images/8353.png",
      "address": "The Clubhouse, Gypsy Lane, Frome, Somerset, BA11 2NA, United Kingdom",
      "latitude": 51.24412,
      "longitude": -2.30404,
      "formatted_address": "BA11 2NA, Berkley, Somerset, England, United Kingdom",
      "place_id": 350930903
    },
    {
      "name": "Walcot",
      "url": "https://www.englandrugby.com/fixtures-and-results/search-results?team=24095",
      "image_url": "https://images.englandrugby.com/club_images/24095.png",
      "address": "Albert Field, Lansdown, Bath, Somerset, BA1 9BJ, United Kingdom",
      "latitude": 51.4097448,
      "longitude": -2.3815316,
      "formatted_address": "BA1 9BJ, Charlcombe, Bath and North East Somerset, West of England, England, United Kingdom",
      "place_id": 350490574
    },
    {
      "name": "Corsham",
      "url": "https://www.englandrugby.com/fixtures-and-results/search-results?team=5659",
      "image_url": "https://images.englandrugby.com/club_images/5659.png",
      "address": "Corsham Rfc, Lacock Road, Corsham, Wiltshire, SN13 9QG, United Kingdom",
      "latitude": 51.431,
      "longitude": -2.16898,
      "formatted_address": "SN13 9QG, Corsham, Wiltshire, England, United Kingdom",
      "place_id": 351942995
    },
    {
      "name": "Dorchester",
      "url": "https://www.englandrugby.com/fixtures-and-results/search-results?team=6585",
      "image_url": "https://images.englandrugby.com/club_images/6585.png",
      "address": "Dorchester Rfc, Coburg Road, Dorchester, Dorset, DT1 2HX, England",
      "latitude": 50.70926,
      "longitude": -2.45643,
      "formatted_address": "DT1 2HX, Dorchester, Dorset, England, United Kingdom",
      "place_id": 351194406
    },
    {
      "name": "Yeovil",
      "url": "https://www.englandrugby.com/fixtures-and-results/search-results?team=26435",
      "image_url": "https://images.englandrugby.com/club_images/26435.png",
      "address": "Church Lane, Yeovil, Somerset, BA22 9TR, United Kingdom",
      "latitude": 50.92421,
      "longitude": -2.63455,
      "formatted_address": "BA22 9TR, Barwick, Somerset, England, United Kingdom",
      "place_id": 350939001
    },
    {
      "name": "Weymouth & Portland",
      "url": "https://www.englandrugby.com/fixtures-and-results/search-results?team=25111",
      "image_url": "https://images.englandrugby.com/club_images/25111.png",
      "address": "Weymouth & Portland RFC Ltd Monmouth Avenue Weymouth DORSET DT3 5HZ UNITED KINGDOM ",
      "latitude": 50.63253,
      "longitude": -2.45336,
      "formatted_address": "DT3 5HZ, Weymouth, Dorset, England, United Kingdom",
      "place_id": 351197295
    }
  ],
  "team_count": 12
}
