{
  "league_name": "Counties 1 Hampshire",
  "league_url": "https://www.englandrugby.com/fixtures-and-results/search-results?competition=261&division=66534&season=2025-2026#tables",
  "teams": [
    {
      "name": "Bognor",
      "url": "https://www.englandrugby.com/fixtures-and-results/search-results?team=2677&season=2025-2026",
      "image_url": "https://images.englandrugby.com/club_images/2677.png",
      "address": "Bognor R.f.c., Hampshire Avenue, Bognor Regis, West Sussex, PO21 5JH, United Kingdom",
      "postcode": "PO21 5JH",
      "maps_url": "https://www.google.com/maps/search/?api=1&query=Bognor%20R.f.c.%0AHampshire%20Avenue%0ABognor%20Regis%0AWest%20Sussex%0APO21%205JH%0AUnited%20Kingdom",
      "latitude": 50.79407,
      "longitude": -0.68564,
      "formatted_address": "PO21 5JH, Bognor Regis, Arun, West Sussex, England, United Kingdom",
      "place_id": 351787815
    },
    {
      "name": "Winchester II",
      "url": "https://www.englandrugby.com/fixtures-and-results/search-results?team=25576&season=2025-2026",
      "image_url": "https://images.englandrugby.com/club_images/25576.png",
      "address": "Winchester Rfc Ltd, North Walls Park (off Nuns Walk), Winchester, Hampshire, SO23 7EF, United Kingdom",
      "postcode": "SO23 7EF",
      "maps_url": "https://www.google.com/maps/search/?api=1&query=Winchester%20Rfc%20Ltd%0ANorth%20Walls%20Park%20%28off%20Nuns%20Walk%29%0AWinchester%0AHampshire%0ASO23%207EF%0AUnited%20Kingdom",
      "latitude": 51.0704306,
      "longitude": -1.3104807,
      "formatted_address": "SO23 7EF, Winchester, Hampshire, England, United Kingdom",
      "place_id": 351955241
    },
    {
      "name": "Portsmouth",
      "url": "https://www.englandrugby.com/fixtures-and-results/search-results?team=17112&season=2025-2026",
      "image_url": "https://images.englandrugby.com/club_images/17112.png",
      "address": "Portsmouth Rugby Club Norway Road Hilsea Portsmouth HAMPSHIRE PO3 5EP UNITED KINGDOM ",
      "postcode": "PO3 5EP",
      "maps_url": "https://www.google.com/maps/search/?api=1&query=Portsmouth%20Rugby%20Club%20Norway%20Road%20Hilsea%20Portsmouth%20HAMPSHIRE%20PO3%205EP%20UNITED%20KINGDOM%20",
      "latitude": 50.8283599,
      "longitude": -1.0626027,
      "formatted_address": "PO3 5EP, Portsmouth, England, United Kingdom",
      "place_id": 351788884
    },
    {
      "name": "Basingstoke",
      "url": "https://www.englandrugby.com/fixtures-and-results/search-results?team=1565&season=2025-2026",
      "image_url": "https://images.englandrugby.com/club_images/1565.png",
      "address": "Down Grange, Pack Lane, Kempshott, Basingstoke, Hampshire, RG22 5HH, England",
      "postcode": "RG22 5HH",
      "maps_url": "https://www.google.com/maps/search/?api=1&query=Down%20Grange%0APack%20Lane%0AKempshott%0ABasingstoke%0AHampshire%0ARG22%205HH%0AEngland",
      "latitude": 51.2500615,
      "longitude": -1.1278403,
      "formatted_address": "Down Grange, Pack Lane, Berg Estate, Kempshott, Basingstoke, Basingstoke and Deane, Hampshire, England, RG22 5HH, United Kingdom",
      "place_id": 260114707
    },
    {
      "name": "Chichester",
      "url": "https://www.englandrugby.com/fixtures-and-results/search-results?team=4753&season=2025-2026",
      "image_url": "https://images.englandrugby.com/club_images/4753.png",
      "address": "Oaklands Park, Wellington Road, Chichester, Sussex, PO19 6BB, United Kingdom",
      "postcode": "PO19 6BB",
      "maps_url": "https://www.google.com/maps/search/?api=1&query=Oaklands%20Park%0AWellington%20Road%0AChichester%0ASussex%0APO19%206BB%0AUnited%20Kingdom",
      "latitude": 50.8477386,
      "longitude": -0.777576,
      "formatted_address": "PO19 6BB, Chichester, West Sussex, England, United Kingdom",
      "place_id": 350775552
    },
    {
      "name": "Andover",
      "url": "https://www.englandrugby.com/fixtures-and-results/search-results?team=657&season=2025-2026",
      "image_url": "https://images.englandrugby.com/club_images/657.png",
      "address": "The Goodship Ground, Foxcotte Park, Andover, Hampshire, SP11 0TA, United Kingdom",
      "postcode": "SP11 0TA",
      "maps_url": "https://www.google.com/maps/search/?api=1&query=The%20Goodship%20Ground%0AFoxcotte%20Park%0AAndover%0AHampshire%0ASP11%200TA%0AUnited%20Kingdom",
      "latitude": 51.2329,
      "longitude": -1.49904,
      "formatted_address": "SP11 0TA, Charlton, Test Valley, Hampshire, England, United Kingdom",
      "place_id": 351963834
    },
    {
      "name": "Bournemouth II",
      "url": "https://www.englandrugby.com/fixtures-and-results/search-results?team=2792&season=2025-2026",
      "image_url": "https://images.englandrugby.com/club_images/2792.png",
      "address": "Chapel Gate, East Parley , Christchurch, Dorset, BH23 6BL, United Kingdom",
      "postcode": "BH23 6BL",
      "maps_url": "https://www.google.com/maps/search/?api=1&query=Chapel%20Gate%0AEast%20Parley%20%0AChristchurch%0ADorset%0ABH23%206BL%0AUnited%20Kingdom",
      "latitude": 50.78235,
      "longitude": -1.85917,
      "formatted_address": "BH23 6BL, Hurn, Bournemouth, Christchurch and Poole, England, United Kingdom",
      "place_id": 350978295
    },
    {
      "name": "Millbrook",
      "url": "https://www.englandrugby.com/fixtures-and-results/search-results?team=13878&season=2025-2026",
      "image_url": "https://images.englandrugby.com/club_images/13878.png",
      "address": "Lordshill Recreation Ground Redbridge Lane, Lordshill Southampton HAMPSHIRE SO16 9BP UNITED KINGDOM ",
      "postcode": "SO16 9BP",
      "maps_url": "https://www.google.com/maps/search/?api=1&query=Lordshill%20Recreation%20Ground%20Redbridge%20Lane%2C%20Lordshill%20Southampton%20HAMPSHIRE%20SO16%209BP%20UNITED%20KINGDOM%20",
      "latitude": 50.9297039,
      "longitude": -1.4702939,
      "formatted_address": "SO16 9BP, Southampton, England, United Kingdom",
      "place_id": 350827854
    },
    {
      "name": "Sandown & Shanklin",
      "url": "https://www.englandrugby.com/fixtures-and-results/search-results?team=18708&season=2025-2026",
      "image_url": "https://images.englandrugby.com/club_images/18708.png",
      "address": "The Clubhouse, Station Approach, Sandown, PO36 9ES, United Kingdom",
      "postcode": "PO36 9ES",
      "maps_url": "https://www.google.com/maps/search/?api=1&query=The%20Clubhouse%0AStation%20Approach%0ASandown%0APO36%209ES%0AUnited%20Kingdom",
      "latitude": 50.6561004,
      "longitude": -1.1652962,
      "formatted_address": "PO36 9ES, Lake, Isle of Wight, England, United Kingdom",
      "place_id": 350777134
    },
    {
      "name": "Gosport & Fareham",
      "url": "https://www.englandrugby.com/fixtures-and-results/search-results?team=8808&season=2025-2026",
      "image_url": "https://images.englandrugby.com/club_images/8808.png",
      "address": "Gosport Park, Dolphin Crescent, Gosport, Hampshire, PO12 2HE, United Kingdom",
      "postcode": "PO12 2HE",
      "maps_url": "https://www.google.com/maps/search/?api=1&query=Gosport%20Park%0ADolphin%20Crescent%0AGosport%0AHampshire%0APO12%202HE%0AUnited%20Kingdom",
      "latitude": 50.7881222,
      "longitude": -1.1352757,
      "formatted_address": "PO12 2HE, Gosport, Hampshire, England, United Kingdom",
      "place_id": 350774642
    },
    {
      "name": "Guernsey II",
      "url": "https://www.englandrugby.com/fixtures-and-results/search-results?team=9030&season=2025-2026",
      "image_url": "https://images.englandrugby.com/club_images/9030.png",
      "address": "Garenne Stand, Foote's Lane, St Peter Port, Guernsey, Hampshire, GY1 2UL, United Kingdom",
      "postcode": "GY1 2UL",
      "maps_url": "https://www.google.com/maps/search/?api=1&query=Garenne%20Stand%0AFoote%27s%20Lane%0ASt%20Peter%20Port%0AGuernsey%0AHampshire%0AGY1%202UL%0AUnited%20Kingdom",
      "latitude": 49.4655774,
      "longitude": -2.5648758,
      "formatted_address": "GY1 2UL, St Andrew, L'Aumone, Guernsey",
      "place_id": 352872986
    },
    {
      "name": "Eastleigh",
      "url": "https://www.englandrugby.com/fixtures-and-results/search-results?team=7248&season=2025-2026",
      "image_url": "https://images.englandrugby.com/club_images/7248.png",
      "address": "The Hub, Bishopstoke Road, Eastleigh, Hampshire, SO50 6LA, United Kingdom",
      "postcode": "SO50 6LA",
      "maps_url": "https://www.google.com/maps/search/?api=1&query=The%20Hub%0ABishopstoke%20Road%0AEastleigh%0AHampshire%0ASO50%206LA%0AUnited%20Kingdom",
      "latitude": 50.9706889,
      "longitude": -1.3414294,
      "formatted_address": "The Hub, Bishopstoke Road, Newtown, Eastleigh, Bishopstoke, Eastleigh, Hampshire, England, SO50 6LA, United Kingdom",
      "place_id": 260910748
    }
  ],
  "team_count": 12
}
