{
  "league_name": "Counties 1 Eastern Counties",
  "league_url": "https://www.englandrugby.com/fixtures-and-results/search-results?competition=261&division=66530&season=2025-2026#tables",
  "teams": [
    {
      "name": "Stowmarket",
      "url": "https://www.englandrugby.com/fixtures-and-results/search-results?team=21185&season=2025-2026",
      "image_url": "https://images.englandrugby.com/club_images/21185.png",
      "address": "Stowmarket Rugby Club Chilton Fields Sports Club Chilton Way Stowmarket SUFFOLK IP14 1SZ UNITED KINGDOM ",
      "postcode": "IP14 1SZ",
      "maps_url": "https://www.google.com/maps/search/?api=1&query=Stowmarket%20Rugby%20Club%20Chilton%20Fields%20Sports%20Club%20Chilton%20Way%20Stowmarket%20SUFFOLK%20IP14%201SZ%20UNITED%20KINGDOM%20",
      "latitude": 52.1938224,
      "longitude": 0.9758336,
      "formatted_address": "IP14 1SZ, Stowmarket, Suffolk, England, United Kingdom",
      "place_id": 350659207
    },
    {
      "name": "Bury St Edmunds II",
      "url": "https://www.englandrugby.com/fixtures-and-results/search-results?team=3850&season=2025-2026",
      "image_url": "https://images.englandrugby.com/club_images/3850.png",
      "address": "The Haberden Southgate Green Southgate Green Bury St Edmunds SUFFOLK IP33 2BL UNITED KINGDOM ",
      "postcode": "IP33 2BL",
      "maps_url": "https://www.google.com/maps/search/?api=1&query=The%20Haberden%20Southgate%20Green%20Southgate%20Green%20Bury%20St%20Edmunds%20SUFFOLK%20IP33%202BL%20UNITED%20KINGDOM%20",
      "latitude": 52.23618,
      "longitude": 0.72461,
      "formatted_address": "IP33 2BL, Bury St Edmunds, West Suffolk, Suffolk, England, United Kingdom",
      "place_id": 351399748
    },
    {
      "name": "Saffron Walden",
      "url": "https://www.englandrugby.com/fixtures-and-results/search-results?team=18501&season=2025-2026",
      "image_url": "https://images.englandrugby.com/club_images/18501.png",
      "address": "Saffron Walden Rfc, Springate, Chickney Road, Henham, Essex, CM22 6BQ, United Kingdom",
      "postcode": "CM22 6BQ",
      "maps_url": "https://www.google.com/maps/search/?api=1&query=Saffron%20Walden%20Rfc%0ASpringate%0AChickney%20Road%0AHenham%0AEssex%0ACM22%206BQ%0AUnited%20Kingdom",
      "latitude": 51.93679,
      "longitude": 0.26852,
      "formatted_address": "CM22 6BQ, Chickney, Uttlesford, Essex, England, United Kingdom",
      "place_id": 351078223
    },
    {
      "name": "West Norfolk",
      "url": "https://www.englandrugby.com/fixtures-and-results/search-results?team=24847&season=2025-2026",
      "image_url": "https://images.englandrugby.com/club_images/24847.png",
      "address": "Gatehouse Lane North Wootton King's Lynn NORFOLK PE30 3RJ UNITED KINGDOM ",
      "postcode": "PE30 3RJ",
      "maps_url": "https://www.google.com/maps/search/?api=1&query=Gatehouse%20Lane%20North%20Wootton%20King%27s%20Lynn%20NORFOLK%20PE30%203RJ%20UNITED%20KINGDOM%20",
      "latitude": 52.7931897,
      "longitude": 0.4370715,
      "formatted_address": "Gatehouse Lane, North Wootton, King's Lynn and West Norfolk, Norfolk, England, PE30 3RD, United Kingdom",
      "place_id": 146612925
    },
    {
      "name": "Newmarket",
      "url": "https://www.englandrugby.com/fixtures-and-results/search-results?team=14535&season=2025-2026",
      "image_url": "https://images.englandrugby.com/club_images/14535.png",
      "address": "Scaltback Pavillion, Elizabeth Avenue, Newmarket, Suffolk, CB8 0DJ, United Kingdom",
      "postcode": "CB8 0DJ",
      "maps_url": "https://www.google.com/maps/search/?api=1&query=Scaltback%20Pavillion%0AElizabeth%20Avenue%0ANewmarket%0ASuffolk%0ACB8%200DJ%0AUnited%20Kingdom",
      "latitude": 52.2529094,
      "longitude": 0.391064,
      "formatted_address": "CB8 0DJ, Newmarket, Suffolk, England, United Kingdom",
      "place_id": 350537828
    },
    {
      "name": "Colchester II",
      "url": "https://www.englandrugby.com/fixtures-and-results/search-results?team=5389&season=2025-2026",
      "image_url": "https://images.englandrugby.com/club_images/5389.png",
      "address": "Cuckoo Farm Way, Colchester, CO4 5YX, United Kingdom",
      "postcode": "CO4 5YX",
      "maps_url": "https://www.google.com/maps/search/?api=1&query=Cuckoo%20Farm%20Way%0AColchester%0ACO4%205YX%0AUnited%20Kingdom",
      "latitude": 51.9256509,
      "longitude": 0.900332,
      "formatted_address": "Cuckoo Farm Way, Mile End, Colchester, Essex, England, CO4 5YX, United Kingdom",
      "place_id": 91239389
    },
    {
      "name": "Southwold",
      "url": "https://www.englandrugby.com/fixtures-and-results/search-results?team=19838&season=2025-2026",
      "image_url": "https://images.englandrugby.com/club_images/19838.png",
      "address": "William Godell Pavilion, The Common, Southwold, Suffolk, IP18 6TB, United Kingdom",
      "postcode": "IP18 6TB",
      "maps_url": "https://www.google.com/maps/search/?api=1&query=William%20Godell%20Pavilion%0AThe%20Common%0ASouthwold%0ASuffolk%0AIP18%206TB%0AUnited%20Kingdom",
      "latitude": 52.3268546,
      "longitude": 1.6674237,
      "formatted_address": "IP18 6TB, Southwold, East Suffolk, Suffolk, England, United Kingdom",
      "place_id": 350660373
    },
    {
      "name": "Ipswich",
      "url": "https://www.englandrugby.com/fixtures-and-results/search-results?team=10940&season=2025-2026",
      "image_url": "https://images.englandrugby.com/club_images/10940.png",
      "address": "Ipswich Rugby Football Club, Humber Doucy Lane, Ipswich, IP4 3PZ, United Kingdom",
      "postcode": "IP4 3PZ",
      "maps_url": "https://www.google.com/maps/search/?api=1&query=Ipswich%20Rugby%20Football%20Club%0AHumber%20Doucy%20Lane%0AIpswich%0AIP4%203PZ%0AUnited%20Kingdom",
      "latitude": 52.0738871,
      "longitude": 1.1925517,
      "formatted_address": "IP4 3PZ, Rushmere St Andrew, East Suffolk, Suffolk, England, United Kingdom",
      "place_id": 350665376
    },
    {
      "name": "Shelford II",
      "url": "https://www.englandrugby.com/fixtures-and-results/search-results?team=19150&season=2025-2026",
      "image_url": "https://images.englandrugby.com/club_images/19150.png",
      "address": "The Davey Field, Cambridge Road, Cambridge, Cambridgeshire, CB22 5JU, United Kingdom",
      "postcode": "CB22 5JU",
      "maps_url": "https://www.google.com/maps/search/?api=1&query=The%20Davey%20Field%0ACambridge%20Road%0ACambridge%0ACambridgeshire%0ACB22%205JU%0AUnited%20Kingdom",
      "latitude": 52.1584883,
      "longitude": 0.1220219,
      "formatted_address": "Shelford Rugby Club, Cambridge Road, Great Shelford, Cambridge, Cambridgeshire, Cambridgeshire and Peterborough, England, CB22 5JJ, United Kingdom",
      "place_id": 147365263
    },
    {
      "name": "Ipswich Y.M.",
      "url": "https://www.englandrugby.com/fixtures-and-results/search-results?team=10964&season=2025-2026",
      "image_url": "https://images.englandrugby.com/club_images/10964.png",
      "address": "The Tru7 Community Rugby Ground, The Street, Rushmere St Andrew, Ipswich, Suffolk, IP5 1DG, United Kingdom",
      "postcode": "IP5 1DG",
      "maps_url": "https://www.google.com/maps/search/?api=1&query=The%20Tru7%20Community%20Rugby%20Ground%0AThe%20Street%0ARushmere%20St%20Andrew%0AIpswich%0ASuffolk%0AIP5%201DG%0AUnited%20Kingdom",
      "latitude": 52.0707079,
      "longitude": 1.2080595,
      "formatted_address": "IP5 1DG, Rushmere St Andrew, East Suffolk, Suffolk, England, United Kingdom",
      "place_id": 350665802
    },
    {
      "name": "Ely",
      "url": "https://www.englandrugby.com/fixtures-and-results/search-results?team=7485&season=2025-2026",
      "image_url": "https://images.englandrugby.com/club_images/7485.png",
      "address": "The Playing Fields, Downham Road, Ely, Cambridgeshire, CB6 2SH, United Kingdom",
      "postcode": "CB6 2SH",
      "maps_url": "https://www.google.com/maps/search/?api=1&query=The%20Playing%20Fields%0ADownham%20Road%0AEly%0ACambridgeshire%0ACB6%202SH%0AUnited%20Kingdom",
      "latitude": 52.4099901,
      "longitude": 0.2498483,
      "formatted_address": "CB6 2SH, Ely, East Cambridgeshire, Cambridgeshire, Cambridgeshire and Peterborough, England, United Kingdom",
      "place_id": 350536736
    },
    {
      "name": "North Walsham II",
      "url": "https://www.englandrugby.com/fixtures-and-results/search-results?team=14809&season=2025-2026",
      "image_url": "https://images.englandrugby.com/club_images/14809.png",
      "address": "Norwich Road Scottow Near North Walsham NORFOLK NR10 5BU UNITED KINGDOM ",
      "postcode": "NR10 5BU",
      "maps_url": "https://www.google.com/maps/search/?api=1&query=Norwich%20Road%20Scottow%20Near%20North%20Walsham%20NORFOLK%20NR10%205BU%20UNITED%20KINGDOM%20",
      "latitude": 52.7686657,
      "longitude": 1.3831734,
      "formatted_address": "NR10 5BU, Scottow, North Norfolk, Norfolk, England, United Kingdom",
      "place_id": 350734463
    }
  ],
  "team_count": 12
}