{
  "league_name": "Counties 1 Herts",
  "league_url": "https://www.englandrugby.com/fixtures-and-results/search-results?competition=261&division=66538",
  "teams": [
    {
      "name": "Cheshunt",
      "url": "https://www.englandrugby.com/fixtures-and-results/search-results?team=4636",
      "image_url": "https://images.englandrugby.com/club_images/4636.png",
      "address": "Rosedale Sports Club, Andrews Lane, Andrews Lane, Cheshunt, Hertfordshire, EN7 6TB, United Kingdom",
      "postcode": "EN7 6TB",
      "maps_url": "https://www.google.com/maps/search/?api=1&query=Rosedale%20Sports%20Club%0AAndrews%20Lane%0AAndrews%20Lane%0ACheshunt%0AHertfordshire%0AEN7%206TB%0AUnited%20Kingdom",
      "latitude": 51.71103,
      "longitude": -0.06665,
      "formatted_address": "EN7 6TB, Broxbourne, Hertfordshire, England, United Kingdom",
      "place_id": 351246567
    },
    {
      "name": "Old Albanian Romans",
      "url": "https://www.englandrugby.com/fixtures-and-results/search-results?team=15378",
      "image_url": "https://images.englandrugby.com/club_images/15378.png",
      "address": "Old Albanian Rfc, The Woollam Playing Fields, 160 Harpenden Road, St Albans, Hertfordshire, AL3 6BB, United Kingdom",
      "postcode": "AL3 6BB",
      "maps_url": "https://www.google.com/maps/search/?api=1&query=Old%20Albanian%20Rfc%0AThe%20Woollam%20Playing%20Fields%0A160%20Harpenden%20Road%0ASt%20Albans%0AHertfordshire%0AAL3%206BB%0AUnited%20Kingdom",
      "latitude": 51.7778629,
      "longitude": -0.3346192,
      "formatted_address": "AL3 6BB, St Albans, Hertfordshire, England, United Kingdom",
      "place_id": 350459302
    },
    {
      "name": "Hitchin",
      "url": "https://www.englandrugby.com/fixtures-and-results/search-results?team=10216",
      "image_url": "https://images.englandrugby.com/club_images/10216.png",
      "address": "Hitchin Rugby Club, King George V Playing Fields, Old Hale Way, Hitchin, Hertfordshire, SG5 1XL, United Kingdom",
      "postcode": "SG5 1XL",
      "maps_url": "https://www.google.com/maps/search/?api=1&query=Hitchin%20Rugby%20Club%0AKing%20George%20V%20Playing%20Fields%0AOld%20Hale%20Way%0AHitchin%0AHertfordshire%0ASG5%201XL%0AUnited%20Kingdom",
      "latitude": 51.960199,
      "longitude": -0.279053,
      "formatted_address": "SG5 1XL, North Hertfordshire, Hertfordshire, England, United Kingdom",
      "place_id": 350815550
    },
    {
      "name": "Eton Manor II",
      "url": "https://www.englandrugby.com/fixtures-and-results/search-results?team=7710",
      "image_url": "https://images.englandrugby.com/club_images/7710.png",
      "address": "The New Wilderness, Nutter Lane, Wanstead, London, E11 2JA, United Kingdom",
      "postcode": "E11 2JA",
      "maps_url": "https://www.google.com/maps/search/?api=1&query=The%20New%20Wilderness%0ANutter%20Lane%0AWanstead%0ALondon%0AE11%202JA%0AUnited%20Kingdom",
      "latitude": 51.57942,
      "longitude": 0.03484,
      "formatted_address": "E11 2JA, London Borough of Redbridge, Greater London, England, United Kingdom",
      "place_id": 351212127
    },
    {
      "name": "Bishop's Stortford II",
      "url": "https://www.englandrugby.com/fixtures-and-results/search-results?team=2424",
      "image_url": "https://images.englandrugby.com/club_images/2424.png",
      "address": "Silver Leys, Hadham Road, Bishops Stortford, Hertfordshire, CM23 2QE, United Kingdom",
      "postcode": "CM23 2QE",
      "maps_url": "https://www.google.com/maps/search/?api=1&query=Silver%20Leys%0AHadham%20Road%0ABishops%20Stortford%0AHertfordshire%0ACM23%202QE%0AUnited%20Kingdom",
      "latitude": 51.8761437,
      "longitude": 0.1444547,
      "formatted_address": "CM23 2QE, Bishop's Stortford, East Hertfordshire, Hertfordshire, England, United Kingdom",
      "place_id": 350549497
    },
    {
      "name": "Hertford II",
      "url": "https://www.englandrugby.com/fixtures-and-results/search-results?team=10047",
      "image_url": "https://images.englandrugby.com/club_images/10047.png",
      "address": "Highfields, 62 Hoe Lane, Ware, Hertfordshire, SG12 9NZ, United Kingdom",
      "postcode": "SG12 9NZ",
      "maps_url": "https://www.google.com/maps/search/?api=1&query=Highfields%0A62%20Hoe%20Lane%0AWare%0AHertfordshire%0ASG12%209NZ%0AUnited%20Kingdom",
      "latitude": 51.8031723,
      "longitude": -0.034185,
      "formatted_address": "SG12 9NZ, Ware, East Hertfordshire, Hertfordshire, England, United Kingdom",
      "place_id": 351908059
    },
    {
      "name": "Fullerians",
      "url": "https://www.englandrugby.com/fixtures-and-results/search-results?team=8383",
      "image_url": "https://images.englandrugby.com/club_images/8383.png",
      "address": "Fullerians Rfc, Coningesby Drive, Watford, Hertfordshire, WD17 3PB, United Kingdom",
      "postcode": "WD17 3PB",
      "maps_url": "https://www.google.com/maps/search/?api=1&query=Fullerians%20Rfc%0AConingesby%20Drive%0AWatford%0AHertfordshire%0AWD17%203PB%0AUnited%20Kingdom",
      "latitude": 51.6688493,
      "longitude": -0.4251706,
      "formatted_address": "WD17 3PB, Watford, Hertfordshire, England, United Kingdom",
      "place_id": 352135686
    },
    {
      "name": "Welwyn",
      "url": "https://www.englandrugby.com/fixtures-and-results/search-results?team=24681",
      "image_url": "https://images.englandrugby.com/club_images/24681.png",
      "address": "Handside Playing Fields Hobbs Way, Colgrove Welwyn Garden City HERTFORDSHIRE AL8 6HX UNITED KINGDOM ",
      "postcode": "AL8 6HX",
      "maps_url": "https://www.google.com/maps/search/?api=1&query=Handside%20Playing%20Fields%20Hobbs%20Way%2C%20Colgrove%20Welwyn%20Garden%20City%20HERTFORDSHIRE%20AL8%206HX%20UNITED%20KINGDOM%20",
      "latitude": 51.7944448,
      "longitude": -0.2146882,
      "formatted_address": "AL8 6HX, Welwyn Hatfield, Hertfordshire, England, United Kingdom",
      "place_id": 350915715
    },
    {
      "name": "Hemel Hempstead",
      "url": "https://www.englandrugby.com/fixtures-and-results/search-results?team=9950",
      "image_url": "https://images.englandrugby.com/club_images/9950.png",
      "address": "Chaulden Lane, Hemel Hempstead, Herts                         , HP1 2BS, United Kingdom",
      "postcode": "HP1 2BS",
      "maps_url": "https://www.google.com/maps/search/?api=1&query=Chaulden%20Lane%0AHemel%20Hempstead%0AHerts%20%20%20%20%20%20%20%20%20%20%20%20%20%20%20%20%20%20%20%20%20%20%20%20%20%0AHP1%202BS%0AUnited%20Kingdom",
      "latitude": 51.7470542,
      "longitude": -0.5006633,
      "formatted_address": "Chaulden Lane, Chaulden, Bourne End, Dacorum, Hertfordshire, England, HP1 2BS, United Kingdom",
      "place_id": 258916641
    },
    {
      "name": "Southend II",
      "url": "https://www.englandrugby.com/fixtures-and-results/search-results?team=19721",
      "image_url": "https://images.englandrugby.com/club_images/19721.png",
      "address": "Sumpters Way, Warners Bridge Park, Southend-on-sea, Essex, SS2 5RE, United Kingdom",
      "postcode": "SS2 5RE",
      "maps_url": "https://www.google.com/maps/search/?api=1&query=Sumpters%20Way%0AWarners%20Bridge%20Park%0ASouthend-on-sea%0AEssex%0ASS2%205RE%0AUnited%20Kingdom",
      "latitude": 51.5642,
      "longitude": 0.70702,
      "formatted_address": "SS2 5RE, Southend-on-Sea, Essex, England, United Kingdom",
      "place_id": 351981743
    }
  ],
  "team_count": 10
}