{
  "league_name": "Counties 2 Tribute Cornwall",
  "league_url": "https://www.englandrugby.com/fixtures-and-results/search-results?competition=1699&division=39177&season=2022-2023#tables",
  "teams": [
    {
      "name": "St Ives (SW)",
      "url": "https://www.englandrugby.com/fixtures-and-results/search-results?team=20429",
      "image_url": "https://images.englandrugby.com/club_images/20429.png",
      "address": "Alexandra Road, St. Ives, Cornw, TR26 1ER, United Kingdom",
      "latitude": 50.21043,
      "longitude": -5.49292,
      "formatted_address": "TR26 1ER, St. Ives, Cornwall, England, United Kingdom",
      "place_id": 352073872
    },
    {
      "name": "Saltash",
      "url": "https://www.englandrugby.com/fixtures-and-results/search-results?team=18628",
      "image_url": "https://images.englandrugby.com/club_images/18628.png",
      "address": "Saltash Rfc, Moorlands Lane, Saltash, Cornwall , PL12 4HJ, United Kingdom",
      "latitude": 50.4150578,
      "longitude": -4.2364835,
      "formatted_address": "PL12 4HJ, Saltash, Cornwall, England, United Kingdom",
      "place_id": 351762971
    },
    {
      "name": "Veor",
      "url": "https://www.englandrugby.com/fixtures-and-results/search-results?team=23959",
      "image_url": "https://images.englandrugby.com/club_images/23959.png",
      "address": "Holman Sports Club 32 Pendarves Road Camborne Cornwall TR14 7QG United Kingdom",
      "latitude": 50.2087467,
      "longitude": -5.3047534,
      "formatted_address": "TR14 7QG, Camborne, Cornwall, England, United Kingdom",
      "place_id": 350866740
    },
    {
      "name": "St Austell II",
      "url": "https://www.englandrugby.com/fixtures-and-results/search-results?team=20159",
      "image_url": "https://images.englandrugby.com/club_images/20159.png",
      "address": "St. Austell R.f.c., Tregorrick Park, Tregorrick Lane, St.austell, Cornw, PL26 7FH, United Kingdom",
      "latitude": 50.3279,
      "longitude": -4.77697,
      "formatted_address": "PL26 7FH, Pentewan Valley, London Apprentice, Cornwall, England, United Kingdom",
      "place_id": 351770069
    },
    {
      "name": "Redruth II",
      "url": "https://www.englandrugby.com/fixtures-and-results/search-results?team=17625",
      "image_url": "https://images.englandrugby.com/club_images/17625.png",
      "address": "Cardrew Lane Redruth TR15 1SY UNITED KINGDOM",
      "latitude": 50.2384118,
      "longitude": -5.2288534,
      "formatted_address": "Cardrew Lane, Redruth, Cornwall, England, TR15 1LU, United Kingdom",
      "place_id": 262938649
    },
    {
      "name": "Liskeard-Looe",
      "url": "https://www.englandrugby.com/fixtures-and-results/search-results?team=12347",
      "image_url": "https://images.englandrugby.com/club_images/12347.png",
      "address": "Lux Park Coldstyle Road Liskeard CORNWALL PL14 3HZ UNITED KINGDOM ",
      "latitude": 50.4605849,
      "longitude": -4.4629552,
      "formatted_address": "PL14 3HZ, Liskeard, Cornwall, England, United Kingdom",
      "place_id": 350772630
    },
    {
      "name": "Bodmin",
      "url": "https://www.englandrugby.com/fixtures-and-results/search-results?team=2662",
      "image_url": "https://images.englandrugby.com/club_images/2662.png",
      "address": "Bodmin R.F.C. Clifden Park Carmminow Cross BODMIN CORNWALL PL30 4AW UNITED KINGDOM ",
      "latitude": 50.4584642,
      "longitude": -4.6905979,
      "formatted_address": "PL30 4AW, Bodmin, Cornwall, England, United Kingdom",
      "place_id": 351772121
    },
    {
      "name": "Helston",
      "url": "https://www.englandrugby.com/fixtures-and-results/search-results?team=9925",
      "image_url": "https://images.englandrugby.com/club_images/9925.png",
      "address": "King George V Playing Fields, Clodgey Lane, Helston, Cornwall, TR13 8PJ, United Kingdom",
      "latitude": 50.1048847,
      "longitude": -5.2657992,
      "formatted_address": "TR13 8PJ, Helston, Cornwall, England, United Kingdom",
      "place_id": 350866499
    },
    {
      "name": "Illogan Park",
      "url": "https://www.englandrugby.com/fixtures-and-results/search-results?team=10851",
      "image_url": "https://images.englandrugby.com/club_images/10851.png",
      "address": "Sports Field, Paynters Lane End, Redruth, Cornwall, TR16 4RR, United Kingdom",
      "latitude": 50.2452489,
      "longitude": -5.2674444,
      "formatted_address": "TR16 4RR, Illogan, Cornwall, England, United Kingdom",
      "place_id": 350867104
    },
    {
      "name": "Newquay Hornets",
      "url": "https://www.englandrugby.com/fixtures-and-results/search-results?team=14584",
      "image_url": "https://images.englandrugby.com/club_images/14584.png",
      "address": "Newquay Sports Centre Yeoman Way Yeoman Way Newquay CORNWALL TR7 2SL UNITED KINGDOM ",
      "latitude": 50.41375,
      "longitude": -5.06232,
      "formatted_address": "TR7 2SL, Newquay, Cornwall, England, United Kingdom",
      "place_id": 352076356
    },
    {
      "name": "Camborne S o M",
      "url": "https://www.englandrugby.com/fixtures-and-results/search-results?team=4006",
      "image_url": "https://images.englandrugby.com/club_images/4006.png",
      "address": "Camborne School of Mines Tremough Campus Penryn CORNWALL TR10 9EZ UNITED KINGDOM ",
      "latitude": 50.16863,
      "longitude": -5.1259,
      "formatted_address": "TR10 9EZ, Mabe, Cornwall, England, United Kingdom",
      "place_id": 352067944
    },
    {
      "name": "Hayle",
      "url": "https://www.englandrugby.com/fixtures-and-results/search-results?team=9762",
      "image_url": "https://images.englandrugby.com/club_images/9762.png",
      "address": "Memorial Park, Marsh Lane, Hayle, Cornwall, TR27 4PS, United Kingdom",
      "latitude": 50.19573,
      "longitude": -5.39965,
      "formatted_address": "TR27 4PS, Hayle, Cornwall, England, United Kingdom",
      "place_id": 352074538
    }
  ],
  "team_count": 12
}